0	202	M202:RAW_IMU.xacc	-192
0	202	M202:RAW_IMU.yacc	128
0	202	M202:RAW_IMU.zacc	-3584
0	202	M202:RAW_IMU.xmag	-282
0	202	M202:RAW_IMU.ymag	343
0	202	M202:RAW_IMU.zmag	-169
88	202	M202:RAW_IMU.xacc	-192
88	202	M202:RAW_IMU.yacc	192
88	202	M202:RAW_IMU.zacc	-3584
88	202	M202:RAW_IMU.xmag	-282
88	202	M202:RAW_IMU.ymag	340
88	202	M202:RAW_IMU.zmag	-165
188	202	M202:RAW_IMU.xacc	-192
188	202	M202:RAW_IMU.yacc	128
188	202	M202:RAW_IMU.zacc	-3648
188	202	M202:RAW_IMU.xmag	-280
188	202	M202:RAW_IMU.ymag	331
188	202	M202:RAW_IMU.zmag	-167
288	202	M202:RAW_IMU.xacc	-128
288	202	M202:RAW_IMU.yacc	128
288	202	M202:RAW_IMU.zacc	-3648
288	202	M202:RAW_IMU.xmag	-281
288	202	M202:RAW_IMU.ymag	336
288	202	M202:RAW_IMU.zmag	-168
388	202	M202:RAW_IMU.xacc	-192
388	202	M202:RAW_IMU.yacc	128
388	202	M202:RAW_IMU.zacc	-3584
388	202	M202:RAW_IMU.xmag	-280
388	202	M202:RAW_IMU.ymag	340
388	202	M202:RAW_IMU.zmag	-165
488	202	M202:RAW_IMU.xacc	-192
488	202	M202:RAW_IMU.yacc	192
488	202	M202:RAW_IMU.zacc	-3584
488	202	M202:RAW_IMU.xmag	-282
488	202	M202:RAW_IMU.ymag	335
488	202	M202:RAW_IMU.zmag	-170
588	202	M202:RAW_IMU.xacc	-192
588	202	M202:RAW_IMU.yacc	128
588	202	M202:RAW_IMU.zacc	-3584
588	202	M202:RAW_IMU.xmag	-285
588	202	M202:RAW_IMU.ymag	336
588	202	M202:RAW_IMU.zmag	-168
688	202	M202:RAW_IMU.xacc	-128
688	202	M202:RAW_IMU.yacc	128
688	202	M202:RAW_IMU.zacc	-3584
688	202	M202:RAW_IMU.xmag	-284
688	202	M202:RAW_IMU.ymag	338
688	202	M202:RAW_IMU.zmag	-173
788	202	M202:RAW_IMU.xacc	-128
788	202	M202:RAW_IMU.yacc	128
788	202	M202:RAW_IMU.zacc	-3648
788	202	M202:RAW_IMU.xmag	-279
788	202	M202:RAW_IMU.ymag	338
788	202	M202:RAW_IMU.zmag	-169
888	202	M202:RAW_IMU.xacc	-192
888	202	M202:RAW_IMU.yacc	192
888	202	M202:RAW_IMU.zacc	-3584
888	202	M202:RAW_IMU.xmag	-280
888	202	M202:RAW_IMU.ymag	334
888	202	M202:RAW_IMU.zmag	-166
984	202	M202:RAW_IMU.xacc	-192
984	202	M202:RAW_IMU.yacc	128
984	202	M202:RAW_IMU.zacc	-3584
984	202	M202:RAW_IMU.xmag	-283
984	202	M202:RAW_IMU.ymag	336
984	202	M202:RAW_IMU.zmag	-168
1088	202	M202:RAW_IMU.xacc	-128
1088	202	M202:RAW_IMU.yacc	128
1088	202	M202:RAW_IMU.zacc	-3584
1088	202	M202:RAW_IMU.xmag	-281
1088	202	M202:RAW_IMU.ymag	338
1088	202	M202:RAW_IMU.zmag	-174
1188	202	M202:RAW_IMU.xacc	-128
1188	202	M202:RAW_IMU.yacc	128
1188	202	M202:RAW_IMU.zacc	-3584
1188	202	M202:RAW_IMU.xmag	-282
1188	202	M202:RAW_IMU.ymag	335
1188	202	M202:RAW_IMU.zmag	-167
1288	202	M202:RAW_IMU.xacc	-128
1288	202	M202:RAW_IMU.yacc	192
1288	202	M202:RAW_IMU.zacc	-3648
1288	202	M202:RAW_IMU.xmag	-283
1288	202	M202:RAW_IMU.ymag	338
1288	202	M202:RAW_IMU.zmag	-166
1388	202	M202:RAW_IMU.xacc	-192
1388	202	M202:RAW_IMU.yacc	192
1388	202	M202:RAW_IMU.zacc	-3584
1388	202	M202:RAW_IMU.xmag	-282
1388	202	M202:RAW_IMU.ymag	336
1388	202	M202:RAW_IMU.zmag	-173
1488	202	M202:RAW_IMU.xacc	-128
1488	202	M202:RAW_IMU.yacc	192
1488	202	M202:RAW_IMU.zacc	-3520
1488	202	M202:RAW_IMU.xmag	-284
1488	202	M202:RAW_IMU.ymag	296
1488	202	M202:RAW_IMU.zmag	-165
1588	202	M202:RAW_IMU.xacc	-192
1588	202	M202:RAW_IMU.yacc	128
1588	202	M202:RAW_IMU.zacc	-3584
1588	202	M202:RAW_IMU.xmag	-280
1588	202	M202:RAW_IMU.ymag	334
1588	202	M202:RAW_IMU.zmag	-167
1688	202	M202:RAW_IMU.xacc	-192
1688	202	M202:RAW_IMU.yacc	192
1688	202	M202:RAW_IMU.zacc	-3584
1688	202	M202:RAW_IMU.xmag	-281
1688	202	M202:RAW_IMU.ymag	337
1688	202	M202:RAW_IMU.zmag	-166
1788	202	M202:RAW_IMU.xacc	-192
1788	202	M202:RAW_IMU.yacc	192
1788	202	M202:RAW_IMU.zacc	-3584
1788	202	M202:RAW_IMU.xmag	-280
1788	202	M202:RAW_IMU.ymag	338
1788	202	M202:RAW_IMU.zmag	-174
1888	202	M202:RAW_IMU.xacc	-192
1888	202	M202:RAW_IMU.yacc	128
1888	202	M202:RAW_IMU.zacc	-3584
1888	202	M202:RAW_IMU.xmag	-283
1888	202	M202:RAW_IMU.ymag	335
1888	202	M202:RAW_IMU.zmag	-169
1984	202	M202:RAW_IMU.xacc	-128
1984	202	M202:RAW_IMU.yacc	128
1984	202	M202:RAW_IMU.zacc	-3584
1984	202	M202:RAW_IMU.xmag	-283
1984	202	M202:RAW_IMU.ymag	340
1984	202	M202:RAW_IMU.zmag	-168
2088	202	M202:RAW_IMU.xacc	-192
2088	202	M202:RAW_IMU.yacc	128
2088	202	M202:RAW_IMU.zacc	-3584
2088	202	M202:RAW_IMU.xmag	-283
2088	202	M202:RAW_IMU.ymag	341
2088	202	M202:RAW_IMU.zmag	-172
2188	202	M202:RAW_IMU.xacc	-192
2188	202	M202:RAW_IMU.yacc	128
2188	202	M202:RAW_IMU.zacc	-3584
2188	202	M202:RAW_IMU.xmag	-281
2188	202	M202:RAW_IMU.ymag	336
2188	202	M202:RAW_IMU.zmag	-171
2288	202	M202:RAW_IMU.xacc	-192
2288	202	M202:RAW_IMU.yacc	128
2288	202	M202:RAW_IMU.zacc	-3648
2288	202	M202:RAW_IMU.xmag	-282
2288	202	M202:RAW_IMU.ymag	335
2288	202	M202:RAW_IMU.zmag	-169
2388	202	M202:RAW_IMU.xacc	-192
2388	202	M202:RAW_IMU.yacc	192
2388	202	M202:RAW_IMU.zacc	-3584
2388	202	M202:RAW_IMU.xmag	-283
2388	202	M202:RAW_IMU.ymag	335
2388	202	M202:RAW_IMU.zmag	-169
2488	202	M202:RAW_IMU.xacc	-192
2488	202	M202:RAW_IMU.yacc	128
2488	202	M202:RAW_IMU.zacc	-3584
2488	202	M202:RAW_IMU.xmag	-288
2488	202	M202:RAW_IMU.ymag	343
2488	202	M202:RAW_IMU.zmag	-168
2588	202	M202:RAW_IMU.xacc	-192
2588	202	M202:RAW_IMU.yacc	128
2588	202	M202:RAW_IMU.zacc	-3648
2588	202	M202:RAW_IMU.xmag	-283
2588	202	M202:RAW_IMU.ymag	341
2588	202	M202:RAW_IMU.zmag	-172
2688	202	M202:RAW_IMU.xacc	-192
2688	202	M202:RAW_IMU.yacc	128
2688	202	M202:RAW_IMU.zacc	-3584
2688	202	M202:RAW_IMU.xmag	-284
2688	202	M202:RAW_IMU.ymag	341
2688	202	M202:RAW_IMU.zmag	-169
2788	202	M202:RAW_IMU.xacc	-64
2788	202	M202:RAW_IMU.yacc	128
2788	202	M202:RAW_IMU.zacc	-3584
2788	202	M202:RAW_IMU.xmag	-287
2788	202	M202:RAW_IMU.ymag	340
2788	202	M202:RAW_IMU.zmag	-168
2888	202	M202:RAW_IMU.xacc	-128
2888	202	M202:RAW_IMU.yacc	128
2888	202	M202:RAW_IMU.zacc	-3648
2888	202	M202:RAW_IMU.xmag	-285
2888	202	M202:RAW_IMU.ymag	341
2888	202	M202:RAW_IMU.zmag	-166
2984	202	M202:RAW_IMU.xacc	-192
2984	202	M202:RAW_IMU.yacc	192
2984	202	M202:RAW_IMU.zacc	-3584
2984	202	M202:RAW_IMU.xmag	-283
2984	202	M202:RAW_IMU.ymag	340
2984	202	M202:RAW_IMU.zmag	-173
3088	202	M202:RAW_IMU.xacc	-192
3088	202	M202:RAW_IMU.yacc	128
3088	202	M202:RAW_IMU.zacc	-3584
3088	202	M202:RAW_IMU.xmag	-288
3088	202	M202:RAW_IMU.ymag	335
3088	202	M202:RAW_IMU.zmag	-170
3188	202	M202:RAW_IMU.xacc	-192
3188	202	M202:RAW_IMU.yacc	128
3188	202	M202:RAW_IMU.zacc	-3648
3188	202	M202:RAW_IMU.xmag	-290
3188	202	M202:RAW_IMU.ymag	342
3188	202	M202:RAW_IMU.zmag	-172
3288	202	M202:RAW_IMU.xacc	-192
3288	202	M202:RAW_IMU.yacc	128
3288	202	M202:RAW_IMU.zacc	-3584
3288	202	M202:RAW_IMU.xmag	-284
3288	202	M202:RAW_IMU.ymag	340
3288	202	M202:RAW_IMU.zmag	-175
3388	202	M202:RAW_IMU.xacc	-192
3388	202	M202:RAW_IMU.yacc	128
3388	202	M202:RAW_IMU.zacc	-3648
3388	202	M202:RAW_IMU.xmag	-284
3388	202	M202:RAW_IMU.ymag	338
3388	202	M202:RAW_IMU.zmag	-166
3488	202	M202:RAW_IMU.xacc	-192
3488	202	M202:RAW_IMU.yacc	128
3488	202	M202:RAW_IMU.zacc	-3584
3488	202	M202:RAW_IMU.xmag	-288
3488	202	M202:RAW_IMU.ymag	338
3488	202	M202:RAW_IMU.zmag	-176
3588	202	M202:RAW_IMU.xacc	-192
3588	202	M202:RAW_IMU.yacc	64
3588	202	M202:RAW_IMU.zacc	-3584
3588	202	M202:RAW_IMU.xmag	-290
3588	202	M202:RAW_IMU.ymag	340
3588	202	M202:RAW_IMU.zmag	-167
3688	202	M202:RAW_IMU.xacc	-128
3688	202	M202:RAW_IMU.yacc	192
3688	202	M202:RAW_IMU.zacc	-3648
3688	202	M202:RAW_IMU.xmag	-284
3688	202	M202:RAW_IMU.ymag	272
3688	202	M202:RAW_IMU.zmag	-189
3788	202	M202:RAW_IMU.xacc	-192
3788	202	M202:RAW_IMU.yacc	128
3788	202	M202:RAW_IMU.zacc	-3584
3788	202	M202:RAW_IMU.xmag	-289
3788	202	M202:RAW_IMU.ymag	330
3788	202	M202:RAW_IMU.zmag	-169
3888	202	M202:RAW_IMU.xacc	-192
3888	202	M202:RAW_IMU.yacc	128
3888	202	M202:RAW_IMU.zacc	-3584
3888	202	M202:RAW_IMU.xmag	-287
3888	202	M202:RAW_IMU.ymag	336
3888	202	M202:RAW_IMU.zmag	-167
3984	202	M202:RAW_IMU.xacc	-192
3984	202	M202:RAW_IMU.yacc	192
3984	202	M202:RAW_IMU.zacc	-3584
3984	202	M202:RAW_IMU.xmag	-287
3984	202	M202:RAW_IMU.ymag	340
3984	202	M202:RAW_IMU.zmag	-175
4092	202	M202:RAW_IMU.xacc	-256
4092	202	M202:RAW_IMU.yacc	128
4092	202	M202:RAW_IMU.zacc	-3584
4092	202	M202:RAW_IMU.xmag	-288
4092	202	M202:RAW_IMU.ymag	335
4092	202	M202:RAW_IMU.zmag	-160
4192	202	M202:RAW_IMU.xacc	-192
4192	202	M202:RAW_IMU.yacc	192
4192	202	M202:RAW_IMU.zacc	-3584
4192	202	M202:RAW_IMU.xmag	-289
4192	202	M202:RAW_IMU.ymag	332
4192	202	M202:RAW_IMU.zmag	-168
4292	202	M202:RAW_IMU.xacc	-192
4292	202	M202:RAW_IMU.yacc	192
4292	202	M202:RAW_IMU.zacc	-3648
4292	202	M202:RAW_IMU.xmag	-290
4292	202	M202:RAW_IMU.ymag	334
4292	202	M202:RAW_IMU.zmag	-168
4392	202	M202:RAW_IMU.xacc	-192
4392	202	M202:RAW_IMU.yacc	192
4392	202	M202:RAW_IMU.zacc	-3584
4392	202	M202:RAW_IMU.xmag	-288
4392	202	M202:RAW_IMU.ymag	338
4392	202	M202:RAW_IMU.zmag	-173
4484	202	M202:RAW_IMU.xacc	-192
4484	202	M202:RAW_IMU.yacc	128
4484	202	M202:RAW_IMU.zacc	-3584
4484	202	M202:RAW_IMU.xmag	-286
4484	202	M202:RAW_IMU.ymag	336
4484	202	M202:RAW_IMU.zmag	-174
4584	202	M202:RAW_IMU.xacc	-128
4584	202	M202:RAW_IMU.yacc	128
4584	202	M202:RAW_IMU.zacc	-3584
4584	202	M202:RAW_IMU.xmag	-287
4584	202	M202:RAW_IMU.ymag	334
4584	202	M202:RAW_IMU.zmag	-168
4684	202	M202:RAW_IMU.xacc	-192
4684	202	M202:RAW_IMU.yacc	128
4684	202	M202:RAW_IMU.zacc	-3584
4684	202	M202:RAW_IMU.xmag	-286
4684	202	M202:RAW_IMU.ymag	334
4684	202	M202:RAW_IMU.zmag	-175
4784	202	M202:RAW_IMU.xacc	-192
4784	202	M202:RAW_IMU.yacc	128
4784	202	M202:RAW_IMU.zacc	-3648
4784	202	M202:RAW_IMU.xmag	-289
4784	202	M202:RAW_IMU.ymag	333
4784	202	M202:RAW_IMU.zmag	-168
4888	202	M202:RAW_IMU.xacc	-128
4888	202	M202:RAW_IMU.yacc	64
4888	202	M202:RAW_IMU.zacc	-3584
4888	202	M202:RAW_IMU.xmag	-286
4888	202	M202:RAW_IMU.ymag	328
4888	202	M202:RAW_IMU.zmag	-168
5000	202	M202:RAW_IMU.xacc	-192
5000	202	M202:RAW_IMU.yacc	128
5000	202	M202:RAW_IMU.zacc	-3648
5000	202	M202:RAW_IMU.xmag	-294
5000	202	M202:RAW_IMU.ymag	335
5000	202	M202:RAW_IMU.zmag	-173
5088	202	M202:RAW_IMU.xacc	-192
5088	202	M202:RAW_IMU.yacc	192
5088	202	M202:RAW_IMU.zacc	-3648
5088	202	M202:RAW_IMU.xmag	-288
5088	202	M202:RAW_IMU.ymag	333
5088	202	M202:RAW_IMU.zmag	-174
5188	202	M202:RAW_IMU.xacc	-192
5188	202	M202:RAW_IMU.yacc	128
5188	202	M202:RAW_IMU.zacc	-3584
5188	202	M202:RAW_IMU.xmag	-286
5188	202	M202:RAW_IMU.ymag	336
5188	202	M202:RAW_IMU.zmag	-157
5288	202	M202:RAW_IMU.xacc	-128
5288	202	M202:RAW_IMU.yacc	128
5288	202	M202:RAW_IMU.zacc	-3648
5288	202	M202:RAW_IMU.xmag	-290
5288	202	M202:RAW_IMU.ymag	333
5288	202	M202:RAW_IMU.zmag	-166
5388	202	M202:RAW_IMU.xacc	-192
5388	202	M202:RAW_IMU.yacc	128
5388	202	M202:RAW_IMU.zacc	-3584
5388	202	M202:RAW_IMU.xmag	-294
5388	202	M202:RAW_IMU.ymag	332
5388	202	M202:RAW_IMU.zmag	-169
5488	202	M202:RAW_IMU.xacc	-128
5488	202	M202:RAW_IMU.yacc	128
5488	202	M202:RAW_IMU.zacc	-3520
5488	202	M202:RAW_IMU.xmag	-287
5488	202	M202:RAW_IMU.ymag	314
5488	202	M202:RAW_IMU.zmag	-185
5588	202	M202:RAW_IMU.xacc	-128
5588	202	M202:RAW_IMU.yacc	192
5588	202	M202:RAW_IMU.zacc	-3584
5588	202	M202:RAW_IMU.xmag	-289
5588	202	M202:RAW_IMU.ymag	332
5588	202	M202:RAW_IMU.zmag	-166
5688	202	M202:RAW_IMU.xacc	-128
5688	202	M202:RAW_IMU.yacc	192
5688	202	M202:RAW_IMU.zacc	-3648
5688	202	M202:RAW_IMU.xmag	-290
5688	202	M202:RAW_IMU.ymag	299
5688	202	M202:RAW_IMU.zmag	-190
5788	202	M202:RAW_IMU.xacc	-128
5788	202	M202:RAW_IMU.yacc	128
5788	202	M202:RAW_IMU.zacc	-3648
5788	202	M202:RAW_IMU.xmag	-289
5788	202	M202:RAW_IMU.ymag	333
5788	202	M202:RAW_IMU.zmag	-169
5888	202	M202:RAW_IMU.xacc	-192
5888	202	M202:RAW_IMU.yacc	128
5888	202	M202:RAW_IMU.zacc	-3584
5888	202	M202:RAW_IMU.xmag	-286
5888	202	M202:RAW_IMU.ymag	335
5888	202	M202:RAW_IMU.zmag	-168
5984	202	M202:RAW_IMU.xacc	-128
5984	202	M202:RAW_IMU.yacc	128
5984	202	M202:RAW_IMU.zacc	-3584
5984	202	M202:RAW_IMU.xmag	-287
5984	202	M202:RAW_IMU.ymag	308
5984	202	M202:RAW_IMU.zmag	-167
6088	202	M202:RAW_IMU.xacc	-192
6088	202	M202:RAW_IMU.yacc	128
6088	202	M202:RAW_IMU.zacc	-3584
6088	202	M202:RAW_IMU.xmag	-293
6088	202	M202:RAW_IMU.ymag	335
6088	202	M202:RAW_IMU.zmag	-166
6188	202	M202:RAW_IMU.xacc	-192
6188	202	M202:RAW_IMU.yacc	128
6188	202	M202:RAW_IMU.zacc	-3584
6188	202	M202:RAW_IMU.xmag	-286
6188	202	M202:RAW_IMU.ymag	333
6188	202	M202:RAW_IMU.zmag	-168
6288	202	M202:RAW_IMU.xacc	-192
6288	202	M202:RAW_IMU.yacc	128
6288	202	M202:RAW_IMU.zacc	-3584
6288	202	M202:RAW_IMU.xmag	-289
6288	202	M202:RAW_IMU.ymag	332
6288	202	M202:RAW_IMU.zmag	-168
6388	202	M202:RAW_IMU.xacc	-192
6388	202	M202:RAW_IMU.yacc	192
6388	202	M202:RAW_IMU.zacc	-3648
6388	202	M202:RAW_IMU.xmag	-293
6388	202	M202:RAW_IMU.ymag	336
6388	202	M202:RAW_IMU.zmag	-166
6488	202	M202:RAW_IMU.xacc	-192
6488	202	M202:RAW_IMU.yacc	192
6488	202	M202:RAW_IMU.zacc	-3648
6488	202	M202:RAW_IMU.xmag	-286
6488	202	M202:RAW_IMU.ymag	309
6488	202	M202:RAW_IMU.zmag	-206
6588	202	M202:RAW_IMU.xacc	-128
6588	202	M202:RAW_IMU.yacc	128
6588	202	M202:RAW_IMU.zacc	-3584
6588	202	M202:RAW_IMU.xmag	-289
6588	202	M202:RAW_IMU.ymag	334
6588	202	M202:RAW_IMU.zmag	-166
6688	202	M202:RAW_IMU.xacc	-192
6688	202	M202:RAW_IMU.yacc	192
6688	202	M202:RAW_IMU.zacc	-3584
6688	202	M202:RAW_IMU.xmag	-291
6688	202	M202:RAW_IMU.ymag	334
6688	202	M202:RAW_IMU.zmag	-169
6788	202	M202:RAW_IMU.xacc	-192
6788	202	M202:RAW_IMU.yacc	128
6788	202	M202:RAW_IMU.zacc	-3584
6788	202	M202:RAW_IMU.xmag	-293
6788	202	M202:RAW_IMU.ymag	337
6788	202	M202:RAW_IMU.zmag	-168
6888	202	M202:RAW_IMU.xacc	-128
6888	202	M202:RAW_IMU.yacc	128
6888	202	M202:RAW_IMU.zacc	-3584
6888	202	M202:RAW_IMU.xmag	-289
6888	202	M202:RAW_IMU.ymag	337
6888	202	M202:RAW_IMU.zmag	-174
6984	202	M202:RAW_IMU.xacc	-128
6984	202	M202:RAW_IMU.yacc	192
6984	202	M202:RAW_IMU.zacc	-3584
6984	202	M202:RAW_IMU.xmag	-291
6984	202	M202:RAW_IMU.ymag	334
6984	202	M202:RAW_IMU.zmag	-166
7088	202	M202:RAW_IMU.xacc	-192
7088	202	M202:RAW_IMU.yacc	192
7088	202	M202:RAW_IMU.zacc	-3584
7088	202	M202:RAW_IMU.xmag	-288
7088	202	M202:RAW_IMU.ymag	330
7088	202	M202:RAW_IMU.zmag	-169
7188	202	M202:RAW_IMU.xacc	-192
7188	202	M202:RAW_IMU.yacc	192
7188	202	M202:RAW_IMU.zacc	-3648
7188	202	M202:RAW_IMU.xmag	-292
7188	202	M202:RAW_IMU.ymag	334
7188	202	M202:RAW_IMU.zmag	-157
7288	202	M202:RAW_IMU.xacc	-192
7288	202	M202:RAW_IMU.yacc	128
7288	202	M202:RAW_IMU.zacc	-3648
7288	202	M202:RAW_IMU.xmag	-286
7288	202	M202:RAW_IMU.ymag	336
7288	202	M202:RAW_IMU.zmag	-170
7388	202	M202:RAW_IMU.xacc	-192
7388	202	M202:RAW_IMU.yacc	192
7388	202	M202:RAW_IMU.zacc	-3648
7388	202	M202:RAW_IMU.xmag	-289
7388	202	M202:RAW_IMU.ymag	329
7388	202	M202:RAW_IMU.zmag	-169
7488	202	M202:RAW_IMU.xacc	-128
7488	202	M202:RAW_IMU.yacc	192
7488	202	M202:RAW_IMU.zacc	-3584
7488	202	M202:RAW_IMU.xmag	-292
7488	202	M202:RAW_IMU.ymag	334
7488	202	M202:RAW_IMU.zmag	-165
7588	202	M202:RAW_IMU.xacc	-192
7588	202	M202:RAW_IMU.yacc	64
7588	202	M202:RAW_IMU.zacc	-3584
7588	202	M202:RAW_IMU.xmag	-292
7588	202	M202:RAW_IMU.ymag	337
7588	202	M202:RAW_IMU.zmag	-171
7688	202	M202:RAW_IMU.xacc	-256
7688	202	M202:RAW_IMU.yacc	128
7688	202	M202:RAW_IMU.zacc	-3584
7688	202	M202:RAW_IMU.xmag	-289
7688	202	M202:RAW_IMU.ymag	312
7688	202	M202:RAW_IMU.zmag	-154
7788	202	M202:RAW_IMU.xacc	-256
7788	202	M202:RAW_IMU.yacc	512
7788	202	M202:RAW_IMU.zacc	-3712
7788	202	M202:RAW_IMU.xmag	-290
7788	202	M202:RAW_IMU.ymag	286
7788	202	M202:RAW_IMU.zmag	-140
7888	202	M202:RAW_IMU.xacc	-192
7888	202	M202:RAW_IMU.yacc	896
7888	202	M202:RAW_IMU.zacc	-3648
7888	202	M202:RAW_IMU.xmag	-294
7888	202	M202:RAW_IMU.ymag	218
7888	202	M202:RAW_IMU.zmag	-112
7984	202	M202:RAW_IMU.xacc	-192
7984	202	M202:RAW_IMU.yacc	1408
7984	202	M202:RAW_IMU.zacc	-3392
7984	202	M202:RAW_IMU.xmag	-298
7984	202	M202:RAW_IMU.ymag	160
7984	202	M202:RAW_IMU.zmag	-96
8092	202	M202:RAW_IMU.xacc	-128
8092	202	M202:RAW_IMU.yacc	1984
8092	202	M202:RAW_IMU.zacc	-3200
8092	202	M202:RAW_IMU.xmag	-302
8092	202	M202:RAW_IMU.ymag	79
8092	202	M202:RAW_IMU.zmag	-83
8192	202	M202:RAW_IMU.xacc	-64
8192	202	M202:RAW_IMU.yacc	2432
8192	202	M202:RAW_IMU.zacc	-3008
8192	202	M202:RAW_IMU.xmag	-303
8192	202	M202:RAW_IMU.ymag	49
8192	202	M202:RAW_IMU.zmag	-83
8292	202	M202:RAW_IMU.xacc	-128
8292	202	M202:RAW_IMU.yacc	2752
8292	202	M202:RAW_IMU.zacc	-2816
8292	202	M202:RAW_IMU.xmag	-313
8292	202	M202:RAW_IMU.ymag	-10
8292	202	M202:RAW_IMU.zmag	-86
8392	202	M202:RAW_IMU.xacc	-64
8392	202	M202:RAW_IMU.yacc	2944
8392	202	M202:RAW_IMU.zacc	-2560
8392	202	M202:RAW_IMU.xmag	-310
8392	202	M202:RAW_IMU.ymag	-37
8392	202	M202:RAW_IMU.zmag	-87
8488	202	M202:RAW_IMU.xacc	-64
8488	202	M202:RAW_IMU.yacc	3136
8488	202	M202:RAW_IMU.zacc	-2240
8488	202	M202:RAW_IMU.xmag	-311
8488	202	M202:RAW_IMU.ymag	-90
8488	202	M202:RAW_IMU.zmag	-92
8584	202	M202:RAW_IMU.xacc	0
8584	202	M202:RAW_IMU.yacc	3520
8584	202	M202:RAW_IMU.zacc	-1984
8584	202	M202:RAW_IMU.xmag	-317
8584	202	M202:RAW_IMU.ymag	-145
8584	202	M202:RAW_IMU.zmag	-109
8684	202	M202:RAW_IMU.xacc	0
8684	202	M202:RAW_IMU.yacc	3648
8684	202	M202:RAW_IMU.zacc	-1088
8684	202	M202:RAW_IMU.xmag	-326
8684	202	M202:RAW_IMU.ymag	-251
8684	202	M202:RAW_IMU.zmag	-190
8788	202	M202:RAW_IMU.xacc	0
8788	202	M202:RAW_IMU.yacc	3904
8788	202	M202:RAW_IMU.zacc	-896
8788	202	M202:RAW_IMU.xmag	-330
8788	202	M202:RAW_IMU.ymag	-283
8788	202	M202:RAW_IMU.zmag	-180
8888	202	M202:RAW_IMU.xacc	0
8888	202	M202:RAW_IMU.yacc	4160
8888	202	M202:RAW_IMU.zacc	-704
8888	202	M202:RAW_IMU.xmag	-332
8888	202	M202:RAW_IMU.ymag	-309
8888	202	M202:RAW_IMU.zmag	-198
9000	202	M202:RAW_IMU.xacc	64
9000	202	M202:RAW_IMU.yacc	4160
9000	202	M202:RAW_IMU.zacc	64
9000	202	M202:RAW_IMU.xmag	-337
9000	202	M202:RAW_IMU.ymag	-453
9000	202	M202:RAW_IMU.zmag	-301
9088	202	M202:RAW_IMU.xacc	64
9088	202	M202:RAW_IMU.yacc	4288
9088	202	M202:RAW_IMU.zacc	512
9088	202	M202:RAW_IMU.xmag	-347
9088	202	M202:RAW_IMU.ymag	-409
9088	202	M202:RAW_IMU.zmag	-319
9188	202	M202:RAW_IMU.xacc	64
9188	202	M202:RAW_IMU.yacc	4160
9188	202	M202:RAW_IMU.zacc	1280
9188	202	M202:RAW_IMU.xmag	-333
9188	202	M202:RAW_IMU.ymag	-435
9188	202	M202:RAW_IMU.zmag	-375
9288	202	M202:RAW_IMU.xacc	-128
9288	202	M202:RAW_IMU.yacc	4032
9288	202	M202:RAW_IMU.zacc	1664
9288	202	M202:RAW_IMU.xmag	-324
9288	202	M202:RAW_IMU.ymag	-440
9288	202	M202:RAW_IMU.zmag	-386
9388	202	M202:RAW_IMU.xacc	-384
9388	202	M202:RAW_IMU.yacc	4032
9388	202	M202:RAW_IMU.zacc	1984
9388	202	M202:RAW_IMU.xmag	-263
9388	202	M202:RAW_IMU.ymag	-444
9388	202	M202:RAW_IMU.zmag	-456
9488	202	M202:RAW_IMU.xacc	-704
9488	202	M202:RAW_IMU.yacc	3712
9488	202	M202:RAW_IMU.zacc	2304
9488	202	M202:RAW_IMU.xmag	-230
9488	202	M202:RAW_IMU.ymag	-436
9488	202	M202:RAW_IMU.zmag	-487
9588	202	M202:RAW_IMU.xacc	-1024
9588	202	M202:RAW_IMU.yacc	3520
9588	202	M202:RAW_IMU.zacc	2880
9588	202	M202:RAW_IMU.xmag	-216
9588	202	M202:RAW_IMU.ymag	-414
9588	202	M202:RAW_IMU.zmag	-613
9688	202	M202:RAW_IMU.xacc	-640
9688	202	M202:RAW_IMU.yacc	2560
9688	202	M202:RAW_IMU.zacc	3584
9688	202	M202:RAW_IMU.xmag	-226
9688	202	M202:RAW_IMU.ymag	-401
9688	202	M202:RAW_IMU.zmag	-671
9788	202	M202:RAW_IMU.xacc	-384
9788	202	M202:RAW_IMU.yacc	2112
9788	202	M202:RAW_IMU.zacc	3776
9788	202	M202:RAW_IMU.xmag	-233
9788	202	M202:RAW_IMU.ymag	-367
9788	202	M202:RAW_IMU.zmag	-727
9888	202	M202:RAW_IMU.xacc	-320
9888	202	M202:RAW_IMU.yacc	1792
9888	202	M202:RAW_IMU.zacc	4032
9888	202	M202:RAW_IMU.xmag	-239
9888	202	M202:RAW_IMU.ymag	-354
9888	202	M202:RAW_IMU.zmag	-758
9984	202	M202:RAW_IMU.xacc	-192
9984	202	M202:RAW_IMU.yacc	1344
9984	202	M202:RAW_IMU.zacc	4160
9984	202	M202:RAW_IMU.xmag	-254
9984	202	M202:RAW_IMU.ymag	-299
9984	202	M202:RAW_IMU.zmag	-809
10092	202	M202:RAW_IMU.xacc	-64
10092	202	M202:RAW_IMU.yacc	896
10092	202	M202:RAW_IMU.zacc	4288
10092	202	M202:RAW_IMU.xmag	-268
10092	202	M202:RAW_IMU.ymag	-264
10092	202	M202:RAW_IMU.zmag	-850
10192	202	M202:RAW_IMU.xacc	0
10192	202	M202:RAW_IMU.yacc	576
10192	202	M202:RAW_IMU.zacc	4352
10192	202	M202:RAW_IMU.xmag	-278
10192	202	M202:RAW_IMU.ymag	-240
10192	202	M202:RAW_IMU.zmag	-867
10284	202	M202:RAW_IMU.xacc	64
10284	202	M202:RAW_IMU.yacc	128
10284	202	M202:RAW_IMU.zacc	4352
10284	202	M202:RAW_IMU.xmag	-291
10284	202	M202:RAW_IMU.ymag	-151
10284	202	M202:RAW_IMU.zmag	-912
10392	202	M202:RAW_IMU.xacc	320
10392	202	M202:RAW_IMU.yacc	-640
10392	202	M202:RAW_IMU.zacc	4224
10392	202	M202:RAW_IMU.xmag	-311
10392	202	M202:RAW_IMU.ymag	-95
10392	202	M202:RAW_IMU.zmag	-932
10488	202	M202:RAW_IMU.xacc	448
10488	202	M202:RAW_IMU.yacc	-1280
10488	202	M202:RAW_IMU.zacc	4032
10488	202	M202:RAW_IMU.xmag	-336
10488	202	M202:RAW_IMU.ymag	19
10488	202	M202:RAW_IMU.zmag	-953
10584	202	M202:RAW_IMU.xacc	704
10584	202	M202:RAW_IMU.yacc	-1920
10584	202	M202:RAW_IMU.zacc	3712
10584	202	M202:RAW_IMU.xmag	-349
10584	202	M202:RAW_IMU.ymag	66
10584	202	M202:RAW_IMU.zmag	-961
10688	202	M202:RAW_IMU.xacc	768
10688	202	M202:RAW_IMU.yacc	-2304
10688	202	M202:RAW_IMU.zacc	3392
10688	202	M202:RAW_IMU.xmag	-372
10688	202	M202:RAW_IMU.ymag	145
10688	202	M202:RAW_IMU.zmag	-949
10788	202	M202:RAW_IMU.xacc	896
10788	202	M202:RAW_IMU.yacc	-2752
10788	202	M202:RAW_IMU.zacc	3008
10788	202	M202:RAW_IMU.xmag	-382
10788	202	M202:RAW_IMU.ymag	198
10788	202	M202:RAW_IMU.zmag	-936
10884	202	M202:RAW_IMU.xacc	960
10884	202	M202:RAW_IMU.yacc	-3136
10884	202	M202:RAW_IMU.zacc	2496
10884	202	M202:RAW_IMU.xmag	-401
10884	202	M202:RAW_IMU.ymag	284
10884	202	M202:RAW_IMU.zmag	-908
11008	202	M202:RAW_IMU.xacc	1024
11008	202	M202:RAW_IMU.yacc	-3456
11008	202	M202:RAW_IMU.zacc	1920
11008	202	M202:RAW_IMU.xmag	-415
11008	202	M202:RAW_IMU.ymag	362
11008	202	M202:RAW_IMU.zmag	-871
11088	202	M202:RAW_IMU.xacc	960
11088	202	M202:RAW_IMU.yacc	-3584
11088	202	M202:RAW_IMU.zacc	1280
11088	202	M202:RAW_IMU.xmag	-425
11088	202	M202:RAW_IMU.ymag	383
11088	202	M202:RAW_IMU.zmag	-832
11188	202	M202:RAW_IMU.xacc	1152
11188	202	M202:RAW_IMU.yacc	-3712
11188	202	M202:RAW_IMU.zacc	832
11188	202	M202:RAW_IMU.xmag	-433
11188	202	M202:RAW_IMU.ymag	417
11188	202	M202:RAW_IMU.zmag	-808
11288	202	M202:RAW_IMU.xacc	1024
11288	202	M202:RAW_IMU.yacc	-3776
11288	202	M202:RAW_IMU.zacc	576
11288	202	M202:RAW_IMU.xmag	-436
11288	202	M202:RAW_IMU.ymag	456
11288	202	M202:RAW_IMU.zmag	-766
11388	202	M202:RAW_IMU.xacc	1024
11388	202	M202:RAW_IMU.yacc	-3712
11388	202	M202:RAW_IMU.zacc	0
11388	202	M202:RAW_IMU.xmag	-443
11388	202	M202:RAW_IMU.ymag	482
11388	202	M202:RAW_IMU.zmag	-701
11488	202	M202:RAW_IMU.xacc	960
11488	202	M202:RAW_IMU.yacc	-3584
11488	202	M202:RAW_IMU.zacc	-512
11488	202	M202:RAW_IMU.xmag	-441
11488	202	M202:RAW_IMU.ymag	501
11488	202	M202:RAW_IMU.zmag	-664
11588	202	M202:RAW_IMU.xacc	960
11588	202	M202:RAW_IMU.yacc	-3520
11588	202	M202:RAW_IMU.zacc	-896
11588	202	M202:RAW_IMU.xmag	-443
11588	202	M202:RAW_IMU.ymag	521
11588	202	M202:RAW_IMU.zmag	-619
11688	202	M202:RAW_IMU.xacc	896
11688	202	M202:RAW_IMU.yacc	-3392
11688	202	M202:RAW_IMU.zacc	-1216
11688	202	M202:RAW_IMU.xmag	-446
11688	202	M202:RAW_IMU.ymag	523
11688	202	M202:RAW_IMU.zmag	-581
11788	202	M202:RAW_IMU.xacc	832
11788	202	M202:RAW_IMU.yacc	-3136
11788	202	M202:RAW_IMU.zacc	-1664
11788	202	M202:RAW_IMU.xmag	-441
11788	202	M202:RAW_IMU.ymag	520
11788	202	M202:RAW_IMU.zmag	-536
11888	202	M202:RAW_IMU.xacc	768
11888	202	M202:RAW_IMU.yacc	-3008
11888	202	M202:RAW_IMU.zacc	-1792
11888	202	M202:RAW_IMU.xmag	-445
11888	202	M202:RAW_IMU.ymag	525
11888	202	M202:RAW_IMU.zmag	-511
11984	202	M202:RAW_IMU.xacc	640
11984	202	M202:RAW_IMU.yacc	-2752
11984	202	M202:RAW_IMU.zacc	-2112
11984	202	M202:RAW_IMU.xmag	-437
11984	202	M202:RAW_IMU.ymag	517
11984	202	M202:RAW_IMU.zmag	-437
12084	202	M202:RAW_IMU.xacc	576
12084	202	M202:RAW_IMU.yacc	-2432
12084	202	M202:RAW_IMU.zacc	-2624
12084	202	M202:RAW_IMU.xmag	-434
12084	202	M202:RAW_IMU.ymag	517
12084	202	M202:RAW_IMU.zmag	-427
12184	202	M202:RAW_IMU.xacc	512
12184	202	M202:RAW_IMU.yacc	-2368
12184	202	M202:RAW_IMU.zacc	-2432
12184	202	M202:RAW_IMU.xmag	-421
12184	202	M202:RAW_IMU.ymag	476
12184	202	M202:RAW_IMU.zmag	-329
12284	202	M202:RAW_IMU.xacc	192
12284	202	M202:RAW_IMU.yacc	-1216
12284	202	M202:RAW_IMU.zacc	-3392
12284	202	M202:RAW_IMU.xmag	-409
12284	202	M202:RAW_IMU.ymag	433
12284	202	M202:RAW_IMU.zmag	-263
12384	202	M202:RAW_IMU.xacc	128
12384	202	M202:RAW_IMU.yacc	-960
12384	202	M202:RAW_IMU.zacc	-3200
12384	202	M202:RAW_IMU.xmag	-394
12384	202	M202:RAW_IMU.ymag	392
12384	202	M202:RAW_IMU.zmag	-221
12488	202	M202:RAW_IMU.xacc	0
12488	202	M202:RAW_IMU.yacc	-128
12488	202	M202:RAW_IMU.zacc	-3648
12488	202	M202:RAW_IMU.xmag	-377
12488	202	M202:RAW_IMU.ymag	347
12488	202	M202:RAW_IMU.zmag	-176
12588	202	M202:RAW_IMU.xacc	-128
12588	202	M202:RAW_IMU.yacc	512
12588	202	M202:RAW_IMU.zacc	-3456
12588	202	M202:RAW_IMU.xmag	-356
12588	202	M202:RAW_IMU.ymag	257
12588	202	M202:RAW_IMU.zmag	-127
12688	202	M202:RAW_IMU.xacc	-448
12688	202	M202:RAW_IMU.yacc	832
12688	202	M202:RAW_IMU.zacc	-3392
12688	202	M202:RAW_IMU.xmag	-345
12688	202	M202:RAW_IMU.ymag	211
12688	202	M202:RAW_IMU.zmag	-106
12788	202	M202:RAW_IMU.xacc	-576
12788	202	M202:RAW_IMU.yacc	1792
12788	202	M202:RAW_IMU.zacc	-3264
12788	202	M202:RAW_IMU.xmag	-320
12788	202	M202:RAW_IMU.ymag	114
12788	202	M202:RAW_IMU.zmag	-86
12888	202	M202:RAW_IMU.xacc	-640
12888	202	M202:RAW_IMU.yacc	2240
12888	202	M202:RAW_IMU.zacc	-2880
12888	202	M202:RAW_IMU.xmag	-298
12888	202	M202:RAW_IMU.ymag	5
12888	202	M202:RAW_IMU.zmag	-80
12984	202	M202:RAW_IMU.xacc	-768
12984	202	M202:RAW_IMU.yacc	2752
12984	202	M202:RAW_IMU.zacc	-2496
12984	202	M202:RAW_IMU.xmag	-292
12984	202	M202:RAW_IMU.ymag	-44
12984	202	M202:RAW_IMU.zmag	-86
13084	202	M202:RAW_IMU.xacc	-896
13084	202	M202:RAW_IMU.yacc	3328
13084	202	M202:RAW_IMU.zacc	-1984
13084	202	M202:RAW_IMU.xmag	-262
13084	202	M202:RAW_IMU.ymag	-153
13084	202	M202:RAW_IMU.zmag	-118
13192	202	M202:RAW_IMU.xacc	-960
13192	202	M202:RAW_IMU.yacc	3648
13192	202	M202:RAW_IMU.zacc	-1408
13192	202	M202:RAW_IMU.xmag	-254
13192	202	M202:RAW_IMU.ymag	-233
13192	202	M202:RAW_IMU.zmag	-156
13292	202	M202:RAW_IMU.xacc	-1088
13292	202	M202:RAW_IMU.yacc	3840
13292	202	M202:RAW_IMU.zacc	-1088
13292	202	M202:RAW_IMU.xmag	-247
13292	202	M202:RAW_IMU.ymag	-242
13292	202	M202:RAW_IMU.zmag	-162
13392	202	M202:RAW_IMU.xacc	-1024
13392	202	M202:RAW_IMU.yacc	3968
13392	202	M202:RAW_IMU.zacc	-576
13392	202	M202:RAW_IMU.xmag	-241
13392	202	M202:RAW_IMU.ymag	-264
13392	202	M202:RAW_IMU.zmag	-178
13488	202	M202:RAW_IMU.xacc	-1024
13488	202	M202:RAW_IMU.yacc	4032
13488	202	M202:RAW_IMU.zacc	-64
13488	202	M202:RAW_IMU.xmag	-221
13488	202	M202:RAW_IMU.ymag	-416
13488	202	M202:RAW_IMU.zmag	-303
13588	202	M202:RAW_IMU.xacc	-1088
13588	202	M202:RAW_IMU.yacc	4096
13588	202	M202:RAW_IMU.zacc	576
13588	202	M202:RAW_IMU.xmag	-224
13588	202	M202:RAW_IMU.ymag	-363
13588	202	M202:RAW_IMU.zmag	-281
13688	202	M202:RAW_IMU.xacc	-1024
13688	202	M202:RAW_IMU.yacc	4096
13688	202	M202:RAW_IMU.zacc	1152
13688	202	M202:RAW_IMU.xmag	-218
13688	202	M202:RAW_IMU.ymag	-416
13688	202	M202:RAW_IMU.zmag	-373
13788	202	M202:RAW_IMU.xacc	-1024
13788	202	M202:RAW_IMU.yacc	3968
13788	202	M202:RAW_IMU.zacc	1856
13788	202	M202:RAW_IMU.xmag	-219
13788	202	M202:RAW_IMU.ymag	-423
13788	202	M202:RAW_IMU.zmag	-423
13888	202	M202:RAW_IMU.xacc	-896
13888	202	M202:RAW_IMU.yacc	3648
13888	202	M202:RAW_IMU.zacc	2432
13888	202	M202:RAW_IMU.xmag	-215
13888	202	M202:RAW_IMU.ymag	-432
13888	202	M202:RAW_IMU.zmag	-525
14008	202	M202:RAW_IMU.xacc	-704
14008	202	M202:RAW_IMU.yacc	3072
14008	202	M202:RAW_IMU.zacc	3200
14008	202	M202:RAW_IMU.xmag	-230
14008	202	M202:RAW_IMU.ymag	-408
14008	202	M202:RAW_IMU.zmag	-661
14088	202	M202:RAW_IMU.xacc	-448
14088	202	M202:RAW_IMU.yacc	2432
14088	202	M202:RAW_IMU.zacc	3584
14088	202	M202:RAW_IMU.xmag	-237
14088	202	M202:RAW_IMU.ymag	-380
14088	202	M202:RAW_IMU.zmag	-706
14188	202	M202:RAW_IMU.xacc	-256
14188	202	M202:RAW_IMU.yacc	1920
14188	202	M202:RAW_IMU.zacc	3968
14188	202	M202:RAW_IMU.xmag	-251
14188	202	M202:RAW_IMU.ymag	-334
14188	202	M202:RAW_IMU.zmag	-783
14288	202	M202:RAW_IMU.xacc	-192
14288	202	M202:RAW_IMU.yacc	1280
14288	202	M202:RAW_IMU.zacc	4288
14288	202	M202:RAW_IMU.xmag	-263
14288	202	M202:RAW_IMU.ymag	-287
14288	202	M202:RAW_IMU.zmag	-827
14388	202	M202:RAW_IMU.xacc	0
14388	202	M202:RAW_IMU.yacc	448
14388	202	M202:RAW_IMU.zacc	4288
14388	202	M202:RAW_IMU.xmag	-287
14388	202	M202:RAW_IMU.ymag	-184
14388	202	M202:RAW_IMU.zmag	-895
14488	202	M202:RAW_IMU.xacc	128
14488	202	M202:RAW_IMU.yacc	-320
14488	202	M202:RAW_IMU.zacc	4288
14488	202	M202:RAW_IMU.xmag	-306
14488	202	M202:RAW_IMU.ymag	-125
14488	202	M202:RAW_IMU.zmag	-927
14588	202	M202:RAW_IMU.xacc	384
14588	202	M202:RAW_IMU.yacc	-1024
14588	202	M202:RAW_IMU.zacc	4096
14588	202	M202:RAW_IMU.xmag	-332
14588	202	M202:RAW_IMU.ymag	-10
14588	202	M202:RAW_IMU.zmag	-957
14688	202	M202:RAW_IMU.xacc	576
14688	202	M202:RAW_IMU.yacc	-1728
14688	202	M202:RAW_IMU.zacc	3904
14688	202	M202:RAW_IMU.xmag	-343
14688	202	M202:RAW_IMU.ymag	9
14688	202	M202:RAW_IMU.zmag	-957
14788	202	M202:RAW_IMU.xacc	768
14788	202	M202:RAW_IMU.yacc	-2304
14788	202	M202:RAW_IMU.zacc	3456
14788	202	M202:RAW_IMU.xmag	-366
14788	202	M202:RAW_IMU.ymag	148
14788	202	M202:RAW_IMU.zmag	-945
14888	202	M202:RAW_IMU.xacc	768
14888	202	M202:RAW_IMU.yacc	-2752
14888	202	M202:RAW_IMU.zacc	2880
14888	202	M202:RAW_IMU.xmag	-383
14888	202	M202:RAW_IMU.ymag	197
14888	202	M202:RAW_IMU.zmag	-936
14984	202	M202:RAW_IMU.xacc	960
14984	202	M202:RAW_IMU.yacc	-3136
14984	202	M202:RAW_IMU.zacc	2560
14984	202	M202:RAW_IMU.xmag	-394
14984	202	M202:RAW_IMU.ymag	285
14984	202	M202:RAW_IMU.zmag	-904
15088	202	M202:RAW_IMU.xacc	960
15088	202	M202:RAW_IMU.yacc	-3456
15088	202	M202:RAW_IMU.zacc	1856
15088	202	M202:RAW_IMU.xmag	-404
15088	202	M202:RAW_IMU.ymag	345
15088	202	M202:RAW_IMU.zmag	-882
15188	202	M202:RAW_IMU.xacc	960
15188	202	M202:RAW_IMU.yacc	-3584
15188	202	M202:RAW_IMU.zacc	1152
15188	202	M202:RAW_IMU.xmag	-422
15188	202	M202:RAW_IMU.ymag	412
15188	202	M202:RAW_IMU.zmag	-809
15288	202	M202:RAW_IMU.xacc	960
15288	202	M202:RAW_IMU.yacc	-3712
15288	202	M202:RAW_IMU.zacc	320
15288	202	M202:RAW_IMU.xmag	-426
15288	202	M202:RAW_IMU.ymag	448
15288	202	M202:RAW_IMU.zmag	-768
15388	202	M202:RAW_IMU.xacc	960
15388	202	M202:RAW_IMU.yacc	-3712
15388	202	M202:RAW_IMU.zacc	0
15388	202	M202:RAW_IMU.xmag	-430
15388	202	M202:RAW_IMU.ymag	484
15388	202	M202:RAW_IMU.zmag	-720
15488	202	M202:RAW_IMU.xacc	960
15488	202	M202:RAW_IMU.yacc	-3648
15488	202	M202:RAW_IMU.zacc	-384
15488	202	M202:RAW_IMU.xmag	-432
15488	202	M202:RAW_IMU.ymag	494
15488	202	M202:RAW_IMU.zmag	-650
15588	202	M202:RAW_IMU.xacc	896
15588	202	M202:RAW_IMU.yacc	-3520
15588	202	M202:RAW_IMU.zacc	-832
15588	202	M202:RAW_IMU.xmag	-437
15588	202	M202:RAW_IMU.ymag	517
15588	202	M202:RAW_IMU.zmag	-604
15688	202	M202:RAW_IMU.xacc	768
15688	202	M202:RAW_IMU.yacc	-3200
15688	202	M202:RAW_IMU.zacc	-1536
15688	202	M202:RAW_IMU.xmag	-435
15688	202	M202:RAW_IMU.ymag	526
15688	202	M202:RAW_IMU.zmag	-503
15788	202	M202:RAW_IMU.xacc	640
15788	202	M202:RAW_IMU.yacc	-2752
15788	202	M202:RAW_IMU.zacc	-2112
15788	202	M202:RAW_IMU.xmag	-429
15788	202	M202:RAW_IMU.ymag	519
15788	202	M202:RAW_IMU.zmag	-446
15888	202	M202:RAW_IMU.xacc	448
15888	202	M202:RAW_IMU.yacc	-2112
15888	202	M202:RAW_IMU.zacc	-2752
15888	202	M202:RAW_IMU.xmag	-414
15888	202	M202:RAW_IMU.ymag	481
15888	202	M202:RAW_IMU.zmag	-340
15984	202	M202:RAW_IMU.xacc	256
15984	202	M202:RAW_IMU.yacc	-1728
15984	202	M202:RAW_IMU.zacc	-3072
15984	202	M202:RAW_IMU.xmag	-411
15984	202	M202:RAW_IMU.ymag	474
15984	202	M202:RAW_IMU.zmag	-322
16088	202	M202:RAW_IMU.xacc	192
16088	202	M202:RAW_IMU.yacc	-1344
16088	202	M202:RAW_IMU.zacc	-3200
16088	202	M202:RAW_IMU.xmag	-394
16088	202	M202:RAW_IMU.ymag	416
16088	202	M202:RAW_IMU.zmag	-246
16188	202	M202:RAW_IMU.xacc	0
16188	202	M202:RAW_IMU.yacc	-640
16188	202	M202:RAW_IMU.zacc	-3456
16188	202	M202:RAW_IMU.xmag	-384
16188	202	M202:RAW_IMU.ymag	344
16188	202	M202:RAW_IMU.zmag	-229
16288	202	M202:RAW_IMU.xacc	-256
16288	202	M202:RAW_IMU.yacc	64
16288	202	M202:RAW_IMU.zacc	-3712
16288	202	M202:RAW_IMU.xmag	-361
16288	202	M202:RAW_IMU.ymag	284
16288	202	M202:RAW_IMU.zmag	-143
16388	202	M202:RAW_IMU.xacc	-448
16388	202	M202:RAW_IMU.yacc	896
16388	202	M202:RAW_IMU.zacc	-3584
16388	202	M202:RAW_IMU.xmag	-350
16388	202	M202:RAW_IMU.ymag	226
16388	202	M202:RAW_IMU.zmag	-114
16488	202	M202:RAW_IMU.xacc	-512
16488	202	M202:RAW_IMU.yacc	1600
16488	202	M202:RAW_IMU.zacc	-3264
16488	202	M202:RAW_IMU.xmag	-314
16488	202	M202:RAW_IMU.ymag	30
16488	202	M202:RAW_IMU.zmag	-137
16588	202	M202:RAW_IMU.xacc	-640
16588	202	M202:RAW_IMU.yacc	2304
16588	202	M202:RAW_IMU.zacc	-2944
16588	202	M202:RAW_IMU.xmag	-309
16588	202	M202:RAW_IMU.ymag	55
16588	202	M202:RAW_IMU.zmag	-82
16688	202	M202:RAW_IMU.xacc	-768
16688	202	M202:RAW_IMU.yacc	2816
16688	202	M202:RAW_IMU.zacc	-2496
16688	202	M202:RAW_IMU.xmag	-289
16688	202	M202:RAW_IMU.ymag	-38
16688	202	M202:RAW_IMU.zmag	-84
16788	202	M202:RAW_IMU.xacc	-832
16788	202	M202:RAW_IMU.yacc	3200
16788	202	M202:RAW_IMU.zacc	-2176
16788	202	M202:RAW_IMU.xmag	-284
16788	202	M202:RAW_IMU.ymag	-79
16788	202	M202:RAW_IMU.zmag	-92
16888	202	M202:RAW_IMU.xacc	-960
16888	202	M202:RAW_IMU.yacc	3520
16888	202	M202:RAW_IMU.zacc	-1664
16888	202	M202:RAW_IMU.xmag	-264
16888	202	M202:RAW_IMU.ymag	-174
16888	202	M202:RAW_IMU.zmag	-125
16984	202	M202:RAW_IMU.xacc	-960
16984	202	M202:RAW_IMU.yacc	3712
16984	202	M202:RAW_IMU.zacc	-1088
16984	202	M202:RAW_IMU.xmag	-255
16984	202	M202:RAW_IMU.ymag	-199
16984	202	M202:RAW_IMU.zmag	-149
17088	202	M202:RAW_IMU.xacc	-1024
17088	202	M202:RAW_IMU.yacc	3968
17088	202	M202:RAW_IMU.zacc	-704
17088	202	M202:RAW_IMU.xmag	-245
17088	202	M202:RAW_IMU.ymag	-281
17088	202	M202:RAW_IMU.zmag	-190
17188	202	M202:RAW_IMU.xacc	-1024
17188	202	M202:RAW_IMU.yacc	4096
17188	202	M202:RAW_IMU.zacc	-128
17188	202	M202:RAW_IMU.xmag	-228
17188	202	M202:RAW_IMU.ymag	-335
17188	202	M202:RAW_IMU.zmag	-254
17288	202	M202:RAW_IMU.xacc	-1024
17288	202	M202:RAW_IMU.yacc	4096
17288	202	M202:RAW_IMU.zacc	448
17288	202	M202:RAW_IMU.xmag	-226
17288	202	M202:RAW_IMU.ymag	-364
17288	202	M202:RAW_IMU.zmag	-288
17388	202	M202:RAW_IMU.xacc	-1024
17388	202	M202:RAW_IMU.yacc	4096
17388	202	M202:RAW_IMU.zacc	1088
17388	202	M202:RAW_IMU.xmag	-217
17388	202	M202:RAW_IMU.ymag	-414
17388	202	M202:RAW_IMU.zmag	-389
17488	202	M202:RAW_IMU.xacc	-896
17488	202	M202:RAW_IMU.yacc	3968
17488	202	M202:RAW_IMU.zacc	1792
17488	202	M202:RAW_IMU.xmag	-220
17488	202	M202:RAW_IMU.ymag	-453
17488	202	M202:RAW_IMU.zmag	-446
17588	202	M202:RAW_IMU.xacc	-768
17588	202	M202:RAW_IMU.yacc	3520
17588	202	M202:RAW_IMU.zacc	2688
17588	202	M202:RAW_IMU.xmag	-223
17588	202	M202:RAW_IMU.ymag	-433
17588	202	M202:RAW_IMU.zmag	-539
17688	202	M202:RAW_IMU.xacc	-704
17688	202	M202:RAW_IMU.yacc	3136
17688	202	M202:RAW_IMU.zacc	3456
17688	202	M202:RAW_IMU.xmag	-225
17688	202	M202:RAW_IMU.ymag	-423
17688	202	M202:RAW_IMU.zmag	-593
17788	202	M202:RAW_IMU.xacc	-512
17788	202	M202:RAW_IMU.yacc	2432
17788	202	M202:RAW_IMU.zacc	3648
17788	202	M202:RAW_IMU.xmag	-244
17788	202	M202:RAW_IMU.ymag	-388
17788	202	M202:RAW_IMU.zmag	-708
17888	202	M202:RAW_IMU.xacc	-384
17888	202	M202:RAW_IMU.yacc	1920
17888	202	M202:RAW_IMU.zacc	4096
17888	202	M202:RAW_IMU.xmag	-248
17888	202	M202:RAW_IMU.ymag	-357
17888	202	M202:RAW_IMU.zmag	-750
17984	202	M202:RAW_IMU.xacc	-192
17984	202	M202:RAW_IMU.yacc	1216
17984	202	M202:RAW_IMU.zacc	4224
17984	202	M202:RAW_IMU.xmag	-264
17984	202	M202:RAW_IMU.ymag	-278
17984	202	M202:RAW_IMU.zmag	-836
18088	202	M202:RAW_IMU.xacc	0
18088	202	M202:RAW_IMU.yacc	448
18088	202	M202:RAW_IMU.zacc	4416
18088	202	M202:RAW_IMU.xmag	-281
18088	202	M202:RAW_IMU.ymag	-235
18088	202	M202:RAW_IMU.zmag	-870
18188	202	M202:RAW_IMU.xacc	384
18188	202	M202:RAW_IMU.yacc	-384
18188	202	M202:RAW_IMU.zacc	4480
18188	202	M202:RAW_IMU.xmag	-305
18188	202	M202:RAW_IMU.ymag	-131
18188	202	M202:RAW_IMU.zmag	-920
18288	202	M202:RAW_IMU.xacc	384
18288	202	M202:RAW_IMU.yacc	-896
18288	202	M202:RAW_IMU.zacc	4160
18288	202	M202:RAW_IMU.xmag	-329
18288	202	M202:RAW_IMU.ymag	-21
18288	202	M202:RAW_IMU.zmag	-949
18388	202	M202:RAW_IMU.xacc	576
18388	202	M202:RAW_IMU.yacc	-1600
18388	202	M202:RAW_IMU.zacc	4032
18388	202	M202:RAW_IMU.xmag	-335
18388	202	M202:RAW_IMU.ymag	28
18388	202	M202:RAW_IMU.zmag	-952
18488	202	M202:RAW_IMU.xacc	640
18488	202	M202:RAW_IMU.yacc	-2112
18488	202	M202:RAW_IMU.zacc	3648
18488	202	M202:RAW_IMU.xmag	-365
18488	202	M202:RAW_IMU.ymag	123
18488	202	M202:RAW_IMU.zmag	-952
18588	202	M202:RAW_IMU.xacc	768
18588	202	M202:RAW_IMU.yacc	-2624
18588	202	M202:RAW_IMU.zacc	3200
18588	202	M202:RAW_IMU.xmag	-374
18588	202	M202:RAW_IMU.ymag	179
18588	202	M202:RAW_IMU.zmag	-942
18688	202	M202:RAW_IMU.xacc	768
18688	202	M202:RAW_IMU.yacc	-3008
18688	202	M202:RAW_IMU.zacc	2560
18688	202	M202:RAW_IMU.xmag	-388
18688	202	M202:RAW_IMU.ymag	265
18688	202	M202:RAW_IMU.zmag	-918
18788	202	M202:RAW_IMU.xacc	896
18788	202	M202:RAW_IMU.yacc	-3328
18788	202	M202:RAW_IMU.zacc	2240
18788	202	M202:RAW_IMU.xmag	-396
18788	202	M202:RAW_IMU.ymag	296
18788	202	M202:RAW_IMU.zmag	-900
18888	202	M202:RAW_IMU.xacc	896
18888	202	M202:RAW_IMU.yacc	-3520
18888	202	M202:RAW_IMU.zacc	1728
18888	202	M202:RAW_IMU.xmag	-413
18888	202	M202:RAW_IMU.ymag	368
18888	202	M202:RAW_IMU.zmag	-849
18984	202	M202:RAW_IMU.xacc	960
18984	202	M202:RAW_IMU.yacc	-3648
18984	202	M202:RAW_IMU.zacc	896
18984	202	M202:RAW_IMU.xmag	-418
18984	202	M202:RAW_IMU.ymag	394
18984	202	M202:RAW_IMU.zmag	-830
19092	202	M202:RAW_IMU.xacc	896
19092	202	M202:RAW_IMU.yacc	-3648
19092	202	M202:RAW_IMU.zacc	704
19092	202	M202:RAW_IMU.xmag	-423
19092	202	M202:RAW_IMU.ymag	452
19092	202	M202:RAW_IMU.zmag	-769
19184	202	M202:RAW_IMU.xacc	960
19184	202	M202:RAW_IMU.yacc	-3712
19184	202	M202:RAW_IMU.zacc	128
19184	202	M202:RAW_IMU.xmag	-427
19184	202	M202:RAW_IMU.ymag	483
19184	202	M202:RAW_IMU.zmag	-716
19292	202	M202:RAW_IMU.xacc	896
19292	202	M202:RAW_IMU.yacc	-3520
19292	202	M202:RAW_IMU.zacc	-768
19292	202	M202:RAW_IMU.xmag	-432
19292	202	M202:RAW_IMU.ymag	513
19292	202	M202:RAW_IMU.zmag	-637
19384	202	M202:RAW_IMU.xacc	768
19384	202	M202:RAW_IMU.yacc	-3328
19384	202	M202:RAW_IMU.zacc	-1344
19384	202	M202:RAW_IMU.xmag	-436
19384	202	M202:RAW_IMU.ymag	523
19384	202	M202:RAW_IMU.zmag	-597
19488	202	M202:RAW_IMU.xacc	704
19488	202	M202:RAW_IMU.yacc	-3008
19488	202	M202:RAW_IMU.zacc	-1856
19488	202	M202:RAW_IMU.xmag	-428
19488	202	M202:RAW_IMU.ymag	528
19488	202	M202:RAW_IMU.zmag	-496
19588	202	M202:RAW_IMU.xacc	576
19588	202	M202:RAW_IMU.yacc	-2816
19588	202	M202:RAW_IMU.zacc	-2048
19588	202	M202:RAW_IMU.xmag	-426
19588	202	M202:RAW_IMU.ymag	526
19588	202	M202:RAW_IMU.zmag	-478
19688	202	M202:RAW_IMU.xacc	512
19688	202	M202:RAW_IMU.yacc	-2304
19688	202	M202:RAW_IMU.zacc	-2560
19688	202	M202:RAW_IMU.xmag	-420
19688	202	M202:RAW_IMU.ymag	502
19688	202	M202:RAW_IMU.zmag	-382
19788	202	M202:RAW_IMU.xacc	320
19788	202	M202:RAW_IMU.yacc	-1728
19788	202	M202:RAW_IMU.zacc	-3072
19788	202	M202:RAW_IMU.xmag	-405
19788	202	M202:RAW_IMU.ymag	459
19788	202	M202:RAW_IMU.zmag	-307
19888	202	M202:RAW_IMU.xacc	128
19888	202	M202:RAW_IMU.yacc	-1216
19888	202	M202:RAW_IMU.zacc	-3008
19888	202	M202:RAW_IMU.xmag	-396
19888	202	M202:RAW_IMU.ymag	428
19888	202	M202:RAW_IMU.zmag	-255
19984	202	M202:RAW_IMU.xacc	64
19984	202	M202:RAW_IMU.yacc	-704
19984	202	M202:RAW_IMU.zacc	-3456
19984	202	M202:RAW_IMU.xmag	-371
19984	202	M202:RAW_IMU.ymag	323
19984	202	M202:RAW_IMU.zmag	-205
20084	202	M202:RAW_IMU.xacc	-128
20084	202	M202:RAW_IMU.yacc	128
20084	202	M202:RAW_IMU.zacc	-3584
20084	202	M202:RAW_IMU.xmag	-370
20084	202	M202:RAW_IMU.ymag	305
20084	202	M202:RAW_IMU.zmag	-152
20192	202	M202:RAW_IMU.xacc	-448
20192	202	M202:RAW_IMU.yacc	960
20192	202	M202:RAW_IMU.zacc	-3456
20192	202	M202:RAW_IMU.xmag	-340
20192	202	M202:RAW_IMU.ymag	198
20192	202	M202:RAW_IMU.zmag	-106
20292	202	M202:RAW_IMU.xacc	-448
20292	202	M202:RAW_IMU.yacc	1536
20292	202	M202:RAW_IMU.zacc	-3328
20292	202	M202:RAW_IMU.xmag	-328
20292	202	M202:RAW_IMU.ymag	151
20292	202	M202:RAW_IMU.zmag	-92
20392	202	M202:RAW_IMU.xacc	-576
20392	202	M202:RAW_IMU.yacc	2112
20392	202	M202:RAW_IMU.zacc	-3008
20392	202	M202:RAW_IMU.xmag	-316
20392	202	M202:RAW_IMU.ymag	55
20392	202	M202:RAW_IMU.zmag	-81
20484	202	M202:RAW_IMU.xacc	-768
20484	202	M202:RAW_IMU.yacc	2496
20484	202	M202:RAW_IMU.zacc	-2752
20484	202	M202:RAW_IMU.xmag	-302
20484	202	M202:RAW_IMU.ymag	7
20484	202	M202:RAW_IMU.zmag	-79
20588	202	M202:RAW_IMU.xacc	-768
20588	202	M202:RAW_IMU.yacc	3136
20588	202	M202:RAW_IMU.zacc	-2240
20588	202	M202:RAW_IMU.xmag	-276
20588	202	M202:RAW_IMU.ymag	-115
20588	202	M202:RAW_IMU.zmag	-105
20684	202	M202:RAW_IMU.xacc	-960
20684	202	M202:RAW_IMU.yacc	3712
20684	202	M202:RAW_IMU.zacc	-1728
20684	202	M202:RAW_IMU.xmag	-269
20684	202	M202:RAW_IMU.ymag	-184
20684	202	M202:RAW_IMU.zmag	-129
20784	202	M202:RAW_IMU.xacc	-960
20784	202	M202:RAW_IMU.yacc	3968
20784	202	M202:RAW_IMU.zacc	-896
20784	202	M202:RAW_IMU.xmag	-253
20784	202	M202:RAW_IMU.ymag	-277
20784	202	M202:RAW_IMU.zmag	-189
20888	202	M202:RAW_IMU.xacc	-1088
20888	202	M202:RAW_IMU.yacc	4160
20888	202	M202:RAW_IMU.zacc	-128
20888	202	M202:RAW_IMU.xmag	-234
20888	202	M202:RAW_IMU.ymag	-336
20888	202	M202:RAW_IMU.zmag	-253
21000	202	M202:RAW_IMU.xacc	-960
21000	202	M202:RAW_IMU.yacc	4160
21000	202	M202:RAW_IMU.zacc	896
21000	202	M202:RAW_IMU.xmag	-224
21000	202	M202:RAW_IMU.ymag	-397
21000	202	M202:RAW_IMU.zmag	-342
21088	202	M202:RAW_IMU.xacc	-896
21088	202	M202:RAW_IMU.yacc	3968
21088	202	M202:RAW_IMU.zacc	1792
21088	202	M202:RAW_IMU.xmag	-227
21088	202	M202:RAW_IMU.ymag	-432
21088	202	M202:RAW_IMU.zmag	-491
21188	202	M202:RAW_IMU.xacc	-768
21188	202	M202:RAW_IMU.yacc	3584
21188	202	M202:RAW_IMU.zacc	2432
21188	202	M202:RAW_IMU.xmag	-227
21188	202	M202:RAW_IMU.ymag	-419
21188	202	M202:RAW_IMU.zmag	-577
21288	202	M202:RAW_IMU.xacc	-576
21288	202	M202:RAW_IMU.yacc	2944
21288	202	M202:RAW_IMU.zacc	3392
21288	202	M202:RAW_IMU.xmag	-242
21288	202	M202:RAW_IMU.ymag	-385
21288	202	M202:RAW_IMU.zmag	-703
21388	202	M202:RAW_IMU.xacc	-320
21388	202	M202:RAW_IMU.yacc	1984
21388	202	M202:RAW_IMU.zacc	3904
21388	202	M202:RAW_IMU.xmag	-253
21388	202	M202:RAW_IMU.ymag	-354
21388	202	M202:RAW_IMU.zmag	-763
21488	202	M202:RAW_IMU.xacc	-192
21488	202	M202:RAW_IMU.yacc	1152
21488	202	M202:RAW_IMU.zacc	4352
21488	202	M202:RAW_IMU.xmag	-278
21488	202	M202:RAW_IMU.ymag	-259
21488	202	M202:RAW_IMU.zmag	-850
21588	202	M202:RAW_IMU.xacc	64
21588	202	M202:RAW_IMU.yacc	320
21588	202	M202:RAW_IMU.zacc	4480
21588	202	M202:RAW_IMU.xmag	-285
21588	202	M202:RAW_IMU.ymag	-208
21588	202	M202:RAW_IMU.zmag	-888
21688	202	M202:RAW_IMU.xacc	192
21688	202	M202:RAW_IMU.yacc	-320
21688	202	M202:RAW_IMU.zacc	4288
21688	202	M202:RAW_IMU.xmag	-311
21688	202	M202:RAW_IMU.ymag	-95
21688	202	M202:RAW_IMU.zmag	-932
21788	202	M202:RAW_IMU.xacc	448
21788	202	M202:RAW_IMU.yacc	-1088
21788	202	M202:RAW_IMU.zacc	4224
21788	202	M202:RAW_IMU.xmag	-319
21788	202	M202:RAW_IMU.ymag	-56
21788	202	M202:RAW_IMU.zmag	-943
21888	202	M202:RAW_IMU.xacc	512
21888	202	M202:RAW_IMU.yacc	-1664
21888	202	M202:RAW_IMU.zacc	3840
21888	202	M202:RAW_IMU.xmag	-346
21888	202	M202:RAW_IMU.ymag	70
21888	202	M202:RAW_IMU.zmag	-955
21984	202	M202:RAW_IMU.xacc	704
21984	202	M202:RAW_IMU.yacc	-2432
21984	202	M202:RAW_IMU.zacc	3264
21984	202	M202:RAW_IMU.xmag	-366
21984	202	M202:RAW_IMU.ymag	147
21984	202	M202:RAW_IMU.zmag	-949
22092	202	M202:RAW_IMU.xacc	768
22092	202	M202:RAW_IMU.yacc	-3008
22092	202	M202:RAW_IMU.zacc	2816
22092	202	M202:RAW_IMU.xmag	-386
22092	202	M202:RAW_IMU.ymag	255
22092	202	M202:RAW_IMU.zmag	-919
22184	202	M202:RAW_IMU.xacc	896
22184	202	M202:RAW_IMU.yacc	-3328
22184	202	M202:RAW_IMU.zacc	2176
22184	202	M202:RAW_IMU.xmag	-393
22184	202	M202:RAW_IMU.ymag	310
22184	202	M202:RAW_IMU.zmag	-888
22292	202	M202:RAW_IMU.xacc	896
22292	202	M202:RAW_IMU.yacc	-3712
22292	202	M202:RAW_IMU.zacc	1344
22292	202	M202:RAW_IMU.xmag	-428
22292	202	M202:RAW_IMU.ymag	450
22292	202	M202:RAW_IMU.zmag	-769
22384	202	M202:RAW_IMU.xacc	896
22384	202	M202:RAW_IMU.yacc	-3456
22384	202	M202:RAW_IMU.zacc	-448
22384	202	M202:RAW_IMU.xmag	-429
22384	202	M202:RAW_IMU.ymag	511
22384	202	M202:RAW_IMU.zmag	-647
22492	202	M202:RAW_IMU.xacc	640
22492	202	M202:RAW_IMU.yacc	-2752
22492	202	M202:RAW_IMU.zacc	-2112
22492	202	M202:RAW_IMU.xmag	-422
22492	202	M202:RAW_IMU.ymag	524
22492	202	M202:RAW_IMU.zmag	-471
22592	202	M202:RAW_IMU.xacc	576
22592	202	M202:RAW_IMU.yacc	-2496
22592	202	M202:RAW_IMU.zacc	-2496
22592	202	M202:RAW_IMU.xmag	-416
22592	202	M202:RAW_IMU.ymag	508
22592	202	M202:RAW_IMU.zmag	-403
22692	202	M202:RAW_IMU.xacc	448
22692	202	M202:RAW_IMU.yacc	-2112
22692	202	M202:RAW_IMU.zacc	-2816
22692	202	M202:RAW_IMU.xmag	-416
22692	202	M202:RAW_IMU.ymag	494
22692	202	M202:RAW_IMU.zmag	-370
22792	202	M202:RAW_IMU.xacc	256
22792	202	M202:RAW_IMU.yacc	-1600
22792	202	M202:RAW_IMU.zacc	-3072
22792	202	M202:RAW_IMU.xmag	-397
22792	202	M202:RAW_IMU.ymag	446
22792	202	M202:RAW_IMU.zmag	-277
22892	202	M202:RAW_IMU.xacc	128
22892	202	M202:RAW_IMU.yacc	-1024
22892	202	M202:RAW_IMU.zacc	-3328
22892	202	M202:RAW_IMU.xmag	-390
22892	202	M202:RAW_IMU.ymag	418
22892	202	M202:RAW_IMU.zmag	-242
22984	202	M202:RAW_IMU.xacc	64
22984	202	M202:RAW_IMU.yacc	-576
22984	202	M202:RAW_IMU.zacc	-3456
22984	202	M202:RAW_IMU.xmag	-383
22984	202	M202:RAW_IMU.ymag	374
22984	202	M202:RAW_IMU.zmag	-203
23092	202	M202:RAW_IMU.xacc	-192
23092	202	M202:RAW_IMU.yacc	-192
23092	202	M202:RAW_IMU.zacc	-3712
23092	202	M202:RAW_IMU.xmag	-373
23092	202	M202:RAW_IMU.ymag	355
23092	202	M202:RAW_IMU.zmag	-185
23184	202	M202:RAW_IMU.xacc	128
23184	202	M202:RAW_IMU.yacc	-256
23184	202	M202:RAW_IMU.zacc	-3392
23184	202	M202:RAW_IMU.xmag	-370
23184	202	M202:RAW_IMU.ymag	350
23184	202	M202:RAW_IMU.zmag	-181
23292	202	M202:RAW_IMU.xacc	-128
23292	202	M202:RAW_IMU.yacc	-64
23292	202	M202:RAW_IMU.zacc	-3584
23292	202	M202:RAW_IMU.xmag	-370
23292	202	M202:RAW_IMU.ymag	346
23292	202	M202:RAW_IMU.zmag	-181
23392	202	M202:RAW_IMU.xacc	-64
23392	202	M202:RAW_IMU.yacc	-192
23392	202	M202:RAW_IMU.zacc	-3648
23392	202	M202:RAW_IMU.xmag	-376
23392	202	M202:RAW_IMU.ymag	359
23392	202	M202:RAW_IMU.zmag	-190
23484	202	M202:RAW_IMU.xacc	0
23484	202	M202:RAW_IMU.yacc	-320
23484	202	M202:RAW_IMU.zacc	-3520
23484	202	M202:RAW_IMU.xmag	-373
23484	202	M202:RAW_IMU.ymag	302
23484	202	M202:RAW_IMU.zmag	-228
23584	202	M202:RAW_IMU.xacc	-64
23584	202	M202:RAW_IMU.yacc	-384
23584	202	M202:RAW_IMU.zacc	-3648
23584	202	M202:RAW_IMU.xmag	-376
23584	202	M202:RAW_IMU.ymag	386
23584	202	M202:RAW_IMU.zmag	-210
23684	202	M202:RAW_IMU.xacc	-128
23684	202	M202:RAW_IMU.yacc	-256
23684	202	M202:RAW_IMU.zacc	-3520
23684	202	M202:RAW_IMU.xmag	-375
23684	202	M202:RAW_IMU.ymag	363
23684	202	M202:RAW_IMU.zmag	-197
23788	202	M202:RAW_IMU.xacc	-64
23788	202	M202:RAW_IMU.yacc	-128
23788	202	M202:RAW_IMU.zacc	-3584
23788	202	M202:RAW_IMU.xmag	-371
23788	202	M202:RAW_IMU.ymag	355
23788	202	M202:RAW_IMU.zmag	-186
23888	202	M202:RAW_IMU.xacc	-64
23888	202	M202:RAW_IMU.yacc	-128
23888	202	M202:RAW_IMU.zacc	-3584
23888	202	M202:RAW_IMU.xmag	-369
23888	202	M202:RAW_IMU.ymag	357
23888	202	M202:RAW_IMU.zmag	-184
24008	202	M202:RAW_IMU.xacc	-64
24008	202	M202:RAW_IMU.yacc	-128
24008	202	M202:RAW_IMU.zacc	-3520
24008	202	M202:RAW_IMU.xmag	-372
24008	202	M202:RAW_IMU.ymag	314
24008	202	M202:RAW_IMU.zmag	-200
24088	202	M202:RAW_IMU.xacc	-64
24088	202	M202:RAW_IMU.yacc	-128
24088	202	M202:RAW_IMU.zacc	-3584
24088	202	M202:RAW_IMU.xmag	-376
24088	202	M202:RAW_IMU.ymag	353
24088	202	M202:RAW_IMU.zmag	-180
24188	202	M202:RAW_IMU.xacc	-64
24188	202	M202:RAW_IMU.yacc	-64
24188	202	M202:RAW_IMU.zacc	-3584
24188	202	M202:RAW_IMU.xmag	-375
24188	202	M202:RAW_IMU.ymag	355
24188	202	M202:RAW_IMU.zmag	-182
24288	202	M202:RAW_IMU.xacc	-128
24288	202	M202:RAW_IMU.yacc	-128
24288	202	M202:RAW_IMU.zacc	-3648
24288	202	M202:RAW_IMU.xmag	-369
24288	202	M202:RAW_IMU.ymag	352
24288	202	M202:RAW_IMU.zmag	-181
24388	202	M202:RAW_IMU.xacc	-128
24388	202	M202:RAW_IMU.yacc	64
24388	202	M202:RAW_IMU.zacc	-3968
24388	202	M202:RAW_IMU.xmag	-369
24388	202	M202:RAW_IMU.ymag	351
24388	202	M202:RAW_IMU.zmag	-182
24488	202	M202:RAW_IMU.xacc	-128
24488	202	M202:RAW_IMU.yacc	-64
24488	202	M202:RAW_IMU.zacc	-3584
24488	202	M202:RAW_IMU.xmag	-372
24488	202	M202:RAW_IMU.ymag	361
24488	202	M202:RAW_IMU.zmag	-189
24588	202	M202:RAW_IMU.xacc	-192
24588	202	M202:RAW_IMU.yacc	-64
24588	202	M202:RAW_IMU.zacc	-3712
24588	202	M202:RAW_IMU.xmag	-382
24588	202	M202:RAW_IMU.ymag	359
24588	202	M202:RAW_IMU.zmag	-196
24688	202	M202:RAW_IMU.xacc	-64
24688	202	M202:RAW_IMU.yacc	-128
24688	202	M202:RAW_IMU.zacc	-3584
24688	202	M202:RAW_IMU.xmag	-379
24688	202	M202:RAW_IMU.ymag	353
24688	202	M202:RAW_IMU.zmag	-187
24788	202	M202:RAW_IMU.xacc	-64
24788	202	M202:RAW_IMU.yacc	-128
24788	202	M202:RAW_IMU.zacc	-3520
24788	202	M202:RAW_IMU.xmag	-380
24788	202	M202:RAW_IMU.ymag	355
24788	202	M202:RAW_IMU.zmag	-186
24888	202	M202:RAW_IMU.xacc	-64
24888	202	M202:RAW_IMU.yacc	-128
24888	202	M202:RAW_IMU.zacc	-3520
24888	202	M202:RAW_IMU.xmag	-387
24888	202	M202:RAW_IMU.ymag	349
24888	202	M202:RAW_IMU.zmag	-187
24984	202	M202:RAW_IMU.xacc	0
24984	202	M202:RAW_IMU.yacc	-64
24984	202	M202:RAW_IMU.zacc	-3520
24984	202	M202:RAW_IMU.xmag	-387
24984	202	M202:RAW_IMU.ymag	309
24984	202	M202:RAW_IMU.zmag	-206
25084	202	M202:RAW_IMU.xacc	-256
25084	202	M202:RAW_IMU.yacc	0
25084	202	M202:RAW_IMU.zacc	-3584
25084	202	M202:RAW_IMU.xmag	-396
25084	202	M202:RAW_IMU.ymag	343
25084	202	M202:RAW_IMU.zmag	-182
25192	202	M202:RAW_IMU.xacc	-64
25192	202	M202:RAW_IMU.yacc	-64
25192	202	M202:RAW_IMU.zacc	-3648
25192	202	M202:RAW_IMU.xmag	-405
25192	202	M202:RAW_IMU.ymag	344
25192	202	M202:RAW_IMU.zmag	-185
25284	202	M202:RAW_IMU.xacc	-64
25284	202	M202:RAW_IMU.yacc	-128
25284	202	M202:RAW_IMU.zacc	-3584
25284	202	M202:RAW_IMU.xmag	-411
25284	202	M202:RAW_IMU.ymag	345
25284	202	M202:RAW_IMU.zmag	-190
25384	202	M202:RAW_IMU.xacc	-128
25384	202	M202:RAW_IMU.yacc	-192
25384	202	M202:RAW_IMU.zacc	-3584
25384	202	M202:RAW_IMU.xmag	-420
25384	202	M202:RAW_IMU.ymag	336
25384	202	M202:RAW_IMU.zmag	-185
25488	202	M202:RAW_IMU.xacc	-128
25488	202	M202:RAW_IMU.yacc	-64
25488	202	M202:RAW_IMU.zacc	-3584
25488	202	M202:RAW_IMU.xmag	-415
25488	202	M202:RAW_IMU.ymag	337
25488	202	M202:RAW_IMU.zmag	-185
25588	202	M202:RAW_IMU.xacc	-64
25588	202	M202:RAW_IMU.yacc	-64
25588	202	M202:RAW_IMU.zacc	-3648
25588	202	M202:RAW_IMU.xmag	-420
25588	202	M202:RAW_IMU.ymag	339
25588	202	M202:RAW_IMU.zmag	-186
25688	202	M202:RAW_IMU.xacc	-128
25688	202	M202:RAW_IMU.yacc	-64
25688	202	M202:RAW_IMU.zacc	-3584
25688	202	M202:RAW_IMU.xmag	-418
25688	202	M202:RAW_IMU.ymag	334
25688	202	M202:RAW_IMU.zmag	-184
25788	202	M202:RAW_IMU.xacc	-64
25788	202	M202:RAW_IMU.yacc	-64
25788	202	M202:RAW_IMU.zacc	-3584
25788	202	M202:RAW_IMU.xmag	-419
25788	202	M202:RAW_IMU.ymag	329
25788	202	M202:RAW_IMU.zmag	-181
25888	202	M202:RAW_IMU.xacc	-128
25888	202	M202:RAW_IMU.yacc	0
25888	202	M202:RAW_IMU.zacc	-3584
25888	202	M202:RAW_IMU.xmag	-420
25888	202	M202:RAW_IMU.ymag	324
25888	202	M202:RAW_IMU.zmag	-178
25984	202	M202:RAW_IMU.xacc	-128
25984	202	M202:RAW_IMU.yacc	-64
25984	202	M202:RAW_IMU.zacc	-3584
25984	202	M202:RAW_IMU.xmag	-423
25984	202	M202:RAW_IMU.ymag	334
25984	202	M202:RAW_IMU.zmag	-182
26092	202	M202:RAW_IMU.xacc	0
26092	202	M202:RAW_IMU.yacc	-64
26092	202	M202:RAW_IMU.zacc	-3520
26092	202	M202:RAW_IMU.xmag	-419
26092	202	M202:RAW_IMU.ymag	294
26092	202	M202:RAW_IMU.zmag	-212
26192	202	M202:RAW_IMU.xacc	-64
26192	202	M202:RAW_IMU.yacc	-64
26192	202	M202:RAW_IMU.zacc	-3520
26192	202	M202:RAW_IMU.xmag	-423
26192	202	M202:RAW_IMU.ymag	330
26192	202	M202:RAW_IMU.zmag	-176
26292	202	M202:RAW_IMU.xacc	-128
26292	202	M202:RAW_IMU.yacc	-64
26292	202	M202:RAW_IMU.zacc	-3456
26292	202	M202:RAW_IMU.xmag	-424
26292	202	M202:RAW_IMU.ymag	328
26292	202	M202:RAW_IMU.zmag	-179
26392	202	M202:RAW_IMU.xacc	-128
26392	202	M202:RAW_IMU.yacc	-64
26392	202	M202:RAW_IMU.zacc	-3584
26392	202	M202:RAW_IMU.xmag	-421
26392	202	M202:RAW_IMU.ymag	334
26392	202	M202:RAW_IMU.zmag	-179
26484	202	M202:RAW_IMU.xacc	-64
26484	202	M202:RAW_IMU.yacc	-64
26484	202	M202:RAW_IMU.zacc	-3520
26484	202	M202:RAW_IMU.xmag	-423
26484	202	M202:RAW_IMU.ymag	335
26484	202	M202:RAW_IMU.zmag	-185
26584	202	M202:RAW_IMU.xacc	-64
26584	202	M202:RAW_IMU.yacc	-64
26584	202	M202:RAW_IMU.zacc	-3520
26584	202	M202:RAW_IMU.xmag	-424
26584	202	M202:RAW_IMU.ymag	330
26584	202	M202:RAW_IMU.zmag	-183
26684	202	M202:RAW_IMU.xacc	-64
26684	202	M202:RAW_IMU.yacc	64
26684	202	M202:RAW_IMU.zacc	-3648
26684	202	M202:RAW_IMU.xmag	-420
26684	202	M202:RAW_IMU.ymag	327
26684	202	M202:RAW_IMU.zmag	-172
26788	202	M202:RAW_IMU.xacc	-192
26788	202	M202:RAW_IMU.yacc	256
26788	202	M202:RAW_IMU.zacc	-3712
26788	202	M202:RAW_IMU.xmag	-405
26788	202	M202:RAW_IMU.ymag	295
26788	202	M202:RAW_IMU.zmag	-158
26884	202	M202:RAW_IMU.xacc	-448
26884	202	M202:RAW_IMU.yacc	640
26884	202	M202:RAW_IMU.zacc	-3520
26884	202	M202:RAW_IMU.xmag	-379
26884	202	M202:RAW_IMU.ymag	241
26884	202	M202:RAW_IMU.zmag	-121
27000	202	M202:RAW_IMU.xacc	-576
27000	202	M202:RAW_IMU.yacc	896
27000	202	M202:RAW_IMU.zacc	-3392
27000	202	M202:RAW_IMU.xmag	-366
27000	202	M202:RAW_IMU.ymag	204
27000	202	M202:RAW_IMU.zmag	-115
27088	202	M202:RAW_IMU.xacc	-640
27088	202	M202:RAW_IMU.yacc	1280
27088	202	M202:RAW_IMU.zacc	-3328
27088	202	M202:RAW_IMU.xmag	-343
27088	202	M202:RAW_IMU.ymag	151
27088	202	M202:RAW_IMU.zmag	-91
27188	202	M202:RAW_IMU.xacc	-896
27188	202	M202:RAW_IMU.yacc	1664
27188	202	M202:RAW_IMU.zacc	-3072
27188	202	M202:RAW_IMU.xmag	-313
27188	202	M202:RAW_IMU.ymag	48
27188	202	M202:RAW_IMU.zmag	-104
27288	202	M202:RAW_IMU.xacc	-1280
27288	202	M202:RAW_IMU.yacc	2496
27288	202	M202:RAW_IMU.zacc	-2816
27288	202	M202:RAW_IMU.xmag	-279
27288	202	M202:RAW_IMU.ymag	-21
27288	202	M202:RAW_IMU.zmag	-86
27388	202	M202:RAW_IMU.xacc	-1344
27388	202	M202:RAW_IMU.yacc	3008
27388	202	M202:RAW_IMU.zacc	-2368
27388	202	M202:RAW_IMU.xmag	-255
27388	202	M202:RAW_IMU.ymag	-68
27388	202	M202:RAW_IMU.zmag	-93
27488	202	M202:RAW_IMU.xacc	-1536
27488	202	M202:RAW_IMU.yacc	3328
27488	202	M202:RAW_IMU.zacc	-1600
27488	202	M202:RAW_IMU.xmag	-219
27488	202	M202:RAW_IMU.ymag	-253
27488	202	M202:RAW_IMU.zmag	-171
27588	202	M202:RAW_IMU.xacc	-1664
27588	202	M202:RAW_IMU.yacc	3712
27588	202	M202:RAW_IMU.zacc	-1088
27588	202	M202:RAW_IMU.xmag	-203
27588	202	M202:RAW_IMU.ymag	-221
27588	202	M202:RAW_IMU.zmag	-165
27688	202	M202:RAW_IMU.xacc	-1728
27688	202	M202:RAW_IMU.yacc	3904
27688	202	M202:RAW_IMU.zacc	-256
27688	202	M202:RAW_IMU.xmag	-173
27688	202	M202:RAW_IMU.ymag	-298
27688	202	M202:RAW_IMU.zmag	-232
27788	202	M202:RAW_IMU.xacc	-1728
27788	202	M202:RAW_IMU.yacc	3968
27788	202	M202:RAW_IMU.zacc	320
27788	202	M202:RAW_IMU.xmag	-166
27788	202	M202:RAW_IMU.ymag	-330
27788	202	M202:RAW_IMU.zmag	-271
27888	202	M202:RAW_IMU.xacc	-1600
27888	202	M202:RAW_IMU.yacc	3968
27888	202	M202:RAW_IMU.zacc	896
27888	202	M202:RAW_IMU.xmag	-156
27888	202	M202:RAW_IMU.ymag	-356
27888	202	M202:RAW_IMU.zmag	-324
27984	202	M202:RAW_IMU.xacc	-1472
27984	202	M202:RAW_IMU.yacc	3840
27984	202	M202:RAW_IMU.zacc	1472
27984	202	M202:RAW_IMU.xmag	-154
27984	202	M202:RAW_IMU.ymag	-374
27984	202	M202:RAW_IMU.zmag	-373
28088	202	M202:RAW_IMU.xacc	-1408
28088	202	M202:RAW_IMU.yacc	3648
28088	202	M202:RAW_IMU.zacc	2176
28088	202	M202:RAW_IMU.xmag	-146
28088	202	M202:RAW_IMU.ymag	-398
28088	202	M202:RAW_IMU.zmag	-461
28188	202	M202:RAW_IMU.xacc	-1408
28188	202	M202:RAW_IMU.yacc	3392
28188	202	M202:RAW_IMU.zacc	2560
28188	202	M202:RAW_IMU.xmag	-150
28188	202	M202:RAW_IMU.ymag	-401
28188	202	M202:RAW_IMU.zmag	-550
28288	202	M202:RAW_IMU.xacc	-1152
28288	202	M202:RAW_IMU.yacc	3136
28288	202	M202:RAW_IMU.zacc	3072
28288	202	M202:RAW_IMU.xmag	-148
28288	202	M202:RAW_IMU.ymag	-397
28288	202	M202:RAW_IMU.zmag	-584
28388	202	M202:RAW_IMU.xacc	-960
28388	202	M202:RAW_IMU.yacc	2688
28388	202	M202:RAW_IMU.zacc	3520
28388	202	M202:RAW_IMU.xmag	-162
28388	202	M202:RAW_IMU.ymag	-377
28388	202	M202:RAW_IMU.zmag	-663
28488	202	M202:RAW_IMU.xacc	-832
28488	202	M202:RAW_IMU.yacc	2240
28488	202	M202:RAW_IMU.zacc	3840
28488	202	M202:RAW_IMU.xmag	-173
28488	202	M202:RAW_IMU.ymag	-350
28488	202	M202:RAW_IMU.zmag	-706
28588	202	M202:RAW_IMU.xacc	-576
28588	202	M202:RAW_IMU.yacc	1728
28588	202	M202:RAW_IMU.zacc	4096
28588	202	M202:RAW_IMU.xmag	-202
28588	202	M202:RAW_IMU.ymag	-304
28588	202	M202:RAW_IMU.zmag	-791
28688	202	M202:RAW_IMU.xacc	-192
28688	202	M202:RAW_IMU.yacc	1088
28688	202	M202:RAW_IMU.zacc	4352
28688	202	M202:RAW_IMU.xmag	-215
28688	202	M202:RAW_IMU.ymag	-264
28688	202	M202:RAW_IMU.zmag	-834
28788	202	M202:RAW_IMU.xacc	128
28788	202	M202:RAW_IMU.yacc	192
28788	202	M202:RAW_IMU.zacc	4480
28788	202	M202:RAW_IMU.xmag	-255
28788	202	M202:RAW_IMU.ymag	-169
28788	202	M202:RAW_IMU.zmag	-898
28888	202	M202:RAW_IMU.xacc	384
28888	202	M202:RAW_IMU.yacc	-384
28888	202	M202:RAW_IMU.zacc	4352
28888	202	M202:RAW_IMU.xmag	-282
28888	202	M202:RAW_IMU.ymag	-119
28888	202	M202:RAW_IMU.zmag	-921
28984	202	M202:RAW_IMU.xacc	576
28984	202	M202:RAW_IMU.yacc	-1088
28984	202	M202:RAW_IMU.zacc	4160
28984	202	M202:RAW_IMU.xmag	-326
28984	202	M202:RAW_IMU.ymag	-9
28984	202	M202:RAW_IMU.zmag	-953
29084	202	M202:RAW_IMU.xacc	896
29084	202	M202:RAW_IMU.yacc	-1664
29084	202	M202:RAW_IMU.zacc	3776
29084	202	M202:RAW_IMU.xmag	-348
29084	202	M202:RAW_IMU.ymag	49
29084	202	M202:RAW_IMU.zmag	-961
29192	202	M202:RAW_IMU.xacc	1216
29192	202	M202:RAW_IMU.yacc	-2304
29192	202	M202:RAW_IMU.zacc	3200
29192	202	M202:RAW_IMU.xmag	-396
29192	202	M202:RAW_IMU.ymag	134
29192	202	M202:RAW_IMU.zmag	-963
29292	202	M202:RAW_IMU.xacc	1408
29292	202	M202:RAW_IMU.yacc	-2816
29292	202	M202:RAW_IMU.zacc	2496
29292	202	M202:RAW_IMU.xmag	-439
29292	202	M202:RAW_IMU.ymag	298
29292	202	M202:RAW_IMU.zmag	-895
29384	202	M202:RAW_IMU.xacc	1472
29384	202	M202:RAW_IMU.yacc	-3264
29384	202	M202:RAW_IMU.zacc	1792
29384	202	M202:RAW_IMU.xmag	-455
29384	202	M202:RAW_IMU.ymag	342
29384	202	M202:RAW_IMU.zmag	-861
29484	202	M202:RAW_IMU.xacc	1536
29484	202	M202:RAW_IMU.yacc	-3456
29484	202	M202:RAW_IMU.zacc	1280
29484	202	M202:RAW_IMU.xmag	-475
29484	202	M202:RAW_IMU.ymag	399
29484	202	M202:RAW_IMU.zmag	-804
29584	202	M202:RAW_IMU.xacc	1536
29584	202	M202:RAW_IMU.yacc	-3520
29584	202	M202:RAW_IMU.zacc	576
29584	202	M202:RAW_IMU.xmag	-490
29584	202	M202:RAW_IMU.ymag	432
29584	202	M202:RAW_IMU.zmag	-761
29684	202	M202:RAW_IMU.xacc	1472
29684	202	M202:RAW_IMU.yacc	-3328
29684	202	M202:RAW_IMU.zacc	-320
29684	202	M202:RAW_IMU.xmag	-501
29684	202	M202:RAW_IMU.ymag	482
29684	202	M202:RAW_IMU.zmag	-661
29784	202	M202:RAW_IMU.xacc	1408
29784	202	M202:RAW_IMU.yacc	-3392
29784	202	M202:RAW_IMU.zacc	-960
29784	202	M202:RAW_IMU.xmag	-501
29784	202	M202:RAW_IMU.ymag	491
29784	202	M202:RAW_IMU.zmag	-634
29884	202	M202:RAW_IMU.xacc	1280
29884	202	M202:RAW_IMU.yacc	-3008
29884	202	M202:RAW_IMU.zacc	-1600
29884	202	M202:RAW_IMU.xmag	-504
29884	202	M202:RAW_IMU.ymag	499
29884	202	M202:RAW_IMU.zmag	-488
30000	202	M202:RAW_IMU.xacc	960
30000	202	M202:RAW_IMU.yacc	-2432
30000	202	M202:RAW_IMU.zacc	-2432
30000	202	M202:RAW_IMU.xmag	-494
30000	202	M202:RAW_IMU.ymag	493
30000	202	M202:RAW_IMU.zmag	-416
30088	202	M202:RAW_IMU.xacc	704
30088	202	M202:RAW_IMU.yacc	-1856
30088	202	M202:RAW_IMU.zacc	-2880
30088	202	M202:RAW_IMU.xmag	-468
30088	202	M202:RAW_IMU.ymag	449
30088	202	M202:RAW_IMU.zmag	-311
30188	202	M202:RAW_IMU.xacc	320
30188	202	M202:RAW_IMU.yacc	-1152
30188	202	M202:RAW_IMU.zacc	-3264
30188	202	M202:RAW_IMU.xmag	-453
30188	202	M202:RAW_IMU.ymag	412
30188	202	M202:RAW_IMU.zmag	-259
30288	202	M202:RAW_IMU.xacc	64
30288	202	M202:RAW_IMU.yacc	-320
30288	202	M202:RAW_IMU.zacc	-3520
30288	202	M202:RAW_IMU.xmag	-412
30288	202	M202:RAW_IMU.ymag	321
30288	202	M202:RAW_IMU.zmag	-168
30388	202	M202:RAW_IMU.xacc	-384
30388	202	M202:RAW_IMU.yacc	320
30388	202	M202:RAW_IMU.zacc	-3712
30388	202	M202:RAW_IMU.xmag	-389
30388	202	M202:RAW_IMU.ymag	274
30388	202	M202:RAW_IMU.zmag	-143
30488	202	M202:RAW_IMU.xacc	-576
30488	202	M202:RAW_IMU.yacc	1024
30488	202	M202:RAW_IMU.zacc	-3456
30488	202	M202:RAW_IMU.xmag	-349
30488	202	M202:RAW_IMU.ymag	178
30488	202	M202:RAW_IMU.zmag	-96
30588	202	M202:RAW_IMU.xacc	-832
30588	202	M202:RAW_IMU.yacc	1664
30588	202	M202:RAW_IMU.zacc	-3392
30588	202	M202:RAW_IMU.xmag	-329
30588	202	M202:RAW_IMU.ymag	121
30588	202	M202:RAW_IMU.zmag	-85
30688	202	M202:RAW_IMU.xacc	-1024
30688	202	M202:RAW_IMU.yacc	2112
30688	202	M202:RAW_IMU.zacc	-3136
30688	202	M202:RAW_IMU.xmag	-304
30688	202	M202:RAW_IMU.ymag	58
