t,x,y,z,vx,vy,vz,roll,pitch,yaw
0,0,0,-500,5,0,0,0,0,0
0.004001,0,0,-500,5,0,0,0,0,0
0.008002,0.0200307,0,-500,5.00642,0,0.0490746,0,0.000292016,0
0.012002,0.0400818,2.02284e-11,-499.999,5.01278,5.05709e-09,0.0934688,-9.73251e-07,0.000790838,-4.92804e-10
0.016003,0.0601634,3.76905e-10,-499.999,5.01916,8.91468e-08,0.13388,-3.11793e-06,0.00142757,-1.77758e-08
0.020004,0.0802709,1.37125e-09,-499.998,5.02561,2.48524e-07,0.171407,-6.73213e-06,0.00216155,-7.88287e-08
0.024008,0.10042,3.26361e-09,-499.997,5.03215,4.72616e-07,0.206308,-1.18513e-05,0.00295719,-2.06244e-07
0.028008,0.120575,6.15729e-09,-499.996,5.03879,7.23421e-07,0.238858,-1.85586e-05,0.00378407,-4.25712e-07
0.032008,0.140757,9.9869e-09,-499.995,5.04557,9.57403e-07,0.269223,-2.68869e-05,0.00461578,-7.5975e-07
0.036008,0.160967,1.44626e-08,-499.994,5.05249,1.11893e-06,0.29751,-3.68214e-05,0.00542642,-1.22245e-06
0.040008,0.181205,1.90553e-08,-499.993,5.05957,1.14818e-06,0.323851,-4.82705e-05,0.00619185,-1.82306e-06
0.044009,0.201478,2.3011e-08,-499.992,5.06681,9.88669e-07,0.34847,-6.0777e-05,0.00689224,-2.54613e-06
0.048009,0.221774,2.53489e-08,-499.99,5.07419,5.84468e-07,0.371784,-7.41996e-05,0.00751768,-3.38393e-06
0.052009,0.242101,2.49017e-08,-499.988,5.08172,-1.1179e-07,0.393875,-8.83919e-05,0.00805937,-4.32414e-06
0.056019,0.26251,2.03039e-08,-499.987,5.08941,-1.14658e-06,0.414871,-0.00010323,0.00850978,-5.35204e-06
0.060019,0.282899,1.01947e-08,-499.985,5.09721,-2.5273e-06,0.434925,-0.000118359,0.00886421,-6.4302e-06
0.06402,0.303324,-6.92506e-09,-499.983,5.10513,-4.27888e-06,0.454216,-0.00013369,0.00912316,-7.54119e-06
0.068021,0.323782,-3.26069e-08,-499.981,5.11316,-6.41886e-06,0.472778,-0.000149087,0.00928588,-8.66283e-06
0.072022,0.344272,-6.84568e-08,-499.979,5.12131,-8.96023e-06,0.490651,-0.000164422,0.00935175,-9.77187e-06
0.076023,0.364796,-1.16111e-07,-499.977,5.12956,-1.19105e-05,0.507877,-0.000179578,0.00932033,-1.08453e-05
0.080024,0.385353,-1.77182e-07,-499.975,5.13793,-1.52641e-05,0.52453,-0.000194436,0.00919242,-1.18592e-05
0.084024,0.405938,-2.53249e-07,-499.973,5.14639,-1.90166e-05,0.540637,-0.000208875,0.00896888,-1.27887e-05
0.088024,0.426558,-3.45887e-07,-499.971,5.15495,-2.31596e-05,0.556236,-0.000222783,0.00865034,-1.36098e-05
0.092025,0.447218,-4.56637e-07,-499.969,5.16362,-2.76805e-05,0.571359,-0.000236051,0.0082373,-1.42979e-05
0.096025,0.467907,-5.8687e-07,-499.966,5.17237,-3.25583e-05,0.586028,-0.00024856,0.00773051,-1.48284e-05
0.100026,0.488637,-7.37993e-07,-499.964,5.18122,-3.77713e-05,0.600282,-0.000260207,0.00713019,-1.51775e-05
0.104026,0.509398,-9.11143e-07,-499.961,5.19016,-4.32875e-05,0.614139,-0.000270881,0.00643705,-1.53212e-05
0.108026,0.530195,-1.10744e-06,-499.959,5.19918,-4.90734e-05,0.627636,-0.000280495,0.00565176,-1.52387e-05
0.112027,0.551033,-1.32786e-06,-499.956,5.20829,-5.50924e-05,0.640801,-0.000288949,0.00477489,-1.49078e-05
0.116027,0.571903,-1.57306e-06,-499.954,5.21748,-6.12995e-05,0.653655,-0.000296139,0.00380757,-1.43073e-05
0.120028,0.592815,-1.84373e-06,-499.951,5.22674,-6.76509e-05,0.666228,-0.000301972,0.00274985,-1.34165e-05
0.124028,0.613759,-2.1401e-06,-499.948,5.23607,-7.40932e-05,0.678537,-0.00030635,0.00160273,-1.22163e-05
0.128029,0.634746,-2.46249e-06,-499.945,5.24547,-8.05753e-05,0.690612,-0.000309182,0.000365947,-1.06875e-05
0.132029,0.655766,-2.81063e-06,-499.943,5.25493,-8.70358e-05,0.702471,-0.000310374,-0.000959638,-8.81355e-06
0.13603,0.676829,-3.18439e-06,-499.94,5.26446,-9.34168e-05,0.714141,-0.000309838,-0.00237459,-6.57699e-06
0.14003,0.697926,-3.58299e-06,-499.937,5.27405,-9.96508e-05,0.725638,-0.000307485,-0.00387818,-3.96373e-06
0.144031,0.719066,-4.00579e-06,-499.934,5.2837,-0.000105673,0.73699,-0.000303226,-0.00547126,-9.58273e-07
0.148031,0.740239,-4.45144e-06,-499.931,5.2934,-0.000111411,0.748211,-0.000296979,-0.00715321,2.45072e-06
0.152032,0.761457,-4.91873e-06,-499.928,5.30314,-0.000116795,0.759329,-0.000288654,-0.00892519,6.27677e-06
0.156032,0.782709,-5.40573e-06,-499.925,5.31294,-0.000121748,0.770357,-0.000278173,-0.0107867,1.05283e-05
0.160033,0.804005,-5.91063e-06,-499.922,5.32278,-0.000126195,0.781321,-0.000265446,-0.0127391,1.52167e-05
0.164033,0.825336,-6.43085e-06,-499.919,5.33265,-0.000130055,0.792236,-0.000250397,-0.0147821,2.03473e-05
0.168034,0.846712,-6.96399e-06,-499.915,5.34257,-0.000133251,0.803125,-0.000232938,-0.0169174,2.59292e-05
0.172034,0.868122,-7.5068e-06,-499.912,5.35252,-0.000135701,0.814002,-0.000212996,-0.0191445,3.19646e-05
0.176035,0.889577,-8.05623e-06,-499.909,5.36251,-0.000137324,0.824892,-0.000190479,-0.0214657,3.84602e-05
0.180035,0.911067,-8.60838e-06,-499.905,5.37252,-0.000138037,0.835807,-0.000165318,-0.0238804,4.54147e-05
0.184036,0.932603,-9.15954e-06,-499.902,5.38256,-0.000137757,0.846771,-0.000137421,-0.0263912,5.28322e-05
0.188036,0.954173,-9.70516e-06,-499.899,5.39262,-0.000136403,0.857798,-0.00010672,-0.0289977,6.0708e-05
0.192037,0.97579,-1.02409e-05,-499.895,5.40271,-0.000133891,0.868909,-7.31188e-05,-0.0317026,6.90434e-05
0.196037,0.997441,-1.07614e-05,-499.892,5.41281,-0.000130141,0.880119,-3.65547e-05,-0.0345057,7.78296e-05
0.200038,1.01914,-1.12618e-05,-499.888,5.42293,-0.000125071,0.89145,3.07282e-06,-0.0374098,8.70651e-05
0.204038,1.04087,-1.17362e-05,-499.884,5.43306,-0.000118604,0.902914,4.58386e-05,-0.0404149,9.6739e-05
0.208039,1.06265,-1.2179e-05,-499.881,5.4432,-0.000110658,0.914537,9.18798e-05,-0.0435237,0.00010685
0.212039,1.08446,-1.25836e-05,-499.877,5.45335,-0.000101163,0.926333,0.000141255,-0.0467356,0.000117382
0.21604,1.10632,-1.29439e-05,-499.873,5.4635,-9.00412e-05,0.938324,0.000194073,-0.0500533,0.000128325
0.22004,1.12822,-1.32528e-05,-499.87,5.47365,-7.72269e-05,0.950521,0.000250388,-0.0534764,0.000139657
0.224041,1.15016,-1.35035e-05,-499.866,5.4838,-6.2647e-05,0.962949,0.000310312,-0.0570078,0.000151365
0.228044,1.17215,-1.36885e-05,-499.862,5.49396,-4.62324e-05,0.975626,0.000373949,-0.0606496,0.000163432
0.232044,1.19417,-1.38003e-05,-499.858,5.5041,-2.79468e-05,0.988554,0.000441299,-0.0643985,0.000175818
0.236045,1.21623,-1.38312e-05,-499.854,5.51423,-7.7184e-06,1.00176,0.000512511,-0.0682594,0.000188511
0.240045,1.23832,-1.37732e-05,-499.85,5.52434,1.4491e-05,1.01526,0.000587634,-0.0722319,0.000201473
0.244046,1.26047,-1.36182e-05,-499.846,5.53445,3.87352e-05,1.02908,0.00066684,-0.0763191,0.000214688
0.248046,1.28265,-1.33581e-05,-499.841,5.54452,6.50288e-05,1.04324,0.000750412,-0.0805196,0.000228136
0.252047,1.30487,-1.29844e-05,-499.837,5.55458,9.33976e-05,1.05778,0.000838476,-0.0848359,0.000241788
0.256048,1.32713,-1.24889e-05,-499.833,5.5646,0.000123858,1.07271,0.000931098,-0.0892672,0.000255597
0.260049,1.34944,-1.1863e-05,-499.829,5.57458,0.000156424,1.08805,0.00102836,-0.0938136,0.00026952
0.264049,1.37178,-1.10987e-05,-499.824,5.58453,0.000191092,1.10381,0.00113032,-0.0984742,0.000283505
0.26805,1.39416,-1.01869e-05,-499.82,5.59444,0.000227877,1.12,0.00123712,-0.103251,0.000297508
0.27205,1.41658,-9.11995e-06,-499.815,5.6043,0.000266746,1.13665,0.00134877,-0.108143,0.00031147
0.276051,1.43904,-7.88912e-06,-499.81,5.6141,0.000307631,1.15383,0.00146659,-0.113151,0.000325449
0.280051,1.46153,-6.48811e-06,-499.806,5.62381,0.000350253,1.17165,0.00159098,-0.118267,0.000339411
0.284052,1.48407,-4.90962e-06,-499.801,5.63342,0.000394523,1.19015,0.00172205,-0.123489,0.000353291
0.288052,1.50665,-3.14822e-06,-499.796,5.64293,0.00044035,1.20932,0.0018598,-0.128809,0.000367009
0.292053,1.52926,-1.19702e-06,-499.791,5.65234,0.000487678,1.22918,0.0020043,-0.134224,0.000380498
0.296053,1.55191,9.48537e-07,-499.786,5.66164,0.000536389,1.24972,0.00215551,-0.139727,0.000393677
0.300054,1.5746,3.29475e-06,-499.781,5.67084,0.000586406,1.27095,0.00231351,-0.145316,0.000406476
0.304054,1.59732,5.84439e-06,-499.776,5.6799,0.00063741,1.29293,0.00247984,-0.150979,0.000418893
0.308055,1.62008,8.60042e-06,-499.771,5.68882,0.000688835,1.3158,0.00265486,-0.156708,0.000430871
0.312055,1.64287,1.15622e-05,-499.765,5.69757,0.000740445,1.33954,0.00283836,-0.162489,0.000442327
0.316056,1.6657,1.47315e-05,-499.76,5.70617,0.000792139,1.36413,0.0030303,-0.168314,0.000453194
0.320056,1.68856,1.81066e-05,-499.754,5.71462,0.000843764,1.38952,0.00323041,-0.174168,0.000463399
0.324057,1.71145,2.16884e-05,-499.749,5.72291,0.000895226,1.4157,0.00343861,-0.180045,0.000472887
0.328089,1.73456,2.5506e-05,-499.743,5.73113,0.000946822,1.44283,0.00365635,-0.185979,0.000481668
0.33209,1.75752,2.94974e-05,-499.737,5.73915,0.0009976,1.47046,0.00388001,-0.191869,0.000489556
0.336091,1.78052,3.369e-05,-499.731,5.74702,0.0010479,1.49875,0.00411098,-0.197751,0.000496591
0.340091,1.80354,3.80807e-05,-499.725,5.75477,0.00109767,1.52766,0.00434889,-0.203616,0.000502745
0.344092,1.82659,4.26694e-05,-499.719,5.7624,0.00114688,1.55714,0.00459358,-0.209459,0.000507999
0.348092,1.84967,4.74513e-05,-499.712,5.7699,0.00119547,1.58716,0.00484466,-0.215269,0.000512334
0.352092,1.87278,5.2425e-05,-499.706,5.7773,0.00124343,1.61768,0.00510189,-0.221041,0.000515742
0.356093,1.89592,5.75893e-05,-499.699,5.78459,0.00129077,1.64866,0.00536502,-0.22677,0.000518223
0.360093,1.91909,6.29393e-05,-499.692,5.79179,0.00133748,1.68005,0.00563363,-0.232448,0.000519781
0.364094,1.94229,6.84752e-05,-499.686,5.79889,0.00138364,1.71183,0.00590752,-0.238071,0.000520429
0.368094,1.96552,7.41924e-05,-499.679,5.80592,0.00142929,1.74393,0.00618624,-0.243633,0.000520184
0.372095,1.98877,8.0092e-05,-499.672,5.81287,0.00147454,1.77634,0.00646958,-0.249131,0.000519072
0.376095,2.01205,8.61699e-05,-499.664,5.81976,0.00151947,1.809,0.00675709,-0.254559,0.000517122
0.380096,2.03536,9.24285e-05,-499.657,5.82659,0.00156425,1.8419,0.00704858,-0.259915,0.000514368
0.384096,2.0587,9.88644e-05,-499.649,5.83338,0.00160899,1.87497,0.00734355,-0.265196,0.000510848
0.388097,2.08206,0.000105482,-499.642,5.84013,0.0016539,1.90821,0.00764184,-0.270399,0.000506604
0.392097,2.10545,0.000112278,-499.634,5.84685,0.00169914,1.94155,0.00794296,-0.275522,0.000501682
0.396098,2.12887,0.00011926,-499.626,5.85355,0.00174494,1.975,0.00824674,-0.280564,0.000496128
0.400098,2.15231,0.000126426,-499.618,5.86025,0.0017915,2.00849,0.0085527,-0.285521,0.000489994
0.404099,2.17579,0.000133784,-499.61,5.86694,0.00183908,2.04201,0.00886067,-0.290396,0.000483329
0.408099,2.19928,0.000141335,-499.602,5.87364,0.00188791,2.07553,0.00917021,-0.295185,0.000476189
0.4121,2.22281,0.00014909,-499.593,5.88036,0.00193826,2.10903,0.00948114,-0.29989,0.000468621
0.4161,2.24636,0.000157052,-499.585,5.8871,0.00199037,2.14247,0.00979303,-0.304509,0.000460684
0.420101,2.26994,0.000165232,-499.576,5.89388,0.00204454,2.17584,0.0101057,-0.309044,0.000452427
0.424101,2.29354,0.000173636,-499.567,5.9007,0.00210101,2.20911,0.0104188,-0.313495,0.000443906
0.428102,2.31718,0.000182279,-499.558,5.90757,0.00216008,2.24228,0.0107322,-0.317863,0.000435166
0.432102,2.34084,0.000191167,-499.549,5.91449,0.00222199,2.2753,0.0110454,-0.322147,0.000426265
0.436103,2.36453,0.000200317,-499.54,5.92149,0.00228705,2.30818,0.0113584,-0.326352,0.000417245
0.440103,2.38824,0.000209739,-499.53,5.92855,0.00235547,2.34089,0.0116708,-0.330477,0.000408159
0.444104,2.41199,0.000219452,-499.521,5.93569,0.00242756,2.37343,0.0119825,-0.334524,0.000399048
0.448104,2.43576,0.000229466,-499.511,5.94291,0.00250353,2.40578,0.0122931,-0.338495,0.00038996
0.452105,2.45957,0.000239803,-499.502,5.95023,0.00258364,2.43793,0.0126026,-0.342392,0.000380932
0.456105,2.4834,0.000250475,-499.492,5.95763,0.0026681,2.46987,0.0129107,-0.346217,0.00037201
0.460106,2.50727,0.000261507,-499.482,5.96513,0.00275713,2.5016,0.0132173,-0.349972,0.000363228
0.464106,2.53116,0.00027291,-499.471,5.97274,0.00285093,2.53311,0.013522,-0.353659,0.000354626
0.468107,2.55508,0.000284712,-499.461,5.98045,0.00294969,2.56439,0.013825,-0.35728,0.000346235
0.472107,2.57904,0.000296926,-499.451,5.98826,0.00305355,2.59545,0.0141258,-0.360838,0.000338094
0.476108,2.60303,0.00030958,-499.44,5.99619,0.00316272,2.62627,0.0144246,-0.364335,0.000330229
0.480108,2.62704,0.000322689,-499.43,6.00422,0.00327727,2.65686,0.014721,-0.367772,0.000322675
0.484109,2.6511,0.000336282,-499.419,6.01238,0.00339738,2.68723,0.0150151,-0.371154,0.000315457
0.488109,2.67518,0.000350375,-499.408,6.02064,0.00352309,2.71735,0.0153066,-0.374481,0.000308609
0.49211,2.6993,0.000364997,-499.397,6.02902,0.00365456,2.74726,0.0155956,-0.377756,0.000302153
0.49611,2.72345,0.000380164,-499.386,6.03751,0.00379177,2.77693,0.0158818,-0.380981,0.00029612
0.500111,2.74765,0.000395907,-499.375,6.04612,0.00393486,2.80638,0.0161653,-0.384159,0.000290533
0.504112,2.77187,0.000412247,-499.363,6.05484,0.00408384,2.83561,0.016446,-0.387291,0.000285421
0.508112,2.79613,0.000429201,-499.352,6.06367,0.00423868,2.86462,0.0167238,-0.390379,0.000280809
0.512112,2.82042,0.000446799,-499.34,6.07261,0.00439942,2.89342,0.0169986,-0.393426,0.000276724
0.516113,2.84475,0.000465068,-499.329,6.08166,0.0045661,2.92202,0.0172705,-0.396433,0.00027319
0.520114,2.86912,0.000484027,-499.317,6.09082,0.00473867,2.95042,0.0175394,-0.399403,0.000270236
0.524114,2.89352,0.000503696,-499.305,6.10008,0.00491706,2.97862,0.0178052,-0.402335,0.000267889
0.528114,2.91796,0.000524101,-499.293,6.10944,0.00510125,3.00664,0.0180679,-0.405233,0.000266176
0.532115,2.94244,0.000545271,-499.281,6.11891,0.00529127,3.03447,0.0183275,-0.408098,0.000265127
0.536116,2.96696,0.000567224,-499.269,6.12847,0.00548699,3.06214,0.018584,-0.410931,0.000264773
0.540116,2.99151,0.000589978,-499.256,6.13812,0.00568831,3.08963,0.0188373,-0.413733,0.000265142
0.544116,3.0161,0.000613558,-499.244,6.14787,0.0058952,3.11695,0.0190875,-0.416506,0.000266268
0.548117,3.04074,0.000637995,-499.231,6.1577,0.00610764,3.14413,0.0193346,-0.41925,0.000268183
0.552118,3.06541,0.000663304,-499.219,6.16762,0.00632553,3.17116,0.0195785,-0.421968,0.000270923
0.556118,3.09013,0.000689498,-499.206,6.17762,0.00654871,3.19804,0.0198191,-0.424659,0.000274523
0.560118,3.11488,0.000716607,-499.193,6.1877,0.00677716,3.22479,0.0200566,-0.427323,0.000279018
0.564119,3.13967,0.000744658,-499.18,6.19786,0.00701087,3.25141,0.020291,-0.429964,0.00028445
0.56812,3.16451,0.000773664,-499.167,6.20809,0.00724968,3.27791,0.0205222,-0.43258,0.000290855
0.57212,3.18939,0.000803637,-499.154,6.21839,0.00749348,3.30429,0.0207501,-0.435171,0.000298274
0.57612,3.2143,0.000834606,-499.14,6.22876,0.00774226,3.33055,0.0209749,-0.437739,0.000306748
0.58012,3.23926,0.00086659,-499.127,6.23919,0.00799594,3.3567,0.0211965,-0.440284,0.000316323
0.584121,3.26426,0.000899617,-499.113,6.24969,0.00825454,3.38276,0.0214149,-0.442806,0.000327043
0.588122,3.28931,0.000933697,-499.1,6.26025,0.00851794,3.40872,0.0216302,-0.445306,0.000338952
0.592122,3.31439,0.000968841,-499.086,6.27086,0.008786,3.43457,0.0218422,-0.447783,0.000352093
0.596122,3.33952,0.00100508,-499.072,6.28153,0.00905878,3.46034,0.0220511,-0.450237,0.000366512
0.600123,3.3647,0.00104243,-499.058,6.29225,0.00933633,3.48602,0.0222568,-0.452669,0.000382264
0.604124,3.38991,0.00108091,-499.044,6.30303,0.00961851,3.51162,0.0224593,-0.455079,0.000399391
0.608124,3.41517,0.00112054,-499.03,6.31386,0.00990527,3.53713,0.0226585,-0.457465,0.000417937
0.612124,3.44047,0.00116132,-499.016,6.32473,0.0101967,3.56255,0.0228546,-0.459828,0.000437953
0.616125,3.46582,0.0012033,-499.001,6.33566,0.0104928,3.58791,0.0230475,-0.46217,0.000459494
0.620126,3.49121,0.00124649,-498.987,6.34663,0.0107936,3.61319,0.0232371,-0.464488,0.000482603
0.624126,3.51664,0.00129088,-498.972,6.35765,0.011099,3.63838,0.0234235,-0.466782,0.00050732
0.628126,3.54211,0.00133652,-498.958,6.36871,0.0114091,3.66351,0.0236067,-0.469052,0.000533702
0.632127,3.56764,0.00138343,-498.943,6.37983,0.0117241,3.68856,0.0237866,-0.471299,0.0005618
0.636128,3.59321,0.00143162,-498.928,6.39098,0.0120439,3.71354,0.0239632,-0.473522,0.000591655
0.640128,3.61882,0.00148109,-498.913,6.40218,0.0123685,3.73843,0.0241366,-0.47572,0.000623305
0.644128,3.64447,0.00153188,-498.898,6.41342,0.012698,3.76325,0.0243066,-0.477893,0.000656801
0.648129,3.67018,0.00158403,-498.883,6.42472,0.0130327,3.78801,0.0244734,-0.480041,0.000692198
0.65213,3.69593,0.00163753,-498.868,6.43605,0.0133725,3.81268,0.0246368,-0.482164,0.000729528
0.65613,3.72172,0.0016924,-498.852,6.44744,0.0137175,3.83727,0.0247969,-0.484261,0.000768822
0.66013,3.74755,0.00174867,-498.837,6.45886,0.0140678,3.86179,0.0249536,-0.486331,0.00081013
0.664131,3.77344,0.00180638,-498.821,6.47034,0.0144236,3.88623,0.0251069,-0.488376,0.000853501
0.668132,3.79938,0.00186554,-498.806,6.48187,0.0147851,3.91058,0.0252569,-0.490395,0.000898959
0.672132,3.82535,0.00192614,-498.79,6.49344,0.0151521,3.93485,0.0254034,-0.492386,0.000946529
0.676132,3.85137,0.00198824,-498.774,6.50506,0.0155249,3.95903,0.0255465,-0.494351,0.000996253
0.680133,3.87744,0.00205187,-498.758,6.51674,0.0159038,3.98313,0.0256862,-0.496288,0.00104817
0.684134,3.90356,0.00211705,-498.742,6.52846,0.0162888,4.00714,0.0258224,-0.498199,0.00110231
0.688134,3.92973,0.00218377,-498.726,6.54024,0.0166799,4.03106,0.0259551,-0.500081,0.00115867
0.692134,3.95593,0.00225207,-498.71,6.55207,0.0170774,4.05488,0.0260844,-0.501935,0.0012173
0.696135,3.9822,0.00232202,-498.693,6.56396,0.0174815,4.07861,0.0262102,-0.503763,0.00127822
0.700136,4.00851,0.00239361,-498.677,6.57591,0.0178923,4.10224,0.0263325,-0.505562,0.00134145
0.704136,4.03486,0.00246685,-498.66,6.58791,0.0183099,4.12576,0.0264512,-0.507334,0.00140699
0.708136,4.06126,0.00254178,-498.644,6.59997,0.0187344,4.14919,0.0265664,-0.509077,0.00147486
0.712137,4.08771,0.00261847,-498.627,6.61209,0.0191661,4.17251,0.0266781,-0.510792,0.0015451
0.716138,4.11422,0.00269691,-498.61,6.62427,0.0196052,4.19573,0.0267863,-0.51248,0.00161769
0.720138,4.14076,0.00277711,-498.593,6.63651,0.0200515,4.21883,0.0268909,-0.514139,0.00169263
0.724138,4.16736,0.00285913,-498.576,6.64882,0.0205054,4.24182,0.026992,-0.51577,0.00176994
0.728139,4.19401,0.00294302,-498.559,6.66119,0.0209672,4.26471,0.0270895,-0.517374,0.00184965
0.73214,4.22071,0.00302879,-498.542,6.67363,0.0214368,4.28748,0.0271836,-0.51895,0.00193172
0.73614,4.24745,0.00311645,-498.525,6.68613,0.0219143,4.31013,0.027274,-0.520498,0.00201614
0.740148,4.2743,0.00320623,-498.508,6.69872,0.0224009,4.3327,0.0273611,-0.522021,0.0021031
0.744148,4.30115,0.00329781,-498.49,6.71136,0.0228948,4.35511,0.0274445,-0.523514,0.00219224
0.748148,4.32804,0.0033914,-498.473,6.72407,0.0233971,4.3774,0.0275244,-0.524979,0.00228373
0.752149,4.355,0.00348706,-498.455,6.73684,0.0239081,4.39957,0.0276008,-0.526418,0.00237757
0.75615,4.382,0.00358479,-498.437,6.74969,0.0244277,4.42161,0.0276738,-0.52783,0.00247374
0.76015,4.40905,0.00368462,-498.42,6.76261,0.024956,4.44353,0.0277432,-0.529214,0.00257218
0.76415,4.43616,0.00378659,-498.402,6.7756,0.0254931,4.46532,0.0278092,-0.530572,0.00267291
0.768151,4.46332,0.00389077,-498.384,6.78866,0.0260393,4.48698,0.0278717,-0.531904,0.00277593
0.772152,4.49053,0.00399718,-498.366,6.80179,0.0265946,4.50852,0.0279309,-0.53321,0.00288118
0.776152,4.51779,0.00410581,-498.348,6.815,0.027159,4.52992,0.0279867,-0.53449,0.00298863
0.780152,4.54511,0.00421674,-498.329,6.82827,0.0277326,4.55119,0.028039,-0.535743,0.00309826
0.784153,4.57248,0.00433003,-498.311,6.84163,0.0283158,4.57233,0.0280881,-0.536972,0.00321008
0.788154,4.59991,0.0044457,-498.293,6.85505,0.0289084,4.59334,0.0281339,-0.538175,0.00332403
0.792154,4.62738,0.00456374,-498.274,6.86855,0.0295104,4.61421,0.0281763,-0.539353,0.00344005
0.796154,4.65491,0.00468423,-498.256,6.88212,0.030122,4.63495,0.0282155,-0.540506,0.00355813
0.800155,4.6825,0.00480723,-498.237,6.89577,0.0307434,4.65556,0.0282516,-0.541635,0.00367827
0.804156,4.71014,0.00493276,-498.218,6.9095,0.0313746,4.67604,0.0282844,-0.542739,0.00380039
0.808156,4.73784,0.00506082,-498.2,6.92329,0.0320154,4.69637,0.0283141,-0.543819,0.00392444
0.812156,4.76559,0.00519149,-498.181,6.93715,0.032666,4.71657,0.0283407,-0.544875,0.00405039
0.816157,4.7934,0.00532483,-498.162,6.9511,0.0333267,4.73664,0.0283642,-0.545908,0.00417825
0.820158,4.82126,0.00546085,-498.143,6.96511,0.0339974,4.75657,0.0283847,-0.546917,0.00430793
0.824161,4.8492,0.00559967,-498.124,6.97921,0.0346783,4.77638,0.0284022,-0.547903,0.00443946
0.828161,4.87718,0.00574114,-498.104,6.99337,0.0353688,4.79603,0.0284168,-0.548865,0.00457263
0.832161,4.90521,0.00588542,-498.085,7.0076,0.0360693,4.81555,0.0284285,-0.549805,0.00470748
0.836161,4.93329,0.00603254,-498.066,7.0219,0.0367799,4.83493,0.0284373,-0.550722,0.00484397
0.840161,4.96144,0.00618254,-498.046,7.03628,0.0375006,4.85417,0.0284433,-0.551616,0.00498206
0.844162,4.98965,0.00633551,-498.027,7.05073,0.0382316,4.87329,0.0284466,-0.552489,0.00512172
0.848163,5.01792,0.00649144,-498.007,7.06526,0.0389727,4.89226,0.0284471,-0.553339,0.00526288
0.852163,5.04624,0.00665033,-497.988,7.07985,0.0397238,4.9111,0.028445,-0.554168,0.00540543
0.856163,5.07461,0.00681227,-497.968,7.09451,0.0404851,4.92979,0.0284403,-0.554974,0.00554937
0.860164,5.10306,0.00697734,-497.948,7.10925,0.0412567,4.94835,0.0284329,-0.555759,0.00569468
0.864165,5.13156,0.00714553,-497.928,7.12406,0.0420385,4.96678,0.0284231,-0.556523,0.00584127
0.868165,5.16012,0.00731686,-497.908,7.13894,0.0428303,4.98506,0.0284108,-0.557265,0.00598904
0.872165,5.18873,0.00749138,-497.888,7.15388,0.0436322,5.0032,0.0283961,-0.557986,0.00613798
0.876166,5.21742,0.00766921,-497.868,7.1689,0.0444445,5.02121,0.028379,-0.558687,0.00628807
0.880167,5.24616,0.00785032,-497.848,7.18399,0.045267,5.03908,0.0283596,-0.559367,0.00643921
0.884167,5.27496,0.00803472,-497.828,7.19914,0.0460993,5.05681,0.0283379,-0.560025,0.00659131
0.888167,5.30381,0.00822248,-497.808,7.21436,0.0469418,5.0744,0.028314,-0.560664,0.00674435
0.892168,5.33274,0.00841371,-497.787,7.22966,0.0477945,5.09185,0.028288,-0.561282,0.0068983
0.896169,5.36173,0.00860839,-497.767,7.24502,0.0486573,5.10916,0.0282598,-0.561879,0.00705308
0.900169,5.39077,0.00880651,-497.746,7.26045,0.0495299,5.12633,0.0282295,-0.562457,0.00720858
0.904169,5.41987,0.00900816,-497.726,7.27595,0.0504125,5.14336,0.0281973,-0.563015,0.00736477
0.90817,5.44905,0.00921343,-497.705,7.29152,0.0513053,5.16026,0.028163,-0.563552,0.00752166
0.912171,5.47828,0.00942231,-497.684,7.30715,0.052208,5.17701,0.0281269,-0.564071,0.00767912
0.916171,5.50757,0.0096348,-497.664,7.32285,0.0531203,5.19362,0.0280888,-0.564569,0.00783707
0.920171,5.53693,0.00985097,-497.643,7.33862,0.0540424,5.21009,0.028049,-0.565048,0.00799549
0.924172,5.56635,0.0100709,-497.622,7.35445,0.0549746,5.22642,0.0280074,-0.565507,0.00815435
0.928173,5.59584,0.0102946,-497.601,7.37035,0.0559164,5.24261,0.0279641,-0.565948,0.00831356
0.932173,5.62539,0.0105221,-497.58,7.38632,0.0568677,5.25865,0.0279191,-0.566369,0.00847301
0.936173,5.655,0.0107534,-497.559,7.40235,0.0578285,5.27456,0.0278725,-0.566771,0.00863269
0.940174,5.68468,0.0109887,-497.538,7.41845,0.0587992,5.29032,0.0278243,-0.567154,0.00879258
0.944175,5.71442,0.0112279,-497.516,7.43462,0.0597792,5.30594,0.0277746,-0.567518,0.00895259
0.948175,5.74423,0.0114709,-497.495,7.45084,0.0607684,5.32141,0.0277234,-0.567864,0.00911259
0.952175,5.7741,0.011718,-497.474,7.46714,0.0617669,5.33674,0.0276708,-0.568191,0.00927261
0.956176,5.80404,0.0119692,-497.452,7.4835,0.0627749,5.35193,0.0276167,-0.568499,0.00943259
0.960177,5.83404,0.0122244,-497.431,7.49992,0.063792,5.36697,0.0275614,-0.56879,0.00959246
0.964177,5.86411,0.0124837,-497.409,7.51641,0.0648179,5.38187,0.0275047,-0.569062,0.00975211
0.968177,5.89424,0.0127471,-497.388,7.53296,0.0658527,5.39661,0.0274468,-0.569315,0.00991153
0.972178,5.92445,0.0130147,-497.366,7.54958,0.0668966,5.41122,0.0273876,-0.569551,0.0100707
0.976179,5.95472,0.0132866,-497.344,7.56626,0.0679493,5.42568,0.0273273,-0.569769,0.0102296
0.980179,5.98505,0.0135626,-497.323,7.58301,0.0690105,5.44,0.0272659,-0.56997,0.010388
0.984179,6.01545,0.013843,-497.301,7.59981,0.0700801,5.45416,0.0272034,-0.570152,0.0105459
0.98818,6.04593,0.0141277,-497.279,7.61668,0.0711584,5.46818,0.0271398,-0.570317,0.0107035
0.992181,6.07647,0.0144167,-497.257,7.63362,0.072245,5.48206,0.0270752,-0.570465,0.0108605
0.996181,6.10707,0.0147101,-497.235,7.65061,0.0733396,5.49578,0.0270096,-0.570595,0.0110168
1.00018,6.13774,0.0150078,-497.213,7.66767,0.0744422,5.50936,0.0269431,-0.570708,0.0111725
1.00418,6.16849,0.0153101,-497.191,7.68479,0.0755531,5.52279,0.0268757,-0.570804,0.0113276
1.00818,6.1993,0.0156168,-497.169,7.70196,0.0766715,5.53607,0.0268074,-0.570883,0.0114819
1.01218,6.23018,0.0159281,-497.147,7.71921,0.0777979,5.5492,0.0267382,-0.570946,0.0116355
1.01618,6.26113,0.0162439,-497.124,7.73651,0.0789319,5.56219,0.0266683,-0.570991,0.0117882
1.02018,6.29215,0.0165642,-497.102,7.75387,0.080073,5.57502,0.0265976,-0.57102,0.0119401
1.02419,6.32324,0.0168892,-497.08,7.77129,0.0812216,5.58771,0.0265261,-0.571033,0.0120911
1.02819,6.3544,0.0172187,-497.057,7.78878,0.0823774,5.60024,0.0264539,-0.571029,0.0122412
1.03219,6.38563,0.0175529,-497.035,7.80632,0.0835399,5.61262,0.0263811,-0.571008,0.0123903
1.03619,6.41693,0.0178918,-497.012,7.82392,0.0847096,5.62486,0.0263075,-0.570972,0.0125384
1.04019,6.44831,0.0182355,-496.99,7.84158,0.085886,5.63694,0.0262333,-0.57092,0.0126855
1.04419,6.47975,0.0185838,-496.967,7.8593,0.0870689,5.64888,0.0261585,-0.570851,0.0128315
1.04819,6.51126,0.0189369,-496.944,7.87707,0.088258,5.66066,0.0260832,-0.570767,0.0129764
1.05219,6.54285,0.0192948,-496.922,7.8949,0.0894536,5.67229,0.0260072,-0.570668,0.0131202
1.05619,6.57451,0.0196575,-496.899,7.91279,0.0906553,5.68377,0.0259307,-0.570552,0.0132628
1.06019,6.60623,0.0200249,-496.876,7.93073,0.0918627,5.69509,0.0258536,-0.570422,0.0134043
1.06419,6.63803,0.0203973,-496.853,7.94874,0.0930761,5.70627,0.025776,-0.570275,0.0135445
1.06819,6.66991,0.0207746,-496.831,7.96679,0.0942952,5.71729,0.0256979,-0.570114,0.0136836
1.07219,6.70186,0.0211568,-496.808,7.98491,0.0955197,5.72816,0.0256194,-0.569938,0.0138214
1.07619,6.73387,0.0215438,-496.785,8.00307,0.0967493,5.73888,0.0255403,-0.569746,0.0139579
1.0802,6.76596,0.0219358,-496.762,8.02129,0.0979842,5.74944,0.0254608,-0.56954,0.0140932
1.0842,6.79813,0.0223328,-496.739,8.03957,0.0992242,5.75986,0.0253809,-0.569318,0.0142272
1.0882,6.83036,0.0227347,-496.716,8.05789,0.100469,5.77011,0.0253005,-0.569083,0.0143598
1.0922,6.86267,0.0231416,-496.692,8.07627,0.101718,5.78022,0.0252197,-0.568832,0.0144912
1.0962,6.89506,0.0235536,-496.669,8.0947,0.102972,5.79017,0.0251385,-0.568567,0.0146212
1.1002,6.92751,0.0239706,-496.646,8.11318,0.10423,5.79997,0.0250569,-0.568288,0.0147499
1.1042,6.96005,0.0243926,-496.623,8.13172,0.105492,5.80962,0.0249749,-0.567994,0.0148773
1.1082,6.99266,0.0248198,-496.599,8.1503,0.106759,5.81911,0.0248925,-0.567686,0.0150033
1.1122,7.02534,0.025252,-496.576,8.16894,0.108029,5.82845,0.0248097,-0.567364,0.0151279
1.1162,7.05809,0.0256892,-496.553,8.18762,0.109302,5.83763,0.0247266,-0.567028,0.0152512
1.1202,7.09093,0.0261316,-496.529,8.20636,0.11058,5.84666,0.0246431,-0.566679,0.0153732
1.1242,7.12383,0.0265792,-496.506,8.22514,0.111861,5.85554,0.0245592,-0.566315,0.0154938
1.1282,7.15681,0.0270318,-496.483,8.24397,0.113144,5.86426,0.024475,-0.565938,0.0156131
1.1322,7.18987,0.0274896,-496.459,8.26284,0.114431,5.87282,0.0243904,-0.565547,0.015731
1.13621,7.223,0.0279526,-496.435,8.28177,0.115721,5.88124,0.0243054,-0.565142,0.0158476
1.14021,7.25622,0.0284208,-496.412,8.30074,0.117014,5.88949,0.02422,-0.564725,0.0159628
1.14421,7.28949,0.028894,-496.388,8.31975,0.118309,5.89759,0.0241344,-0.564294,0.0160767
1.14821,7.32286,0.0293726,-496.365,8.33881,0.119607,5.90554,0.0240483,-0.563849,0.0161894
1.15221,7.3563,0.0298563,-496.341,8.35792,0.120906,5.91333,0.0239618,-0.563392,0.0163007
1.15621,7.38981,0.0303451,-496.317,8.37707,0.122208,5.92097,0.023875,-0.562922,0.0164107
1.16021,7.4234,0.0308393,-496.294,8.39626,0.123512,5.92845,0.0237878,-0.562438,0.0165195
1.16421,7.45707,0.0313387,-496.27,8.4155,0.124818,5.93577,0.0237002,-0.561942,0.016627
1.16821,7.49081,0.0318432,-496.246,8.43477,0.126126,5.94294,0.0236122,-0.561433,0.0167333
1.17221,7.52464,0.0323531,-496.222,8.4541,0.127435,5.94996,0.0235239,-0.560911,0.0168383
1.17621,7.55854,0.0328682,-496.199,8.47346,0.128745,5.95682,0.0234351,-0.560377,0.0169422
1.18021,7.59252,0.0333885,-496.175,8.49286,0.130057,5.96352,0.0233458,-0.55983,0.0170448
1.18421,7.62657,0.033914,-496.151,8.5123,0.13137,5.97006,0.0232562,-0.559271,0.0171463
1.18821,7.6607,0.0344449,-496.127,8.53178,0.132684,5.97645,0.0231662,-0.558699,0.0172467
1.19221,7.69492,0.034981,-496.103,8.5513,0.133999,5.98269,0.0230757,-0.558116,0.0173459
1.19622,7.7292,0.0355223,-496.079,8.57086,0.135315,5.98876,0.0229848,-0.55752,0.017444
1.20022,7.76357,0.0360689,-496.055,8.59046,0.136631,5.99468,0.0228933,-0.556911,0.0175411
1.20423,7.79811,0.0366223,-496.031,8.61014,0.137952,6.00046,0.0228012,-0.55629,0.0176374
1.20824,7.83271,0.0371808,-496.007,8.62985,0.139272,6.00608,0.0227087,-0.555656,0.0177326
1.21224,7.86732,0.0377433,-495.983,8.64956,0.14059,6.01153,0.0226158,-0.555012,0.0178266
1.21624,7.902,0.038311,-495.959,8.6693,0.141908,6.01682,0.0225225,-0.554357,0.0179196
1.22024,7.93676,0.0388839,-495.935,8.68907,0.143226,6.02195,0.0224287,-0.55369,0.0180117
1.22424,7.9716,0.0394623,-495.91,8.70888,0.144544,6.02693,0.0223343,-0.553011,0.0181028
1.22824,8.00653,0.0400459,-495.886,8.72872,0.145863,6.03176,0.0222394,-0.55232,0.0181931
1.23224,8.04152,0.0406346,-495.862,8.74859,0.14718,6.03642,0.022144,-0.551619,0.0182825
1.23624,8.0766,0.0412287,-495.838,8.7685,0.148498,6.04093,0.022048,-0.550905,0.0183711
1.24024,8.11177,0.0418281,-495.814,8.78844,0.149815,6.04528,0.0219515,-0.550181,0.0184589
1.24424,8.14701,0.0424328,-495.79,8.80841,0.151132,6.04947,0.0218543,-0.549445,0.0185459
1.24824,8.18232,0.0430426,-495.765,8.8284,0.152449,6.0535,0.0217567,-0.548699,0.0186321
1.25225,8.21773,0.0436578,-495.741,8.84843,0.153764,6.05738,0.0216584,-0.547941,0.0187177
1.25625,8.25321,0.0442783,-495.717,8.86849,0.15508,6.0611,0.0215595,-0.547172,0.0188025
1.26025,8.28876,0.0449039,-495.693,8.88857,0.156394,6.06467,0.02146,-0.546393,0.0188867
1.26425,8.32441,0.0455348,-495.668,8.90868,0.157707,6.06807,0.0213599,-0.545603,0.0189703
1.26825,8.36013,0.0461711,-495.644,8.92882,0.15902,6.07132,0.0212591,-0.544801,0.0190532
1.27225,8.39593,0.0468124,-495.62,8.94898,0.160331,6.07441,0.0211578,-0.54399,0.0191356
1.27625,8.43181,0.0474591,-495.595,8.96917,0.161642,6.07734,0.0210557,-0.543167,0.0192174
1.28025,8.46778,0.0481111,-495.571,8.98938,0.162952,6.08012,0.020953,-0.542334,0.0192988
1.28425,8.50383,0.0487683,-495.547,9.00962,0.16426,6.08274,0.0208497,-0.541491,0.0193796
1.28825,8.53995,0.0494306,-495.522,9.02988,0.165567,6.0852,0.0207457,-0.540637,0.0194599
1.29225,8.57616,0.0500982,-495.498,9.05016,0.166873,6.0875,0.020641,-0.539773,0.0195398
1.29625,8.61245,0.0507711,-495.474,9.07047,0.168178,6.08964,0.0205357,-0.538899,0.0196194
1.30025,8.64881,0.051449,-495.449,9.09079,0.169481,6.09163,0.0204296,-0.538015,0.0196985
1.30425,8.68526,0.0521324,-495.425,9.11113,0.170783,6.09346,0.0203229,-0.53712,0.0197772
1.30826,8.7218,0.0528209,-495.401,9.1315,0.172084,6.09513,0.0202155,-0.536215,0.0198556
1.31226,8.75842,0.0535146,-495.376,9.15188,0.173383,6.09665,0.0201073,-0.535301,0.0199337
1.31626,8.7951,0.0542133,-495.352,9.17228,0.174681,6.09801,0.0199985,-0.534377,0.0200115
1.32026,8.83189,0.0549174,-495.327,9.1927,0.175977,6.09921,0.019889,-0.533442,0.020089
1.32426,8.86875,0.0556266,-495.303,9.21314,0.177271,6.10025,0.0197787,-0.532498,0.0201663
1.32826,8.90568,0.0563409,-495.279,9.23359,0.178564,6.10113,0.0196678,-0.531545,0.0202433
1.33226,8.94271,0.0570605,-495.254,9.25405,0.179855,6.10186,0.0195561,-0.530582,0.0203201
1.33626,8.97981,0.0577852,-495.23,9.27454,0.181145,6.10242,0.0194438,-0.529609,0.0203967
1.34026,9.01699,0.058515,-495.205,9.29503,0.182433,6.10283,0.0193307,-0.528627,0.0204732
1.34426,9.05427,0.05925,-495.181,9.31554,0.183719,6.10309,0.019217,-0.527635,0.0205495
1.34826,9.09162,0.0599902,-495.157,9.33606,0.185003,6.10318,0.0191025,-0.526634,0.0206256
1.35226,9.12905,0.0607356,-495.132,9.35659,0.186286,6.10312,0.0189873,-0.525624,0.0207016
1.35626,9.16656,0.0614858,-495.108,9.37713,0.187567,6.10291,0.0188714,-0.524604,0.0207775
1.36026,9.20416,0.0622414,-495.083,9.39768,0.188846,6.10253,0.0187549,-0.523576,0.0208532
1.36426,9.24185,0.0630021,-495.059,9.41824,0.190124,6.102,0.0186376,-0.522538,0.0209289
1.36827,9.2796,0.0637677,-495.035,9.43881,0.191399,6.10131,0.0185197,-0.521491,0.0210045
1.37227,9.31745,0.0645386,-495.01,9.45939,0.192673,6.10046,0.018401,-0.520435,0.0210801
1.37627,9.35538,0.0653145,-494.986,9.47997,0.193945,6.09946,0.0182817,-0.519371,0.0211555
1.38027,9.39339,0.0660956,-494.961,9.50057,0.195215,6.0983,0.0181617,-0.518297,0.0212309
1.38427,9.43147,0.0668815,-494.937,9.52116,0.196482,6.09699,0.0180411,-0.517215,0.0213063
1.38827,9.46965,0.0676727,-494.913,9.54176,0.197749,6.09551,0.0179198,-0.516124,0.0213816
1.39227,9.50791,0.068469,-494.888,9.56237,0.199013,6.09388,0.0177979,-0.515024,0.0214568
1.39627,9.54624,0.0692701,-494.864,9.58297,0.200275,6.0921,0.0176753,-0.513916,0.021532
1.40027,9.58467,0.0700764,-494.839,9.60358,0.201535,6.09016,0.0175521,-0.512799,0.0216072
1.40427,9.62317,0.0708878,-494.815,9.6242,0.202794,6.08806,0.0174283,-0.511674,0.0216824
1.40827,9.66175,0.071704,-494.791,9.6448,0.20405,6.0858,0.0173039,-0.51054,0.0217575
1.41227,9.70042,0.0725254,-494.766,9.66542,0.205304,6.08339,0.0171789,-0.509398,0.0218325
1.41627,9.73918,0.0733518,-494.742,9.68603,0.206556,6.08083,0.0170533,-0.508248,0.0219076
1.42027,9.77801,0.0741833,-494.718,9.70664,0.207806,6.0781,0.0169271,-0.507089,0.0219826
1.42428,9.81692,0.0750195,-494.693,9.72725,0.209054,6.07523,0.0168005,-0.505923,0.0220575
1.42828,9.85592,0.0758609,-494.669,9.74785,0.2103,6.0722,0.0166732,-0.504748,0.0221324
1.43228,9.89501,0.0767073,-494.645,9.76845,0.211544,6.06901,0.0165454,-0.503565,0.0222073
1.43628,9.93416,0.0775584,-494.621,9.78905,0.212786,6.06567,0.0164171,-0.502374,0.022282
1.44028,9.97341,0.0784147,-494.596,9.80964,0.214025,6.06217,0.0162883,-0.501175,0.0223568
1.44428,10.0127,0.079276,-494.572,9.83022,0.215263,6.05852,0.0161589,-0.499968,0.0224314
1.44828,10.0522,0.0801422,-494.548,9.8508,0.216498,6.05471,0.0160292,-0.498754,0.0225059
1.45228,10.0916,0.0810131,-494.524,9.87137,0.21773,6.05075,0.0158989,-0.497532,0.0225804
1.45628,10.1312,0.0818892,-494.499,9.89193,0.218961,6.04663,0.0157683,-0.496302,0.0226547
1.46028,10.1709,0.0827702,-494.475,9.91248,0.220189,6.04237,0.0156371,-0.495064,0.022729
1.46428,10.2106,0.0836558,-494.451,9.93302,0.221415,6.03794,0.0155056,-0.493819,0.0228031
1.46828,10.2504,0.0845466,-494.427,9.95355,0.222638,6.03337,0.0153737,-0.492566,0.022877
1.47228,10.2903,0.0854422,-494.403,9.97407,0.223859,6.02864,0.0152414,-0.491306,0.0229508
1.47628,10.3303,0.0863428,-494.379,9.99458,0.225078,6.02376,0.0151087,-0.490038,0.0230245
1.48029,10.3704,0.087248,-494.355,10.0151,0.226293,6.01873,0.0149757,-0.488763,0.0230979
1.48429,10.4105,0.0881582,-494.331,10.0355,0.227507,6.01354,0.0148424,-0.487481,0.0231711
1.48829,10.4508,0.0890733,-494.307,10.056,0.228718,6.0082,0.0147087,-0.486191,0.0232442
1.49229,10.4911,0.089993,-494.283,10.0764,0.229926,6.00271,0.0145747,-0.484894,0.023317
1.49629,10.5315,0.0909178,-494.259,10.0969,0.231131,5.99707,0.0144405,-0.48359,0.0233895
1.50029,10.572,0.0918473,-494.235,10.1173,0.232334,5.99128,0.0143059,-0.482279,0.0234618
1.50429,10.6125,0.0927815,-494.211,10.1377,0.233534,5.98533,0.0141712,-0.480962,0.0235338
1.50829,10.6532,0.0937206,-494.187,10.1581,0.234731,5.97924,0.0140362,-0.479636,0.0236055
1.51229,10.6939,0.0946646,-494.163,10.1784,0.235925,5.97299,0.0139009,-0.478304,0.0236769
1.51629,10.7347,0.0956133,-494.139,10.1988,0.237116,5.96659,0.0137655,-0.476966,0.0237479
1.52029,10.7756,0.0965665,-494.115,10.2191,0.238304,5.96005,0.0136299,-0.47562,0.0238186
1.52429,10.8165,0.0975247,-494.091,10.2393,0.239489,5.95335,0.0134941,-0.474268,0.0238889
1.52829,10.8576,0.0984876,-494.068,10.2596,0.240671,5.94651,0.0133582,-0.472909,0.0239589
1.53229,10.8987,0.099455,-494.044,10.2799,0.241849,5.93952,0.0132221,-0.471544,0.0240284
1.5363,10.94,0.100429,-494.02,10.3001,0.243026,5.93236,0.0130857,-0.470169,0.0240976
1.5403,10.9812,0.101406,-493.996,10.3203,0.244198,5.92507,0.0129494,-0.468791,0.0241662
1.5443,11.0226,0.102387,-493.973,10.3405,0.245366,5.91763,0.012813,-0.467406,0.0242344
1.5483,11.0641,0.103373,-493.949,10.3606,0.246531,5.91005,0.0126765,-0.466014,0.0243021
1.5523,11.1056,0.104364,-493.925,10.3807,0.247692,5.90232,0.0125399,-0.464616,0.0243693
1.5563,11.1472,0.10536,-493.902,10.4008,0.24885,5.89444,0.0124033,-0.463212,0.0244359
1.5603,11.1889,0.10636,-493.878,10.4208,0.250003,5.88641,0.0122667,-0.461801,0.0245021
1.56431,11.2307,0.107365,-493.855,10.4409,0.251153,5.87824,0.01213,-0.460385,0.0245676
1.56831,11.2725,0.108374,-493.831,10.4609,0.252299,5.86992,0.0119933,-0.458962,0.0246326
1.57231,11.3144,0.109388,-493.808,10.4808,0.253441,5.86146,0.0118566,-0.457533,0.024697
1.57631,11.3565,0.110407,-493.784,10.5007,0.254579,5.85285,0.0117199,-0.456098,0.0247608
1.58031,11.3985,0.11143,-493.761,10.5206,0.255712,5.8441,0.0115833,-0.454657,0.0248239
1.58431,11.4407,0.112457,-493.738,10.5405,0.256841,5.8352,0.0114466,-0.45321,0.0248864
1.58831,11.483,0.113489,-493.714,10.5603,0.257966,5.82616,0.0113101,-0.451757,0.0249483
1.59231,11.5253,0.114526,-493.691,10.5801,0.259086,5.81698,0.0111735,-0.450299,0.0250095
1.59631,11.5677,0.115567,-493.668,10.5998,0.260202,5.80765,0.011037,-0.448834,0.02507
1.60031,11.6102,0.116612,-493.645,10.6196,0.261312,5.79818,0.0109007,-0.447364,0.0251297
1.60431,11.6527,0.117662,-493.621,10.6392,0.262418,5.78857,0.0107644,-0.445889,0.0251888
1.60831,11.6954,0.118717,-493.598,10.6589,0.26352,5.77882,0.0106281,-0.444407,0.0252471
1.61231,11.7381,0.119775,-493.575,10.6785,0.264616,5.76893,0.010492,-0.44292,0.0253046
1.61631,11.7809,0.120838,-493.552,10.698,0.265707,5.7589,0.010356,-0.441428,0.0253614
1.62032,11.8239,0.121907,-493.529,10.7176,0.266794,5.74871,0.0102199,-0.439927,0.0254175
1.62432,11.8668,0.122979,-493.506,10.737,0.267875,5.7384,0.0100841,-0.438424,0.0254727
1.62832,11.9099,0.124055,-493.483,10.7565,0.26895,5.72795,0.0099485,-0.436915,0.0255271
1.63232,11.953,0.125135,-493.46,10.7758,0.270019,5.71736,0.00981299,-0.435401,0.0255808
1.63632,11.9961,0.12622,-493.438,10.7952,0.271083,5.70663,0.00967766,-0.433882,0.0256335
1.64033,12.0394,0.127309,-493.415,10.8145,0.272141,5.69577,0.00954244,-0.432358,0.0256855
1.64433,12.0828,0.128402,-493.392,10.8337,0.273194,5.68476,0.00940736,-0.430828,0.0257366
1.64833,12.1262,0.129499,-493.369,10.8529,0.27424,5.67363,0.00927248,-0.429294,0.0257868
1.65233,12.1697,0.1306,-493.347,10.8721,0.27528,5.66235,0.00913773,-0.427754,0.0258362
1.65633,12.2132,0.131705,-493.324,10.8912,0.276314,5.65094,0.00900314,-0.426209,0.0258848
1.66033,12.2569,0.132815,-493.301,10.9102,0.277342,5.6394,0.00886875,-0.424659,0.0259324
1.66433,12.3006,0.133929,-493.279,10.9292,0.278363,5.62772,0.0087345,-0.423105,0.0259792
1.66833,12.3444,0.135046,-493.256,10.9482,0.279378,5.61591,0.00860042,-0.421545,0.0260251
1.67233,12.3883,0.136168,-493.234,10.9671,0.280386,5.60396,0.00846651,-0.41998,0.0260701
1.67633,12.4322,0.137294,-493.212,10.9859,0.281388,5.59189,0.00833282,-0.418412,0.0261142
1.68033,12.4763,0.138423,-493.189,11.0047,0.282383,5.57968,0.00819927,-0.416838,0.0261574
1.68433,12.5204,0.139557,-493.167,11.0235,0.283371,5.56734,0.00806589,-0.415259,0.0261997
1.68833,12.5645,0.140695,-493.145,11.0422,0.284351,5.55487,0.00793273,-0.413677,0.0262411
1.69233,12.6088,0.141836,-493.123,11.0608,0.285325,5.54226,0.00779972,-0.412089,0.0262815
1.69634,12.6531,0.142982,-493.101,11.0794,0.286292,5.52953,0.00766688,-0.410497,0.0263211
1.70034,12.6975,0.144131,-493.078,11.0979,0.287251,5.51667,0.00753423,-0.4089,0.0263598
1.70434,12.742,0.145284,-493.056,11.1163,0.288202,5.50368,0.00740179,-0.407299,0.0263976
1.70834,12.7865,0.146441,-493.034,11.1347,0.289147,5.49056,0.00726949,-0.405694,0.0264344
1.71234,12.8312,0.147601,-493.013,11.1531,0.290083,5.47732,0.00713737,-0.404084,0.0264704
1.71634,12.8759,0.148765,-492.991,11.1714,0.291012,5.46395,0.00700546,-0.40247,0.0265054
1.72034,12.9206,0.149933,-492.969,11.1896,0.291933,5.45045,0.00687369,-0.400852,0.0265395
1.72434,12.9655,0.151105,-492.947,11.2078,0.292846,5.43682,0.0067421,-0.399229,0.0265728
1.72834,13.0104,0.15228,-492.925,11.2259,0.293751,5.42308,0.00661071,-0.397603,0.0266051
1.73234,13.0554,0.153459,-492.904,11.2439,0.294648,5.40921,0.00647945,-0.395972,0.0266365
1.73634,13.1004,0.154641,-492.882,11.2619,0.295537,5.39521,0.00634836,-0.394337,0.0266671
1.74034,13.1455,0.155827,-492.861,11.2798,0.296418,5.38109,0.00621744,-0.392698,0.0266967
1.74434,13.1907,0.157017,-492.839,11.2976,0.29729,5.36685,0.00608671,-0.391056,0.0267255
1.74834,13.236,0.158209,-492.818,11.3154,0.298154,5.35249,0.00595611,-0.389409,0.0267534
1.75234,13.2814,0.159406,-492.796,11.3331,0.299009,5.338,0.00582566,-0.387759,0.0267804
1.75635,13.3268,0.160605,-492.775,11.3508,0.299856,5.3234,0.0056954,-0.386105,0.0268065
1.76035,13.3722,0.161808,-492.754,11.3684,0.300694,5.30868,0.00556526,-0.384447,0.0268318
1.76435,13.4178,0.163015,-492.733,11.3859,0.301523,5.29383,0.00543526,-0.382785,0.0268563
1.76835,13.4634,0.164224,-492.712,11.4033,0.302343,5.27887,0.00530541,-0.381119,0.0268799
1.77235,13.5091,0.165437,-492.691,11.4207,0.303155,5.2638,0.00517573,-0.37945,0.0269026
1.77635,13.5549,0.166653,-492.67,11.438,0.303957,5.2486,0.00504616,-0.377777,0.0269245
1.78035,13.6007,0.167872,-492.649,11.4552,0.304751,5.23329,0.00491672,-0.376101,0.0269456
1.78435,13.6466,0.169095,-492.628,11.4724,0.305535,5.21786,0.00478744,-0.374422,0.0269659
1.78835,13.6926,0.17032,-492.607,11.4895,0.30631,5.20232,0.00465826,-0.372738,0.0269853
1.79235,13.7386,0.171549,-492.586,11.5065,0.307076,5.18666,0.00452921,-0.371051,0.027004
1.79635,13.7847,0.17278,-492.566,11.5234,0.307832,5.17089,0.0044003,-0.369362,0.0270218
1.80035,13.8309,0.174015,-492.545,11.5403,0.308579,5.15501,0.00427149,-0.367668,0.0270389
1.80435,13.8771,0.175252,-492.524,11.5571,0.309317,5.13901,0.00414279,-0.365971,0.0270552
1.80835,13.9234,0.176493,-492.504,11.5738,0.310045,5.1229,0.0040142,-0.364271,0.0270707
1.81236,13.9698,0.177736,-492.483,11.5905,0.310764,5.10669,0.00388575,-0.362568,0.0270855
1.81636,14.0162,0.178982,-492.463,11.607,0.311473,5.09036,0.00375738,-0.360862,0.0270995
1.82036,14.0627,0.180231,-492.443,11.6235,0.312172,5.07392,0.00362911,-0.359152,0.0271128
1.82436,14.1093,0.181482,-492.423,11.6399,0.312862,5.05738,0.00350097,-0.35744,0.0271253
1.82836,14.1559,0.182737,-492.402,11.6563,0.313542,5.04073,0.0033729,-0.355724,0.0271371
1.83236,14.2026,0.183994,-492.382,11.6725,0.314212,5.02397,0.00324492,-0.354005,0.0271482
1.83636,14.2494,0.185254,-492.362,11.6887,0.314872,5.0071,0.00311704,-0.352284,0.0271586
1.84036,14.2962,0.186516,-492.342,11.7048,0.315522,4.99013,0.00298927,-0.350559,0.0271683
1.84436,14.3431,0.187781,-492.322,11.7208,0.316163,4.97305,0.00286157,-0.348832,0.0271773
1.84836,14.3901,0.189048,-492.303,11.7367,0.316793,4.95587,0.00273394,-0.347101,0.0271856
1.85236,14.4371,0.190318,-492.283,11.7526,0.317414,4.93859,0.00260644,-0.345369,0.0271933
1.85636,14.4842,0.19159,-492.263,11.7683,0.318024,4.9212,0.00247898,-0.343633,0.0272003
1.86036,14.5313,0.192865,-492.243,11.784,0.318625,4.90371,0.0023516,-0.341894,0.0272066
1.86436,14.5785,0.194142,-492.224,11.7996,0.319215,4.88612,0.00222433,-0.340153,0.0272123
1.86837,14.6258,0.195422,-492.204,11.8151,0.319795,4.86843,0.00209711,-0.338409,0.0272173
1.87237,14.6731,0.196703,-492.185,11.8306,0.320365,4.85064,0.00196996,-0.336662,0.0272217
1.87637,14.7205,0.197987,-492.166,11.8459,0.320925,4.83275,0.00184289,-0.334913,0.0272255
1.88037,14.7679,0.199273,-492.146,11.8611,0.321475,4.81476,0.00171592,-0.333162,0.0272286
1.88437,14.8155,0.200562,-492.127,11.8763,0.322014,4.79668,0.001589,-0.331408,0.0272312
1.88837,14.863,0.201852,-492.108,11.8914,0.322543,4.7785,0.00146214,-0.329651,0.0272331
1.89237,14.9107,0.203145,-492.089,11.9064,0.323062,4.76022,0.00133539,-0.327892,0.0272345
1.89637,14.9584,0.204439,-492.07,11.9213,0.323571,4.74185,0.00120867,-0.326131,0.0272352
1.90037,15.0061,0.205736,-492.051,11.9361,0.324069,4.72338,0.00108203,-0.324367,0.0272354
1.90437,15.0539,0.207034,-492.032,11.9508,0.324557,4.70482,0.000955452,-0.322601,0.0272349
1.90837,15.1018,0.208334,-492.014,11.9655,0.325034,4.68618,0.000828978,-0.320833,0.027234
1.91237,15.1497,0.209637,-491.995,11.98,0.325502,4.66743,0.000702543,-0.319063,0.0272324
1.91637,15.1977,0.210941,-491.976,11.9945,0.325958,4.6486,0.000576177,-0.31729,0.0272303
1.92037,15.2458,0.212247,-491.958,12.0088,0.326404,4.62967,0.000449914,-0.315516,0.0272276
1.92438,15.2939,0.213554,-491.939,12.0231,0.32684,4.61066,0.00032369,-0.313739,0.0272243
1.92838,15.342,0.214864,-491.921,12.0373,0.327266,4.59156,0.000197537,-0.31196,0.0272205
1.93238,15.3902,0.216175,-491.903,12.0513,0.327681,4.57237,7.14561e-05,-0.310179,0.0272162
1.93638,15.4385,0.217487,-491.885,12.0653,0.328086,4.55309,-5.45194e-05,-0.308396,0.0272113
1.94038,15.4868,0.218801,-491.866,12.0792,0.32848,4.53373,-0.000180453,-0.306611,0.0272059
1.94438,15.5352,0.220117,-491.848,12.093,0.328863,4.51428,-0.000306311,-0.304824,0.0272
1.94838,15.5836,0.221434,-491.83,12.1067,0.329236,4.49475,-0.000432061,-0.303036,0.0271935
1.95238,15.6321,0.222753,-491.812,12.1203,0.329599,4.47513,-0.000557765,-0.301245,0.0271864
1.95638,15.6807,0.224073,-491.795,12.1339,0.329951,4.45543,-0.00068339,-0.299453,0.0271789
1.96038,15.7293,0.225394,-491.777,12.1473,0.330293,4.43566,-0.000808903,-0.297659,0.0271708
1.96438,15.7779,0.226717,-491.759,12.1606,0.330624,4.4158,-0.000934366,-0.295863,0.0271622
1.96838,15.8266,0.228041,-491.742,12.1738,0.330944,4.39585,-0.00105975,-0.294066,0.0271531
1.97238,15.8754,0.229366,-491.724,12.1869,0.331254,4.37583,-0.00118504,-0.292266,0.0271435
1.97638,15.9242,0.230693,-491.707,12.2,0.331554,4.35573,-0.00131022,-0.290466,0.0271333
1.98039,15.9731,0.23202,-491.689,12.2129,0.331843,4.33555,-0.00143533,-0.288664,0.0271226
1.98439,16.022,0.233349,-491.672,12.2257,0.332121,4.3153,-0.00156036,-0.28686,0.0271114
1.98839,16.0709,0.234679,-491.655,12.2385,0.332389,4.29497,-0.00168527,-0.285055,0.0270997
1.99239,16.1199,0.236009,-491.638,12.2511,0.332646,4.27457,-0.00181011,-0.283248,0.0270875
1.99639,16.169,0.237341,-491.621,12.2636,0.332893,4.25409,-0.00193485,-0.28144,0.0270748
2.00039,16.2181,0.238674,-491.604,12.276,0.333129,4.23353,-0.0020595,-0.27963,0.0270615
2.00439,16.2673,0.240008,-491.587,12.2884,0.333355,4.21291,-0.00218401,-0.277819,0.0270477
2.00839,16.3165,0.241344,-491.57,12.3006,0.33357,4.19219,-0.00230858,-0.276005,0.0270334
2.01239,16.3658,0.242679,-491.554,12.3127,0.333774,4.17142,-0.00243292,-0.274191,0.0270186
2.0164,16.4151,0.244015,-491.537,12.3247,0.333968,4.15058,-0.00255715,-0.272377,0.0270032
2.0204,16.4645,0.245352,-491.52,12.3367,0.334151,4.12968,-0.00268124,-0.270561,0.0269874
2.0244,16.5139,0.246689,-491.504,12.3485,0.334324,4.1087,-0.00280525,-0.268744,0.026971
2.0284,16.5633,0.248027,-491.488,12.3602,0.334486,4.08766,-0.00292912,-0.266926,0.0269541
2.0324,16.6128,0.249366,-491.471,12.3718,0.334637,4.06656,-0.00305287,-0.265107,0.0269367
2.0364,16.6623,0.250705,-491.455,12.3833,0.334778,4.04539,-0.00317651,-0.263286,0.0269187
2.0404,16.7119,0.252045,-491.439,12.3947,0.334908,4.02415,-0.00330005,-0.261465,0.0269002
2.0444,16.7615,0.253385,-491.423,12.406,0.335027,4.00285,-0.00342345,-0.259643,0.0268812
2.0484,16.8112,0.254726,-491.407,12.4172,0.335136,3.98149,-0.00354672,-0.257819,0.0268616
2.0524,16.8609,0.256067,-491.391,12.4283,0.335235,3.96006,-0.00366989,-0.255995,0.0268416
2.0564,16.9107,0.257409,-491.376,12.4392,0.335322,3.93857,-0.00379294,-0.254169,0.0268209
2.0604,16.9605,0.25875,-491.36,12.4501,0.335399,3.91702,-0.00391583,-0.252344,0.0267998
2.0644,17.0104,0.260092,-491.344,12.4609,0.335466,3.89542,-0.00403862,-0.250516,0.0267781
2.0684,17.0603,0.261435,-491.329,12.4715,0.335521,3.87375,-0.00416127,-0.248688,0.0267558
2.0724,17.1102,0.262777,-491.313,12.4821,0.335567,3.85203,-0.00428377,-0.24686,0.0267331
2.0764,17.1602,0.26412,-491.298,12.4925,0.335601,3.83025,-0.00440615,-0.245031,0.0267097
2.0804,17.2102,0.265463,-491.283,12.5029,0.335625,3.80841,-0.0045284,-0.243201,0.0266858
2.0844,17.2602,0.266805,-491.268,12.5131,0.335638,3.78652,-0.00465047,-0.241371,0.0266614
2.0884,17.3104,0.268148,-491.253,12.5232,0.33564,3.76457,-0.00477244,-0.239539,0.0266364
2.0924,17.3605,0.269491,-491.238,12.5332,0.335632,3.74258,-0.00489423,-0.237708,0.0266109
2.0964,17.4107,0.270833,-491.223,12.5431,0.335613,3.72053,-0.00501588,-0.235876,0.0265848
2.1004,17.4609,0.272175,-491.208,12.5529,0.335584,3.69844,-0.00513739,-0.234043,0.0265581
2.10441,17.5111,0.273518,-491.193,12.5626,0.335544,3.67628,-0.00525877,-0.23221,0.0265309
2.10841,17.5614,0.27486,-491.179,12.5722,0.335493,3.65409,-0.00537998,-0.230377,0.0265031
2.11241,17.6117,0.276202,-491.164,12.5816,0.335431,3.63184,-0.00550104,-0.228543,0.0264747
2.11641,17.6621,0.277543,-491.15,12.591,0.335359,3.60954,-0.00562198,-0.226708,0.0264458
2.12041,17.7125,0.278885,-491.135,12.6003,0.335276,3.5872,-0.00574277,-0.224874,0.0264163
2.12441,17.763,0.280226,-491.121,12.6094,0.335183,3.56481,-0.00586338,-0.223039,0.0263862
2.12841,17.8135,0.281566,-491.107,12.6184,0.335078,3.54238,-0.00598386,-0.221203,0.0263555
2.13241,17.864,0.282906,-491.093,12.6273,0.334963,3.5199,-0.00610419,-0.219368,0.0263243
2.13641,17.9145,0.284246,-491.079,12.6361,0.334838,3.49738,-0.00622433,-0.217532,0.0262925
2.14041,17.9651,0.285585,-491.065,12.6448,0.334701,3.47482,-0.00634435,-0.215696,0.0262601
2.14441,18.0157,0.286923,-491.051,12.6534,0.334554,3.45222,-0.00646418,-0.21386,0.0262271
2.14841,18.0664,0.288261,-491.037,12.6619,0.334396,3.42957,-0.00658386,-0.212025,0.0261935
2.15241,18.1171,0.289598,-491.024,12.6702,0.334228,3.4069,-0.00670338,-0.210189,0.0261594
2.15641,18.1678,0.290934,-491.01,12.6785,0.334049,3.38417,-0.00682277,-0.208352,0.0261246
2.16041,18.2185,0.29227,-490.997,12.6866,0.333859,3.36142,-0.00694198,-0.206516,0.0260893
2.16441,18.2693,0.293604,-490.983,12.6946,0.333659,3.33862,-0.00706102,-0.204681,0.0260534
2.16841,18.3201,0.294938,-490.97,12.7026,0.333447,3.3158,-0.00717991,-0.202845,0.0260169
2.17241,18.371,0.296271,-490.957,12.7104,0.333225,3.29293,-0.00729867,-0.201009,0.0259798
2.17641,18.4219,0.297603,-490.944,12.7181,0.332993,3.27003,-0.00741724,-0.199173,0.0259421
2.18041,18.4728,0.298934,-490.931,12.7256,0.332749,3.2471,-0.00753565,-0.197338,0.0259038
2.18441,18.5237,0.300265,-490.918,12.7331,0.332495,3.22414,-0.00765393,-0.195502,0.025865
2.18841,18.5747,0.301594,-490.905,12.7404,0.332231,3.20114,-0.00777206,-0.193667,0.0258255
2.19241,18.6257,0.302922,-490.892,12.7477,0.331955,3.17812,-0.00788999,-0.191832,0.0257854
2.19642,18.6767,0.304249,-490.88,12.7548,0.331669,3.15506,-0.0080078,-0.189997,0.0257448
2.20042,18.7278,0.305574,-490.867,12.7618,0.331373,3.13198,-0.00812545,-0.188163,0.0257035
2.20442,18.7788,0.306899,-490.855,12.7687,0.331065,3.10887,-0.00824291,-0.186329,0.0256617
2.20842,18.8299,0.308222,-490.842,12.7755,0.330747,3.08573,-0.00836024,-0.184496,0.0256192
2.21242,18.8811,0.309544,-490.83,12.7822,0.330419,3.06257,-0.00847739,-0.182663,0.0255762
2.21642,18.9322,0.310864,-490.818,12.7887,0.33008,3.03939,-0.00859438,-0.18083,0.0255326
2.22042,18.9834,0.312183,-490.806,12.7952,0.32973,3.01618,-0.00871121,-0.178999,0.0254884
2.22442,19.0346,0.313501,-490.794,12.8015,0.329369,2.99294,-0.00882792,-0.177167,0.0254436
2.22842,19.0859,0.314817,-490.782,12.8077,0.328998,2.96969,-0.00894444,-0.175336,0.0253982
2.23242,19.1371,0.316131,-490.77,12.8138,0.328617,2.94642,-0.00906081,-0.173506,0.0253522
2.23642,19.1884,0.317444,-490.759,12.8198,0.328224,2.92312,-0.00917705,-0.171676,0.0253056
2.24042,19.2397,0.318756,-490.747,12.8257,0.327822,2.8998,-0.00929313,-0.169847,0.0252584
2.24442,19.291,0.320066,-490.736,12.8315,0.327408,2.87647,-0.00940904,-0.168019,0.0252107
2.24842,19.3424,0.321374,-490.724,12.8371,0.326984,2.85312,-0.00952482,-0.166191,0.0251623
2.25242,19.3938,0.32268,-490.713,12.8427,0.32655,2.82975,-0.00964045,-0.164364,0.0251134
2.25642,19.4452,0.323985,-490.702,12.8481,0.326105,2.80637,-0.00975589,-0.162538,0.0250639
2.26043,19.4967,0.325289,-490.691,12.8534,0.325649,2.78295,-0.0098713,-0.160711,0.0250138
2.26443,19.5481,0.32659,-490.679,12.8586,0.325183,2.75954,-0.00998647,-0.158886,0.0249631
2.26843,19.5996,0.327889,-490.669,12.8637,0.324707,2.73612,-0.0101015,-0.157063,0.0249119
2.27243,19.651,0.329186,-490.658,12.8687,0.32422,2.71268,-0.0102163,-0.15524,0.0248601
2.27643,19.7025,0.33048,-490.647,12.8735,0.323723,2.68924,-0.010331,-0.153419,0.0248077
2.28043,19.754,0.331774,-490.636,12.8783,0.323215,2.66578,-0.0104456,-0.151598,0.0247547
2.28443,19.8056,0.333064,-490.626,12.8829,0.322697,2.64231,-0.01056,-0.149778,0.0247012
2.28843,19.8571,0.334353,-490.615,12.8874,0.322168,2.61884,-0.0106742,-0.14796,0.0246471
2.29243,19.9087,0.33564,-490.605,12.8918,0.32163,2.59536,-0.0107883,-0.146142,0.0245925
2.29643,19.9603,0.336924,-490.595,12.8961,0.321081,2.57187,-0.0109023,-0.144325,0.0245372
2.30043,20.0119,0.338206,-490.584,12.9003,0.320522,2.54838,-0.0110161,-0.14251,0.0244815
2.30443,20.0635,0.339486,-490.574,12.9043,0.319952,2.52488,-0.0111298,-0.140696,0.0244252
2.30843,20.1152,0.340764,-490.564,12.9083,0.319372,2.50138,-0.0112434,-0.138883,0.0243682
2.31243,20.1668,0.342039,-490.554,12.9121,0.318782,2.47787,-0.0113568,-0.13707,0.0243108
2.31643,20.2185,0.343312,-490.545,12.9159,0.318182,2.45436,-0.01147,-0.13526,0.0242528
2.32043,20.2702,0.344583,-490.535,12.9195,0.317571,2.43085,-0.0115831,-0.13345,0.0241943
2.32443,20.3219,0.345851,-490.525,12.923,0.316951,2.40733,-0.0116961,-0.131642,0.0241352
2.32843,20.3736,0.347116,-490.516,12.9264,0.31632,2.38382,-0.0118089,-0.129836,0.0240756
2.33243,20.4253,0.348379,-490.506,12.9296,0.31568,2.36031,-0.0119216,-0.12803,0.0240154
2.33643,20.477,0.349639,-490.497,12.9328,0.315029,2.33681,-0.0120342,-0.126226,0.0239547
2.34043,20.5288,0.350897,-490.488,12.9359,0.314369,2.31331,-0.0121466,-0.124424,0.0238935
2.34443,20.5805,0.352152,-490.478,12.9388,0.313698,2.28981,-0.0122588,-0.122623,0.0238317
2.34844,20.6323,0.353404,-490.469,12.9416,0.313017,2.26631,-0.0123709,-0.120823,0.0237694
2.35244,20.6841,0.354653,-490.46,12.9443,0.312327,2.24282,-0.0124829,-0.119025,0.0237066
2.35644,20.7359,0.3559,-490.452,12.9469,0.311627,2.21934,-0.0125947,-0.117229,0.0236433
2.36044,20.7877,0.357144,-490.443,12.9494,0.310917,2.19586,-0.0127065,-0.115433,0.0235794
2.36444,20.8395,0.358385,-490.434,12.9518,0.310197,2.17239,-0.012818,-0.11364,0.023515
2.36844,20.8913,0.359623,-490.425,12.9541,0.309467,2.14893,-0.0129295,-0.111848,0.0234501
2.37244,20.9432,0.360858,-490.417,12.9563,0.308728,2.12548,-0.0130408,-0.110058,0.0233847
2.37644,20.995,0.36209,-490.409,12.9583,0.307979,2.10204,-0.0131519,-0.108269,0.0233187
2.38044,21.0469,0.363319,-490.4,12.9602,0.30722,2.07861,-0.0132629,-0.106482,0.0232523
2.38444,21.0987,0.364545,-490.392,12.9621,0.306452,2.0552,-0.0133738,-0.104697,0.0231854
2.38844,21.1506,0.365768,-490.384,12.9638,0.305674,2.0318,-0.0134845,-0.102914,0.023118
2.39244,21.2024,0.366987,-490.376,12.9654,0.304887,2.00841,-0.0135951,-0.101133,0.02305
2.39644,21.2543,0.368204,-490.368,12.9669,0.304091,1.98504,-0.0137056,-0.0993535,0.0229816
2.40044,21.3062,0.369417,-490.36,12.9683,0.303284,1.96168,-0.0138159,-0.0975755,0.0229127
2.40444,21.3581,0.370627,-490.352,12.9696,0.302469,1.93834,-0.0139261,-0.0957998,0.0228433
2.40844,21.41,0.371834,-490.345,12.9707,0.301644,1.91502,-0.0140361,-0.094026,0.0227734
2.41244,21.4618,0.373037,-490.337,12.9718,0.30081,1.89172,-0.014146,-0.0922542,0.022703
2.41644,21.5137,0.374237,-490.33,12.9727,0.299967,1.86842,-0.0142558,-0.0904839,0.0226321
2.42044,21.5656,0.375433,-490.322,12.9736,0.299114,1.84516,-0.0143654,-0.088716,0.0225607
2.42444,21.6175,0.376626,-490.315,12.9743,0.298253,1.82192,-0.0144749,-0.0869501,0.0224889
2.42844,21.6695,0.377816,-490.308,12.9749,0.297382,1.79869,-0.0145842,-0.0851858,0.0224166
2.43244,21.7214,0.379003,-490.301,12.9755,0.296502,1.77548,-0.0146935,-0.0834237,0.0223437
2.43644,21.7733,0.380185,-490.294,12.9759,0.295613,1.7523,-0.0148025,-0.081664,0.0222705
2.44045,21.8252,0.381364,-490.287,12.9762,0.294715,1.72914,-0.0149115,-0.0799061,0.0221967
2.44445,21.8771,0.382539,-490.28,12.9764,0.293809,1.70601,-0.0150203,-0.0781507,0.0221225
2.44845,21.929,0.383711,-490.273,12.9765,0.292893,1.6829,-0.0151289,-0.0763975,0.0220478
2.45245,21.9809,0.384879,-490.266,12.9764,0.291969,1.65982,-0.0152374,-0.0746466,0.0219727
2.45645,22.0328,0.386043,-490.26,12.9763,0.291036,1.63677,-0.0153458,-0.0728975,0.0218971
2.46045,22.0847,0.387204,-490.253,12.9761,0.290094,1.61374,-0.015454,-0.071151,0.021821
2.46445,22.1366,0.38836,-490.247,12.9757,0.289143,1.59074,-0.0155621,-0.0694069,0.0217445
2.46845,22.1885,0.389513,-490.241,12.9753,0.288184,1.56778,-0.01567,-0.067665,0.0216675
2.47245,22.2404,0.390662,-490.235,12.9748,0.287217,1.54483,-0.0157779,-0.0659251,0.02159
2.47645,22.2923,0.391807,-490.229,12.9741,0.28624,1.52192,-0.0158855,-0.064188,0.0215121
2.48045,22.3442,0.392948,-490.223,12.9734,0.285256,1.49905,-0.015993,-0.0624533,0.0214337
2.48445,22.3961,0.394085,-490.217,12.9725,0.284262,1.4762,-0.0161004,-0.0607206,0.0213549
2.48845,22.448,0.395219,-490.211,12.9715,0.283261,1.45338,-0.0162077,-0.0589903,0.0212756
2.49245,22.4999,0.396348,-490.205,12.9705,0.282251,1.4306,-0.0163148,-0.057263,0.0211959
2.49645,22.5518,0.397473,-490.199,12.9693,0.281233,1.40785,-0.0164217,-0.0555377,0.0211157
2.50045,22.6037,0.398594,-490.194,12.968,0.280207,1.38514,-0.0165286,-0.053815,0.0210351
2.50445,22.6556,0.399711,-490.188,12.9667,0.279172,1.36247,-0.0166352,-0.0520952,0.020954
2.50845,22.7074,0.400824,-490.183,12.9652,0.27813,1.33982,-0.0167417,-0.0503776,0.0208725
2.51245,22.7593,0.401932,-490.178,12.9636,0.277079,1.31722,-0.0168481,-0.0486631,0.0207906
2.51645,22.8111,0.403036,-490.173,12.9619,0.276021,1.29466,-0.0169543,-0.0469512,0.0207082
2.52045,22.863,0.404136,-490.167,12.9601,0.274955,1.27214,-0.0170604,-0.045242,0.0206254
2.52445,22.9148,0.405232,-490.162,12.9583,0.27388,1.24965,-0.0171663,-0.043535,0.0205421
2.52845,22.9666,0.406323,-490.158,12.9563,0.272798,1.22721,-0.0172721,-0.0418312,0.0204584
2.53245,23.0185,0.40741,-490.153,12.9542,0.271708,1.20481,-0.0173777,-0.0401301,0.0203742
2.53645,23.0703,0.408492,-490.148,12.952,0.27061,1.18244,-0.0174832,-0.0384314,0.0202896
2.54046,23.1221,0.409571,-490.143,12.9497,0.269505,1.16012,-0.0175885,-0.0367354,0.0202046
2.54446,23.1739,0.410644,-490.139,12.9473,0.268392,1.13784,-0.0176937,-0.0350427,0.0201191
2.54846,23.2257,0.411714,-490.134,12.9449,0.267271,1.1156,-0.0177987,-0.0333525,0.0200332
2.55246,23.2775,0.412778,-490.13,12.9423,0.266143,1.09341,-0.0179036,-0.0316651,0.0199469
2.55646,23.3292,0.413838,-490.126,12.9396,0.265008,1.07126,-0.0180083,-0.029981,0.0198601
2.56046,23.381,0.414894,-490.121,12.9368,0.263865,1.04916,-0.0181129,-0.0282994,0.019773
2.56446,23.4327,0.415945,-490.117,12.934,0.262715,1.02711,-0.0182173,-0.0266212,0.0196853
2.56846,23.4844,0.416991,-490.113,12.931,0.261557,1.0051,-0.0183216,-0.024946,0.0195973
2.57246,23.5361,0.418033,-490.109,12.9279,0.260393,0.983147,-0.0184257,-0.0232738,0.0195088
2.57646,23.5879,0.41907,-490.106,12.9248,0.259221,0.961233,-0.0185297,-0.0216042,0.0194199
2.58046,23.6395,0.420102,-490.102,12.9215,0.258042,0.939373,-0.0186335,-0.019938,0.0193306
2.58446,23.6912,0.42113,-490.098,12.9182,0.256856,0.917562,-0.0187371,-0.018275,0.0192409
2.58846,23.7429,0.422152,-490.095,12.9147,0.255663,0.895802,-0.0188406,-0.016615,0.0191507
2.59246,23.7945,0.42317,-490.091,12.9112,0.254463,0.874087,-0.0189439,-0.0149577,0.0190601
2.59646,23.8462,0.424183,-490.088,12.9075,0.253256,0.852429,-0.0190471,-0.013304,0.0189691
