t,x,y,z,vx,vy,vz,roll,pitch,yaw
0,0,0,-100,10,0,0,0,0,0
0.004001,0,0,-100,10,0,0,0,0,0
0.008002,0.0400016,0,-100,9.9979,0,-0.0176761,0,-0.00115668,0
0.012002,0.0799846,0,-100,9.99575,0,-0.0316601,0,-0.00340332,0
0.016003,0.119969,0,-100,9.99359,0,-0.041136,0,-0.0066608,0
0.020004,0.159945,0,-100.001,9.99142,0,-0.0454696,0,-0.0108368,0
0.024004,0.199902,0,-100.001,9.98928,0,-0.0442158,0,-0.0158301,0
0.028005,0.23986,0,-100.001,9.98716,0,-0.0366354,0,-0.0215692,0
0.032006,0.279811,0,-100.001,9.98508,0,-0.0224414,0,-0.0279879,0
0.036007,0.319753,0,-100.001,9.98301,0,-0.00163455,0,-0.0350217,0
0.040008,0.359686,0,-100.001,9.98094,0,0.0264646,0,-0.0425935,0
0.044009,0.399612,0,-100.001,9.9788,0,0.0632313,0,-0.0506014,0
0.048009,0.439518,0,-100,9.97656,0,0.107837,0,-0.0589506,0
0.052009,0.479414,0,-99.9995,9.97415,0,0.159458,0,-0.0675604,0
0.05601,0.51931,0,-99.9987,9.9715,0,0.21703,0,-0.0763621,0
0.06001,0.559185,0,-99.9976,9.96853,0,0.279019,0,-0.0852969,0
0.064011,0.599055,0,-99.9962,9.96521,0,0.344981,0,-0.0943201,0
0.068012,0.638911,0,-99.9945,9.9615,0,0.414428,0,-0.103387,0
0.072013,0.678751,0,-99.9926,9.95737,0,0.486893,0,-0.112459,0
0.076014,0.718572,0,-99.9903,9.9528,0,0.561926,0,-0.121504,0
0.080014,0.758363,0,-99.9878,9.94779,0,0.639077,0,-0.130494,0
0.084015,0.798142,0,-99.9849,9.94233,0,0.717981,0,-0.139412,0
0.088015,0.837888,0,-99.9817,9.93642,0,0.798225,0,-0.148235,0
0.092016,0.877618,0,-99.9782,9.93006,0,0.879507,0,-0.156955,0
0.096016,0.917321,0,-99.9743,9.92329,0,0.961361,0,-0.165567,0
0.100017,0.956986,0,-99.9702,9.91612,0,1.04353,0,-0.174069,0
0.104017,0.99662,0,-99.9657,9.90856,0,1.12589,0,-0.182464,0
0.108017,1.03622,0,-99.9608,9.90063,0,1.20828,0,-0.190751,0
0.112018,1.0758,0,-99.9557,9.89235,0,1.29061,0,-0.198932,0
0.116018,1.11534,0,-99.9502,9.88374,0,1.37273,0,-0.207004,0
0.120019,1.15485,0,-99.9443,9.87481,0,1.45458,0,-0.21497,0
0.124019,1.19431,0,-99.9382,9.86559,0,1.53603,0,-0.222827,0
0.128019,1.23373,0,-99.9317,9.85611,0,1.61702,0,-0.230576,0
0.13202,1.27313,0,-99.9249,9.8464,0,1.69737,0,-0.238228,0
0.136021,1.31248,0,-99.9178,9.83648,0,1.77701,0,-0.245787,0
0.140021,1.35179,0,-99.9104,9.82637,0,1.8559,0,-0.253262,0
0.144022,1.39106,0,-99.9027,9.81609,0,1.93407,0,-0.260665,0
0.148022,1.43029,0,-99.8946,9.80565,0,2.01149,0,-0.267999,0
0.152023,1.46948,0,-99.8863,9.79506,0,2.08822,0,-0.275278,0
0.156023,1.50861,0,-99.8776,9.78432,0,2.16424,0,-0.282507,0
0.160024,1.54772,0,-99.8686,9.77344,0,2.23964,0,-0.289695,0
0.164024,1.58677,0,-99.8594,9.76242,0,2.31441,0,-0.296846,0
0.168025,1.62578,0,-99.8498,9.75126,0,2.38864,0,-0.303972,0
0.172025,1.66474,0,-99.84,9.73995,0,2.46234,0,-0.311074,0
0.176026,1.70366,0,-99.8298,9.72848,0,2.5356,0,-0.318161,0
0.180026,1.74253,0,-99.8194,9.71686,0,2.60843,0,-0.325234,0
0.184027,1.78136,0,-99.8087,9.70507,0,2.68092,0,-0.332301,0
0.188027,1.82013,0,-99.7977,9.6931,0,2.75309,0,-0.339362,0
0.192028,1.85887,0,-99.7864,9.68095,0,2.82501,0,-0.346424,0
0.196028,1.89754,0,-99.7748,9.6686,0,2.89669,0,-0.353484,0
0.200029,1.93618,0,-99.7629,9.65604,0,2.96821,0,-0.36055,0
0.204029,1.97475,0,-99.7507,9.64327,0,3.03958,0,-0.367617,0
0.20803,2.01328,0,-99.7383,9.63027,0,3.11086,0,-0.374692,0
0.21203,2.05175,0,-99.7256,9.61704,0,3.18204,0,-0.38177,0
0.216031,2.09017,0,-99.7125,9.60356,0,3.2532,0,-0.388857,0
0.220031,2.12853,0,-99.6992,9.58982,0,3.3243,0,-0.395947,0
0.224032,2.16684,0,-99.6857,9.57582,0,3.39542,0,-0.403044,0
0.228032,2.20509,0,-99.6718,9.56155,0,3.46654,0,-0.410145,0
0.232033,2.24329,0,-99.6576,9.547,0,3.53769,0,-0.417251,0
0.236033,2.28142,0,-99.6432,9.53217,0,3.60886,0,-0.424359,0
0.240034,2.31949,0,-99.6285,9.51704,0,3.68008,0,-0.431471,0
0.244034,2.3575,0,-99.6135,9.50163,0,3.75134,0,-0.438582,0
0.248035,2.39545,0,-99.5982,9.48592,0,3.82266,0,-0.445695,0
0.252035,2.43333,0,-99.5826,9.46991,0,3.89401,0,-0.452805,0
0.256036,2.47116,0,-99.5667,9.4536,0,3.96542,0,-0.459915,0
0.260036,2.50891,0,-99.5506,9.43698,0,4.03687,0,-0.467019,0
0.264037,2.5466,0,-99.5341,9.42006,0,4.10837,0,-0.474121,0
0.268037,2.58421,0,-99.5174,9.40284,0,4.17989,0,-0.481216,0
0.272038,2.62176,0,-99.5004,9.38531,0,4.25147,0,-0.488305,0
0.276038,2.65923,0,-99.4831,9.36747,0,4.32305,0,-0.495386,0
0.280039,2.69663,0,-99.4655,9.34933,0,4.39467,0,-0.50246,0
0.284039,2.73396,0,-99.4477,9.33089,0,4.46629,0,-0.509524,0
0.28804,2.77121,0,-99.4295,9.31214,0,4.53794,0,-0.516579,0
0.29204,2.80839,0,-99.4111,9.29309,0,4.60957,0,-0.523623,0
0.296041,2.84549,0,-99.3923,9.27374,0,4.68121,0,-0.530657,0
0.300041,2.88251,0,-99.3733,9.2541,0,4.75283,0,-0.537678,0
0.304042,2.91945,0,-99.354,9.23414,0,4.82444,0,-0.544688,0
0.308042,2.95632,0,-99.3344,9.2139,0,4.89604,0,-0.551687,0
0.312043,2.99309,0,-99.3146,9.19336,0,4.96759,0,-0.558671,0
0.316043,3.02978,0,-99.2944,9.17252,0,5.03911,0,-0.565643,0
0.320043,3.06639,0,-99.274,9.15139,0,5.1106,0,-0.572602,0
0.324044,3.10292,0,-99.2532,9.12996,0,5.18207,0,-0.579549,0
0.328044,3.13935,0,-99.2322,9.10824,0,5.25347,0,-0.586481,0
0.332045,3.1757,0,-99.2109,9.08622,0,5.32485,0,-0.593402,0
0.336045,3.21196,0,-99.1893,9.06392,0,5.39616,0,-0.600308,0
0.340046,3.24813,0,-99.1675,9.04131,0,5.46744,0,-0.607202,0
0.344046,3.28421,0,-99.1453,9.01842,0,5.53865,0,-0.614081,0
0.348047,3.3202,0,-99.1229,8.99523,0,5.60982,0,-0.620948,0
0.352047,3.35608,0,-99.1001,8.97175,0,5.68092,0,-0.627801,0
0.356048,3.39188,0,-99.0771,8.94797,0,5.75197,0,-0.634641,0
0.360048,3.42758,0,-99.0538,8.9239,0,5.82295,0,-0.641467,0
0.364049,3.46319,0,-99.0303,8.89952,0,5.89389,0,-0.648281,0
0.36805,3.4987,0,-99.0064,8.87485,0,5.96477,0,-0.655082,0
0.37205,3.5341,0,-98.9823,8.84989,0,6.03557,0,-0.661868,0
0.37605,3.56939,0,-98.9578,8.82463,0,6.1063,0,-0.668642,0
0.380051,3.6046,0,-98.9331,8.79906,0,6.17699,0,-0.675403,0
0.384051,3.63969,0,-98.9081,8.7732,0,6.2476,0,-0.682151,0
0.388052,3.67469,0,-98.8829,8.74702,0,6.31817,0,-0.688886,0
0.392052,3.70957,0,-98.8573,8.72055,0,6.38865,0,-0.695607,0
0.396053,3.74435,0,-98.8315,8.69377,0,6.45908,0,-0.702317,0
0.400053,3.77902,0,-98.8053,8.66669,0,6.52944,0,-0.709012,0
0.404054,3.81359,0,-98.7789,8.63929,0,6.59974,0,-0.715696,0
0.408054,3.84803,0,-98.7523,8.61159,0,6.66995,0,-0.722365,0
0.412055,3.88238,0,-98.7253,8.58357,0,6.74012,0,-0.729023,0
0.416055,3.9166,0,-98.698,8.55524,0,6.8102,0,-0.735666,0
0.420056,3.95071,0,-98.6705,8.5266,0,6.88022,0,-0.742298,0
0.424056,3.9847,0,-98.6427,8.49764,0,6.95016,0,-0.748916,0
0.428057,4.01858,0,-98.6146,8.46837,0,7.02004,0,-0.755522,0
0.432057,4.05234,0,-98.5863,8.43878,0,7.08984,0,-0.762114,0
0.436058,4.08598,0,-98.5576,8.40887,0,7.15957,0,-0.768694,0
0.440058,4.1195,0,-98.5287,8.37865,0,7.22921,0,-0.775259,0
0.444059,4.1529,0,-98.4995,8.3481,0,7.2988,0,-0.781813,0
0.448059,4.18617,0,-98.47,8.31723,0,7.36828,0,-0.788352,0
0.45206,4.21932,0,-98.4403,8.28603,0,7.43771,0,-0.79488,0
0.45606,4.25234,0,-98.4102,8.25452,0,7.50703,0,-0.801394,0
0.460061,4.28524,0,-98.3799,8.22268,0,7.57629,0,-0.807896,0
0.464061,4.318,0,-98.3494,8.19052,0,7.64545,0,-0.814383,0
0.468062,4.35064,0,-98.3185,8.15802,0,7.71454,0,-0.820859,0
0.472062,4.38314,0,-98.2874,8.1252,0,7.78353,0,-0.827319,0
0.476063,4.41552,0,-98.2559,8.09205,0,7.85244,0,-0.833769,0
0.480063,4.44775,0,-98.2243,8.05858,0,7.92125,0,-0.840204,0
0.484064,4.47986,0,-98.1923,8.02477,0,7.98998,0,-0.846628,0
0.488064,4.51182,0,-98.16,7.99063,0,8.0586,0,-0.853037,0
0.492065,4.54365,0,-98.1275,7.95616,0,8.12715,0,-0.859434,0
0.496065,4.57534,0,-98.0947,7.92136,0,8.19557,0,-0.865817,0
0.500066,4.60689,0,-98.0617,7.88621,0,8.26392,0,-0.872189,0
0.504067,4.6383,0,-98.0283,7.85074,0,8.33217,0,-0.878548,0
0.508067,4.66956,0,-97.9947,7.81493,0,8.40029,0,-0.884892,0
0.512067,4.70068,0,-97.9609,7.77879,0,8.46832,0,-0.891224,0
0.516068,4.73165,0,-97.9267,7.7423,0,8.53625,0,-0.897544,0
0.520069,4.76248,0,-97.8923,7.70548,0,8.60408,0,-0.903851,0
0.524069,4.79316,0,-97.8576,7.66833,0,8.67178,0,-0.910145,0
0.528069,4.82368,0,-97.8226,7.63083,0,8.73937,0,-0.916425,0
0.532069,4.85405,0,-97.7874,7.593,0,8.80684,0,-0.922693,0
0.53607,4.88428,0,-97.7519,7.55481,0,8.87422,0,-0.92895,0
0.540071,4.91435,0,-97.7161,7.51628,0,8.94148,0,-0.935194,0
0.544071,4.94426,0,-97.6801,7.47742,0,9.00861,0,-0.941425,0
0.548071,4.97401,0,-97.6438,7.43821,0,9.07561,0,-0.947643,0
0.552072,5.00362,0,-97.6072,7.39865,0,9.14251,0,-0.95385,0
0.556073,5.03306,0,-97.5704,7.35874,0,9.20928,0,-0.960045,0
0.560073,5.06233,0,-97.5333,7.31849,0,9.27592,0,-0.966227,0
0.564073,5.09144,0,-97.4959,7.2779,0,9.34242,0,-0.972396,0
0.568074,5.1204,0,-97.4583,7.23695,0,9.40881,0,-0.978555,0
0.572075,5.14919,0,-97.4203,7.19565,0,9.47507,0,-0.984702,0
0.576075,5.1778,0,-97.3822,7.15401,0,9.54118,0,-0.990835,0
0.580075,5.20625,0,-97.3438,7.11201,0,9.60716,0,-0.996957,0
0.584076,5.23454,0,-97.305,7.06966,0,9.67301,0,-1.00307,0
0.588077,5.26265,0,-97.2661,7.02695,0,9.73872,0,-1.00917,0
0.592077,5.29059,0,-97.2269,6.9839,0,9.80427,0,-1.01525,0
0.596077,5.31835,0,-97.1874,6.9405,0,9.86968,0,-1.02133,0
0.600078,5.34594,0,-97.1476,6.89672,0,9.93496,0,-1.02739,0
0.604079,5.37336,0,-97.1076,6.85259,0,10.0001,0,-1.03345,0
0.608079,5.40059,0,-97.0674,6.80812,0,10.0651,0,-1.03949,0
0.612079,5.42765,0,-97.0268,6.76329,0,10.1299,0,-1.04552,0
0.61608,5.45453,0,-96.9861,6.71809,0,10.1945,0,-1.05154,0
0.620081,5.48122,0,-96.945,6.67253,0,10.2591,0,-1.05755,0
0.624081,5.50773,0,-96.9037,6.62662,0,10.3234,0,-1.06354,0
0.628081,5.53405,0,-96.8622,6.58035,0,10.3876,0,-1.06953,0
0.632082,5.56019,0,-96.8204,6.5337,0,10.4516,0,-1.07551,0
0.636083,5.58614,0,-96.7783,6.4867,0,10.5155,0,-1.08147,0
0.640083,5.6119,0,-96.736,6.43934,0,10.5792,0,-1.08742,0
0.644083,5.63747,0,-96.6934,6.39162,0,10.6427,0,-1.09337,0
0.648084,5.66285,0,-96.6506,6.34353,0,10.706,0,-1.0993,0
0.652086,5.68804,0,-96.6075,6.29506,0,10.7692,0,-1.10523,0
0.656086,5.71303,0,-96.5641,6.24624,0,10.8322,0,-1.11114,0
0.660087,5.73782,0,-96.5205,6.19705,0,10.895,0,-1.11704,0
0.664088,5.76242,0,-96.4767,6.14749,0,10.9577,0,-1.12293,0
0.668088,5.78681,0,-96.4326,6.09758,0,11.0201,0,-1.12882,0
0.672088,5.811,0,-96.3883,6.04729,0,11.0824,0,-1.13469,0
0.676094,5.83502,0,-96.3436,5.99657,0,11.1445,0,-1.14056,0
0.680094,5.8588,0,-96.2988,5.94555,0,11.2064,0,-1.14641,0
0.684094,5.88238,0,-96.2537,5.89416,0,11.2681,0,-1.15225,0
0.688094,5.90575,0,-96.2084,5.84241,0,11.3295,0,-1.15808,0
0.692095,5.92891,0,-96.1628,5.79027,0,11.3908,0,-1.16391,0
0.696096,5.95187,0,-96.117,5.73775,0,11.4519,0,-1.16972,0
0.700096,5.97461,0,-96.071,5.68488,0,11.5128,0,-1.17553,0
0.704096,5.99714,0,-96.0247,5.63164,0,11.5735,0,-1.18132,0
0.708096,6.01945,0,-95.9781,5.57803,0,11.634,0,-1.18711,0
0.712097,6.04155,0,-95.9314,5.52402,0,11.6942,0,-1.19289,0
0.716098,6.06343,0,-95.8843,5.46965,0,11.7543,0,-1.19866,0
0.720098,6.08509,0,-95.8371,5.41491,0,11.8141,0,-1.20442,0
0.724098,6.10653,0,-95.7896,5.3598,0,11.8737,0,-1.21017,0
0.728099,6.12776,0,-95.7418,5.30431,0,11.9331,0,-1.21591,0
0.7321,6.14876,0,-95.6938,5.24843,0,11.9922,0,-1.22165,0
0.7361,6.16952,0,-95.6456,5.1922,0,12.0511,0,-1.22738,0
0.7401,6.19007,0,-95.5972,5.13559,0,12.1098,0,-1.23309,0
0.744101,6.21039,0,-95.5485,5.07859,0,12.1683,0,-1.2388,0
0.748102,6.23048,0,-95.4996,5.02122,0,12.2265,0,-1.24451,0
0.752102,6.25033,0,-95.4505,4.96348,0,12.2845,0,-1.2502,0
0.756102,6.26995,0,-95.4011,4.90536,0,12.3422,0,-1.25588,0
0.760103,6.28934,0,-95.3515,4.84686,0,12.3997,0,-1.26156,0
0.764104,6.3085,0,-95.3016,4.78798,0,12.457,0,-1.26723,0
0.768104,6.32742,0,-95.2516,4.72874,0,12.514,0,-1.2729,0
0.772104,6.34609,0,-95.2013,4.66912,0,12.5707,0,-1.27855,0
0.776105,6.36453,0,-95.1508,4.60911,0,12.6272,0,-1.2842,0
0.780106,6.38273,0,-95.1,4.54872,0,12.6834,0,-1.28984,0
0.784106,6.40068,0,-95.0491,4.48797,0,12.7394,0,-1.29547,0
0.788106,6.41839,0,-94.9979,4.42684,0,12.7951,0,-1.3011,0
0.792107,6.43586,0,-94.9465,4.36532,0,12.8505,0,-1.30672,0
0.796108,6.45308,0,-94.8948,4.30342,0,12.9057,0,-1.31233,0
0.800108,6.47004,0,-94.843,4.24116,0,12.9606,0,-1.31793,0
0.804108,6.48675,0,-94.7909,4.17853,0,13.0152,0,-1.32353,0
0.808109,6.50322,0,-94.7386,4.1155,0,13.0695,0,-1.32912,0
0.81211,6.51943,0,-94.6861,4.05209,0,13.1236,0,-1.33471,0
0.81611,6.53539,0,-94.6334,3.98833,0,13.1773,0,-1.34029,0
0.82011,6.55108,0,-94.5805,3.92418,0,13.2308,0,-1.34586,0
0.824111,6.56652,0,-94.5274,3.85965,0,13.284,0,-1.35142,0
0.828112,6.58171,0,-94.474,3.79473,0,13.3369,0,-1.35698,0
0.832112,6.59662,0,-94.4204,3.72946,0,13.3895,0,-1.36254,0
0.836112,6.61128,0,-94.3667,3.66382,0,13.4417,0,-1.36808,0
0.840113,6.62567,0,-94.3127,3.59778,0,13.4937,0,-1.37363,0
0.844114,6.6398,0,-94.2585,3.53136,0,13.5454,0,-1.37916,0
0.848114,6.65366,0,-94.2041,3.46459,0,13.5967,0,-1.38469,0
0.852114,6.66725,0,-94.1495,3.39744,0,13.6478,0,-1.39021,0
0.856115,6.68057,0,-94.0947,3.32991,0,13.6985,0,-1.39573,0
0.860116,6.69363,0,-94.0397,3.262,0,13.7489,0,-1.40125,0
0.864116,6.7064,0,-93.9845,3.19373,0,13.799,0,-1.40675,0
0.868116,6.7189,0,-93.9291,3.12509,0,13.8487,0,-1.41226,0
0.872117,6.73113,0,-93.8735,3.05607,0,13.8982,0,-1.41775,0
0.876118,6.74308,0,-93.8177,2.98667,0,13.9473,0,-1.42325,0
0.880118,6.75475,0,-93.7617,2.91692,0,13.996,0,-1.42873,0
0.884118,6.76613,0,-93.7055,2.8468,0,14.0444,0,-1.43422,0
0.888119,6.77724,0,-93.6492,2.7763,0,14.0925,0,-1.43969,0
0.89212,6.78807,0,-93.5926,2.70542,0,14.1402,0,-1.44517,0
0.89612,6.7986,0,-93.5358,2.6342,0,14.1876,0,-1.45064,0
0.90012,6.80885,0,-93.4789,2.5626,0,14.2346,0,-1.4561,0
0.904121,6.81882,0,-93.4218,2.49063,0,14.2813,0,-1.46156,0
0.908122,6.82849,0,-93.3644,2.41829,0,14.3276,0,-1.46701,0
0.912122,6.83788,0,-93.3069,2.3456,0,14.3735,0,-1.47247,0
0.916122,6.84697,0,-93.2493,2.27255,0,14.4191,0,-1.47791,0
0.920122,6.85576,0,-93.1914,2.19914,0,14.4643,0,-1.48335,0
0.924123,6.86427,0,-93.1334,2.12535,0,14.5091,0,-1.48879,0
0.928124,6.87247,0,-93.0751,2.0512,0,14.5536,0,-1.49423,0
0.932124,6.88038,0,-93.0167,1.9767,0,14.5976,0,-1.49967,0
0.936124,6.88799,0,-92.9582,1.90185,0,14.6413,0,-1.5051,0
0.940125,6.8953,0,-92.8994,1.82662,0,14.6846,0,-1.51053,0
0.944126,6.9023,0,-92.8405,1.75103,0,14.7275,0,-1.51595,0
0.948126,6.909,0,-92.7814,1.67511,0,14.77,0,-1.52138,0
0.952126,6.9154,0,-92.7222,1.59884,0,14.8121,0,-1.52681,0
0.956127,6.92149,0,-92.6627,1.5222,0,14.8538,0,-1.53224,0
0.960128,6.92727,0,-92.6031,1.4452,0,14.8952,0,-1.53767,0
0.964128,6.93274,0,-92.5434,1.36788,0,14.936,0,-1.54312,0
0.968128,6.9379,0,-92.4835,1.2902,0,14.9765,0,-1.54859,0
0.972129,6.94275,0,-92.4234,1.21216,0,15.0166,0,-1.5541,0
0.97613,6.94729,0,-92.3632,1.13377,0,15.0563,0,-1.55973,0
0.98013,6.95151,0,-92.3028,1.05506,0,15.0955,0,-1.56585,0
0.98413,6.95541,0,-92.2423,0.97601,0,15.1343,0,nan,0
0.988131,6.959,0,-92.1815,0.896598,0,15.1727,3.14159,-1.5695,3.14159
0.992132,6.96227,0,-92.1207,0.816846,0,15.2107,3.14159,-1.56203,3.14159
0.996132,6.96522,0,-92.0597,0.736776,0,15.2482,3.14159,-1.55632,3.14159
1.00013,6.96784,0,-91.9986,0.656372,0,15.2853,3.14159,-1.55079,3.14159
1.00413,6.97014,0,-91.9373,0.575632,0,15.3219,3.14159,-1.54533,3.14159
1.00813,6.97212,0,-91.8758,0.494541,0,15.3581,3.14159,-1.53992,3.14159
1.01213,6.97377,0,-91.8142,0.41312,0,15.3938,3.14159,-1.53452,3.14159
1.01613,6.9751,0,-91.7525,0.331371,0,15.4291,3.14159,-1.52913,3.14159
1.02014,6.9761,0,-91.6906,0.249315,0,15.464,3.14159,-1.52376,3.14159
1.02414,6.97677,0,-91.6286,0.166912,0,15.4984,3.14159,-1.51838,3.14159
1.02814,6.9771,0,-91.5665,0.0841846,0,15.5323,3.14159,-1.51302,3.14159
1.03214,6.97711,0,-91.5042,0.00115967,0,15.5657,3.14159,-1.50766,3.14159
1.03614,6.97678,0,-91.4418,-0.0822048,0,15.5987,3.14159,-1.50231,3.14159
1.04014,6.97611,0,-91.3793,-0.165888,0,15.6312,3.14159,-1.49695,3.14159
1.04414,6.97511,0,-91.3166,-0.249884,0,15.6632,3.14159,-1.49161,3.14159
1.04814,6.97378,0,-91.2538,-0.334171,0,15.6948,3.14159,-1.48626,3.14159
1.05214,6.9721,0,-91.1909,-0.418791,0,15.7259,3.14159,-1.48092,3.14159
1.05614,6.97009,0,-91.1279,-0.503716,0,15.7564,3.14159,-1.47558,3.14159
1.06014,6.96773,0,-91.0647,-0.588924,0,15.7865,3.14159,-1.47025,3.14159
1.06414,6.96503,0,-91.0014,-0.674459,0,15.8161,3.14159,-1.46491,3.14159
1.06814,6.96199,0,-90.938,-0.760296,0,15.8452,3.14159,-1.45958,3.14159
1.07214,6.95861,0,-90.8745,-0.846409,0,15.8738,3.14159,-1.45425,3.14159
1.07615,6.95487,0,-90.8109,-0.93284,0,15.9019,3.14159,-1.44892,3.14159
1.08015,6.95079,0,-90.7472,-1.01957,0,15.9295,3.14159,-1.4436,3.14159
1.08415,6.94637,0,-90.6833,-1.10658,0,15.9566,3.14159,-1.43827,3.14159
1.08815,6.94159,0,-90.6194,-1.19386,0,15.9832,3.14159,-1.43295,3.14159
1.09215,6.93646,0,-90.5554,-1.28145,0,16.0092,3.14159,-1.42763,3.14159
1.09615,6.93098,0,-90.4912,-1.36932,0,16.0348,3.14159,-1.42231,3.14159
1.10015,6.92516,0,-90.427,-1.45745,0,16.0598,3.14159,-1.417,3.14159
1.10415,6.91897,0,-90.3626,-1.54588,0,16.0843,3.14159,-1.41168,3.14159
1.10815,6.91243,0,-90.2982,-1.63458,0,16.1082,3.14159,-1.40637,3.14159
1.11215,6.90553,0,-90.2336,-1.72356,0,16.1316,3.14159,-1.40105,3.14159
1.11615,6.89828,0,-90.169,-1.81278,0,16.1545,3.14159,-1.39575,3.14159
1.12015,6.89067,0,-90.1043,-1.90229,0,16.1769,3.14159,-1.39043,3.14159
1.12415,6.8827,0,-90.0395,-1.99207,0,16.1987,3.14159,-1.38513,3.14159
1.12815,6.87437,0,-89.9746,-2.08208,0,16.2199,3.14159,-1.37982,3.14159
1.13216,6.86568,0,-89.9096,-2.17237,0,16.2406,3.14159,-1.37451,3.14159
1.13616,6.85663,0,-89.8446,-2.26291,0,16.2608,3.14159,-1.36921,3.14159
1.14016,6.84721,0,-89.7794,-2.35369,0,16.2804,3.14159,-1.3639,3.14159
1.14416,6.83743,0,-89.7142,-2.44473,0,16.2994,3.14159,-1.3586,3.14159
1.14816,6.82728,0,-89.6489,-2.53602,0,16.3179,3.14159,-1.3533,3.14159
1.15216,6.81677,0,-89.5836,-2.62755,0,16.3358,3.14159,-1.348,3.14159
1.15616,6.80589,0,-89.5182,-2.71929,0,16.3532,3.14159,-1.3427,3.14159
1.16016,6.79465,0,-89.4527,-2.8113,0,16.37,3.14159,-1.3374,3.14159
1.16416,6.78303,0,-89.3871,-2.90353,0,16.3862,3.14159,-1.3321,3.14159
1.16816,6.77105,0,-89.3215,-2.99596,0,16.4018,3.14159,-1.3268,3.14159
1.17216,6.75869,0,-89.2558,-3.08865,0,16.4168,3.14159,-1.32151,3.14159
1.17616,6.74596,0,-89.1901,-3.18155,0,16.4313,3.14159,-1.31621,3.14159
1.18016,6.73286,0,-89.1243,-3.27467,0,16.4452,3.14159,-1.31091,3.14159
1.18416,6.71938,0,-89.0584,-3.36798,0,16.4584,3.14159,-1.30562,3.14159
1.18817,6.70553,0,-88.9925,-3.46153,0,16.4711,3.14159,-1.30032,3.14159
1.19217,6.69131,0,-88.9266,-3.55528,0,16.4832,3.14159,-1.29503,3.14159
1.19617,6.67671,0,-88.8606,-3.64921,0,16.4947,3.14159,-1.28974,3.14159
1.20017,6.66174,0,-88.7946,-3.74336,0,16.5056,3.14159,-1.28444,3.14159
1.20417,6.64638,0,-88.7285,-3.8377,0,16.5159,3.14159,-1.27915,3.14159
1.20817,6.63065,0,-88.6624,-3.93222,0,16.5256,3.14159,-1.27386,3.14159
1.21217,6.61454,0,-88.5962,-4.02694,0,16.5347,3.14159,-1.26856,3.14159
1.21617,6.59805,0,-88.53,-4.12184,0,16.5432,3.14159,-1.26327,3.14159
1.22017,6.58118,0,-88.4638,-4.21693,0,16.551,3.14159,-1.25798,3.14159
1.22417,6.56393,0,-88.3976,-4.31217,0,16.5583,3.14159,-1.25269,3.14159
1.22817,6.54629,0,-88.3313,-4.4076,0,16.5649,3.14159,-1.2474,3.14159
1.23217,6.52828,0,-88.265,-4.5032,0,16.5709,3.14159,-1.24211,3.14159
1.23617,6.50988,0,-88.1987,-4.59894,0,16.5763,3.14159,-1.23682,3.14159
1.24017,6.4911,0,-88.1324,-4.69486,0,16.581,3.14159,-1.23153,3.14159
1.24418,6.47193,0,-88.066,-4.79094,0,16.5852,3.14159,-1.22624,3.14159
1.24818,6.45237,0,-87.9996,-4.88717,0,16.5886,3.14159,-1.22095,3.14159
1.25218,6.43244,0,-87.9333,-4.98351,0,16.5915,3.14159,-1.21566,3.14159
1.25618,6.41212,0,-87.8669,-5.08002,0,16.5937,3.14159,-1.21037,3.14159
1.26018,6.3914,0,-87.8005,-5.17667,0,16.5953,3.14159,-1.20507,3.14159
1.26418,6.37031,0,-87.7341,-5.27343,0,16.5962,3.14159,-1.19979,3.14159
1.26818,6.34882,0,-87.6677,-5.37034,0,16.5965,3.14159,-1.19449,3.14159
1.27218,6.32695,0,-87.6013,-5.46738,0,16.5961,3.14159,-1.1892,3.14159
1.27618,6.30469,0,-87.5349,-5.56451,0,16.5951,3.14159,-1.18391,3.14159
1.28018,6.28204,0,-87.4685,-5.66178,0,16.5935,3.14159,-1.17862,3.14159
1.28418,6.259,0,-87.4021,-5.75916,0,16.5912,3.14159,-1.17333,3.14159
1.28818,6.23556,0,-87.3358,-5.85665,0,16.5882,3.14159,-1.16804,3.14159
1.29218,6.21175,0,-87.2694,-5.95421,0,16.5846,3.14159,-1.16275,3.14159
1.29618,6.18753,0,-87.2031,-6.05189,0,16.5803,3.14159,-1.15746,3.14159
1.30018,6.16293,0,-87.1368,-6.14967,0,16.5754,3.14159,-1.15217,3.14159
1.30419,6.13794,0,-87.0705,-6.24751,0,16.5698,3.14159,-1.14687,3.14159
1.30819,6.11255,0,-87.0042,-6.34545,0,16.5635,3.14159,-1.14158,3.14159
1.31219,6.08677,0,-86.938,-6.44347,0,16.5566,3.14159,-1.13629,3.14159
1.31619,6.0606,0,-86.8718,-6.54156,0,16.549,3.14159,-1.131,3.14159
1.32019,6.03404,0,-86.8056,-6.63969,0,16.5407,3.14159,-1.1257,3.14159
1.32419,6.00708,0,-86.7395,-6.73791,0,16.5317,3.14159,-1.12041,3.14159
1.32819,5.97973,0,-86.6733,-6.83619,0,16.5221,3.14159,-1.11512,3.14159
1.33219,5.95199,0,-86.6073,-6.9345,0,16.5118,3.14159,-1.10982,3.14159
1.33619,5.92385,0,-86.5413,-7.03288,0,16.5008,3.14159,-1.10453,3.14159
1.34019,5.89532,0,-86.4753,-7.1313,0,16.4892,3.14159,-1.09923,3.14159
1.34419,5.8664,0,-86.4094,-7.22973,0,16.4768,3.14159,-1.09394,3.14159
1.34819,5.83708,0,-86.3435,-7.32822,0,16.4638,3.14159,-1.08864,3.14159
1.35219,5.80736,0,-86.2777,-7.42674,0,16.4501,3.14159,-1.08335,3.14159
1.35619,5.77726,0,-86.212,-7.52528,0,16.4357,3.14159,-1.07805,3.14159
1.3602,5.74676,0,-86.1463,-7.62381,0,16.4207,3.14159,-1.07275,3.14159
1.3642,5.71586,0,-86.0806,-7.72237,0,16.4049,3.14159,-1.06746,3.14159
1.3682,5.68457,0,-86.0151,-7.82094,0,16.3884,3.14159,-1.06216,3.14159
1.3722,5.65289,0,-85.9496,-7.91949,0,16.3713,3.14159,-1.05686,3.14159
1.3762,5.62081,0,-85.8842,-8.01806,0,16.3535,3.14159,-1.05156,3.14159
1.3802,5.58834,0,-85.8188,-8.11662,0,16.3349,3.14159,-1.04626,3.14159
1.3842,5.55547,0,-85.7535,-8.21515,0,16.3157,3.14159,-1.04096,3.14159
1.3882,5.52222,0,-85.6883,-8.31365,0,16.2958,3.14159,-1.03566,3.14159
1.3922,5.48856,0,-85.6232,-8.41215,0,16.2752,3.14159,-1.03036,3.14159
1.3962,5.45451,0,-85.5582,-8.51061,0,16.2539,3.14159,-1.02506,3.14159
1.4002,5.42007,0,-85.4933,-8.60901,0,16.2319,3.14159,-1.01976,3.14159
1.4042,5.38523,0,-85.4284,-8.70739,0,16.2092,3.14159,-1.01446,3.14159
1.4082,5.35,0,-85.3637,-8.80573,0,16.1858,3.14159,-1.00915,3.14159
1.4122,5.31438,0,-85.299,-8.90402,0,16.1617,3.14159,-1.00385,3.14159
1.41621,5.27837,0,-85.2345,-9.00221,0,16.1369,3.14159,-0.998546,3.14159
1.42021,5.24196,0,-85.17,-9.10037,0,16.1114,3.14159,-0.993241,3.14159
1.42421,5.20516,0,-85.1056,-9.19845,0,16.0851,3.14159,-0.987936,3.14159
1.42821,5.16797,0,-85.0414,-9.29644,0,16.0583,3.14159,-0.982631,3.14159
1.43221,5.13038,0,-84.9773,-9.39436,0,16.0306,3.14159,-0.977324,3.14159
1.43621,5.0924,0,-84.9132,-9.49221,0,16.0023,3.14159,-0.972017,3.14159
1.44021,5.05405,0,-84.8493,-9.58993,0,15.9733,3.14159,-0.96671,3.14159
1.44421,5.01529,0,-84.7856,-9.68759,0,15.9436,3.14159,-0.961402,3.14159
1.44821,4.97613,0,-84.7219,-9.78513,0,15.9132,3.14159,-0.956093,3.14159
1.45221,4.93659,0,-84.6583,-9.88256,0,15.882,3.14159,-0.950783,3.14159
1.45621,4.89668,0,-84.5949,-9.97985,0,15.8502,3.14159,-0.945474,3.14159
1.46021,4.85636,0,-84.5317,-10.077,0,15.8177,3.14159,-0.940163,3.14159
1.46421,4.81565,0,-84.4685,-10.1741,0,15.7844,3.14159,-0.934852,3.14159
1.46821,4.77457,0,-84.4055,-10.271,0,15.7505,3.14159,-0.929541,3.14159
1.47222,4.73308,0,-84.3426,-10.3678,0,15.7158,3.14159,-0.924229,3.14159
1.47622,4.69122,0,-84.2799,-10.4645,0,15.6805,3.14159,-0.918916,3.14159
1.48022,4.64896,0,-84.2173,-10.561,0,15.6444,3.14159,-0.913602,3.14159
1.48422,4.60633,0,-84.1549,-10.6573,0,15.6077,3.14159,-0.908289,3.14159
1.48822,4.56331,0,-84.0926,-10.7534,0,15.5702,3.14159,-0.902974,3.14159
1.49222,4.5199,0,-84.0304,-10.8495,0,15.532,3.14159,-0.897659,3.14159
1.49622,4.47612,0,-83.9684,-10.9453,0,15.4932,3.14159,-0.892344,3.14159
1.50022,4.43194,0,-83.9066,-11.0409,0,15.4536,3.14159,-0.887028,3.14159
1.50422,4.38739,0,-83.8449,-11.1364,0,15.4133,3.14159,-0.88171,3.14159
1.50822,4.34246,0,-83.7835,-11.2316,0,15.3724,3.14159,-0.876394,3.14159
1.51222,4.29714,0,-83.7221,-11.3267,0,15.3307,3.14159,-0.871076,3.14159
1.51622,4.25144,0,-83.6609,-11.4216,0,15.2883,3.14159,-0.865757,3.14159
1.52022,4.20537,0,-83.6,-11.5162,0,15.2452,3.14159,-0.860438,3.14159
1.52422,4.15893,0,-83.5391,-11.6107,0,15.2015,3.14159,-0.85512,3.14159
1.52823,4.11209,0,-83.4785,-11.7049,0,15.157,3.14159,-0.8498,3.14159
1.53223,4.06489,0,-83.418,-11.7989,0,15.1119,3.14159,-0.844479,3.14159
1.53623,4.01732,0,-83.3578,-11.8926,0,15.066,3.14159,-0.839159,3.14159
1.54023,3.96936,0,-83.2977,-11.9861,0,15.0195,3.14159,-0.833838,3.14159
1.54423,3.92103,0,-83.2378,-12.0794,0,14.9722,3.14159,-0.828515,3.14159
1.54823,3.87233,0,-83.1781,-12.1724,0,14.9243,3.14159,-0.823193,3.14159
1.55223,3.82327,0,-83.1186,-12.2652,0,14.8757,3.14159,-0.817871,3.14159
1.55623,3.77383,0,-83.0592,-12.3577,0,14.8264,3.14159,-0.812547,3.14159
1.56023,3.72401,0,-83.0001,-12.4499,0,14.7764,3.14159,-0.807223,3.14159
1.56423,3.67385,0,-82.9412,-12.5418,0,14.7257,3.14159,-0.8019,3.14159
1.56823,3.6233,0,-82.8825,-12.6335,0,14.6744,3.14159,-0.796575,3.14159
1.57223,3.57239,0,-82.824,-12.7249,0,14.6224,3.14159,-0.79125,3.14159
1.57623,3.52112,0,-82.7657,-12.816,0,14.5697,3.14159,-0.785926,3.14159
1.58023,3.46948,0,-82.7076,-12.9067,0,14.5163,3.14159,-0.7806,3.14159
1.58424,3.41748,0,-82.6498,-12.9972,0,14.4622,3.14159,-0.775273,3.14159
1.58824,3.36512,0,-82.5921,-13.0874,0,14.4074,3.14159,-0.769946,3.14159
1.59224,3.31241,0,-82.5347,-13.1772,0,14.352,3.14159,-0.76462,3.14159
1.59624,3.25933,0,-82.4775,-13.2668,0,14.2959,3.14159,-0.759293,3.14159
1.60024,3.20589,0,-82.4205,-13.356,0,14.2392,3.14159,-0.753965,3.14159
1.60424,3.15211,0,-82.3638,-13.4448,0,14.1818,3.14159,-0.748638,3.14159
1.60824,3.09797,0,-82.3073,-13.5334,0,14.1237,3.14159,-0.74331,3.14159
1.61224,3.04347,0,-82.251,-13.6215,0,14.0649,3.14159,-0.737981,3.14159
1.61624,2.98862,0,-82.195,-13.7094,0,14.0055,3.14159,-0.732652,3.14159
1.62024,2.93343,0,-82.1392,-13.7968,0,13.9455,3.14159,-0.727324,3.14159
1.62424,2.87788,0,-82.0837,-13.8839,0,13.8847,3.14159,-0.721994,3.14159
1.62824,2.82198,0,-82.0284,-13.9707,0,13.8234,3.14159,-0.716665,3.14159
1.63224,2.76575,0,-81.9733,-14.057,0,13.7614,3.14159,-0.711336,3.14159
1.63624,2.70917,0,-81.9185,-14.143,0,13.6987,3.14159,-0.706006,3.14159
1.64024,2.65224,0,-81.8639,-14.2286,0,13.6354,3.14159,-0.700676,3.14159
1.64425,2.59498,0,-81.8097,-14.3138,0,13.5714,3.14159,-0.695346,3.14159
1.64825,2.53738,0,-81.7556,-14.3986,0,13.5069,3.14159,-0.690016,3.14159
1.65225,2.47943,0,-81.7018,-14.483,0,13.4416,3.14159,-0.684685,3.14159
1.65625,2.42115,0,-81.6483,-14.5669,0,13.3758,3.14159,-0.679355,3.14159
1.66025,2.36255,0,-81.5951,-14.6505,0,13.3093,3.14159,-0.674025,3.14159
1.66425,2.3036,0,-81.5421,-14.7336,0,13.2422,3.14159,-0.668694,3.14159
1.66825,2.24432,0,-81.4894,-14.8164,0,13.1744,3.14159,-0.663364,3.14159
1.67225,2.18472,0,-81.437,-14.8986,0,13.1061,3.14159,-0.658034,3.14159
1.67625,2.12478,0,-81.3848,-14.9805,0,13.0371,3.14159,-0.652703,3.14159
1.68025,2.06452,0,-81.3329,-15.0619,0,12.9675,3.14159,-0.647372,3.14159
1.68425,2.00393,0,-81.2813,-15.1429,0,12.8974,3.14159,-0.642041,3.14159
1.68825,1.94304,0,-81.23,-15.2233,0,12.8266,3.14159,-0.636712,3.14159
1.69225,1.88181,0,-81.179,-15.3034,0,12.7552,3.14159,-0.631381,3.14159
1.69625,1.82027,0,-81.1282,-15.383,0,12.6832,3.14159,-0.62605,3.14159
1.70026,1.75842,0,-81.0778,-15.4621,0,12.6106,3.14159,-0.620721,3.14159
1.70426,1.69624,0,-81.0276,-15.5407,0,12.5374,3.14159,-0.61539,3.14159
1.70826,1.63375,0,-80.9778,-15.6189,0,12.4636,3.14159,-0.61006,3.14159
1.71226,1.57095,0,-80.9282,-15.6965,0,12.3893,3.14159,-0.60473,3.14159
1.71626,1.50785,0,-80.8789,-15.7737,0,12.3143,3.14159,-0.599401,3.14159
1.72026,1.44443,0,-80.83,-15.8504,0,12.2388,3.14159,-0.594072,3.14159
1.72426,1.38071,0,-80.7813,-15.9266,0,12.1627,3.14159,-0.588742,3.14159
1.72826,1.3167,0,-80.733,-16.0022,0,12.0861,3.14159,-0.583414,3.14159
1.73226,1.25238,0,-80.6849,-16.0774,0,12.0089,3.14159,-0.578085,3.14159
1.73626,1.18775,0,-80.6372,-16.152,0,11.9311,3.14159,-0.572757,3.14159
1.74026,1.12285,0,-80.5898,-16.2261,0,11.8527,3.14159,-0.56743,3.14159
1.74426,1.05763,0,-80.5427,-16.2997,0,11.7738,3.14159,-0.562102,3.14159
1.74826,0.992126,0,-80.4959,-16.3727,0,11.6944,3.14159,-0.556775,3.14159
1.75226,0.926329,0,-80.4494,-16.4453,0,11.6144,3.14159,-0.551448,3.14159
1.75627,0.86026,0,-80.4033,-16.5172,0,11.5339,3.14159,-0.546122,3.14159
1.76027,0.793889,0,-80.3575,-16.5886,0,11.4529,3.14159,-0.540796,3.14159
1.76427,0.727234,0,-80.312,-16.6595,0,11.3713,3.14159,-0.53547,3.14159
1.76827,0.660315,0,-80.2668,-16.7298,0,11.2892,3.14159,-0.530146,3.14159
1.77227,0.593099,0,-80.222,-16.7996,0,11.2066,3.14159,-0.524822,3.14159
1.77627,0.525607,0,-80.1775,-16.8688,0,11.1234,3.14159,-0.519498,3.14159
1.78027,0.457841,0,-80.1333,-16.9374,0,11.0398,3.14159,-0.514174,3.14159
1.78427,0.389819,0,-80.0895,-17.0054,0,10.9557,3.14159,-0.508852,3.14159
1.78827,0.32151,0,-80.046,-17.0729,0,10.871,3.14159,-0.50353,3.14159
1.79227,0.252934,0,-80.0028,-17.1398,0,10.7858,3.14159,-0.498208,3.14159
1.79627,0.18411,0,-79.96,-17.2061,0,10.7002,3.14159,-0.492889,3.14159
1.80027,0.115006,0,-79.9176,-17.2718,0,10.6141,3.14159,-0.487569,3.14159
1.80427,0.0456409,0,-79.8754,-17.3369,0,10.5275,3.14159,-0.482249,3.14159
1.80827,-0.0239645,0,-79.8337,-17.4013,0,10.4404,3.14159,-0.476932,3.14159
1.81228,-0.0938428,0,-79.7923,-17.4652,0,10.3528,3.14159,-0.471614,3.14159
1.81628,-0.163974,0,-79.7512,-17.5285,0,10.2648,3.14159,-0.466297,3.14159
1.82028,-0.234357,0,-79.7105,-17.5912,0,10.1763,3.14159,-0.460981,3.14159
1.82428,-0.30497,0,-79.6701,-17.6532,0,10.0874,3.14159,-0.455667,3.14159
1.82828,-0.375846,0,-79.6301,-17.7146,0,9.99804,3.14159,-0.450352,3.14159
1.83228,-0.446965,0,-79.5905,-17.7754,0,9.9082,3.14159,-0.445039,3.14159
1.83628,-0.518308,0,-79.5512,-17.8356,0,9.81795,3.14159,-0.439728,3.14159
1.84028,-0.589906,0,-79.5123,-17.8951,0,9.72724,3.14159,-0.434416,3.14159
1.84428,-0.66174,0,-79.4737,-17.954,0,9.63611,3.14159,-0.429106,3.14159
1.84828,-0.733807,0,-79.4355,-18.0122,0,9.54455,3.14159,-0.423796,3.14159
1.85228,-0.806086,0,-79.3977,-18.0698,0,9.4526,3.14159,-0.418489,3.14159
1.85628,-0.878611,0,-79.3603,-18.1268,0,9.36022,3.14159,-0.413182,3.14159
1.86028,-0.951362,0,-79.3232,-18.1831,0,9.26743,3.14159,-0.407876,3.14159
1.86428,-1.02432,0,-79.2865,-18.2387,0,9.17427,3.14159,-0.402572,3.14159
1.86829,-1.09751,0,-79.2502,-18.2937,0,9.0807,3.14159,-0.397268,3.14159
1.87229,-1.17092,0,-79.2142,-18.348,0,8.98673,3.14159,-0.391966,3.14159
1.87629,-1.24453,0,-79.1786,-18.4016,0,8.89241,3.14159,-0.386666,3.14159
1.88029,-1.31836,0,-79.1434,-18.4546,0,8.79768,3.14159,-0.381366,3.14159
1.88429,-1.39241,0,-79.1086,-18.5069,0,8.70259,3.14159,-0.376067,3.14159
1.88829,-1.46666,0,-79.0742,-18.5586,0,8.60714,3.14159,-0.37077,3.14159
1.89229,-1.5411,0,-79.0401,-18.6095,0,8.51134,3.14159,-0.365475,3.14159
1.89629,-1.61576,0,-79.0065,-18.6597,0,8.41516,3.14159,-0.36018,3.14159
1.90029,-1.69061,0,-78.9732,-18.7093,0,8.31865,3.14159,-0.354887,3.14159
1.90429,-1.76565,0,-78.9403,-18.7582,0,8.22182,3.14159,-0.349597,3.14159
1.90829,-1.84089,0,-78.9078,-18.8064,0,8.12464,3.14159,-0.344307,3.14159
1.91229,-1.91633,0,-78.8757,-18.8539,0,8.02712,3.14159,-0.339018,3.14159
1.91629,-1.99195,0,-78.844,-18.9007,0,7.92929,3.14159,-0.333731,3.14159
1.92029,-2.06773,0,-78.8126,-18.9468,0,7.83117,3.14159,-0.328447,3.14159
1.9243,-2.14372,0,-78.7817,-18.9922,0,7.7327,3.14159,-0.323163,3.14159
1.9283,-2.21989,0,-78.7512,-19.0369,0,7.63394,3.14159,-0.317881,3.14159
1.9323,-2.29621,0,-78.721,-19.0808,0,7.53491,3.14159,-0.312602,3.14159
1.9363,-2.37273,0,-78.6913,-19.1241,0,7.43556,3.14159,-0.307323,3.14159
1.9403,-2.44941,0,-78.6619,-19.1667,0,7.33593,3.14159,-0.302046,3.14159
1.9443,-2.52625,0,-78.633,-19.2085,0,7.23605,3.14159,-0.296773,3.14159
1.9483,-2.60326,0,-78.6044,-19.2496,0,7.13588,3.14159,-0.291499,3.14159
1.9523,-2.68044,0,-78.5763,-19.29,0,7.03543,3.14159,-0.286228,3.14159
1.9563,-2.75778,0,-78.5485,-19.3297,0,6.93474,3.14159,-0.280958,3.14159
1.9603,-2.83526,0,-78.5212,-19.3687,0,6.83381,3.14159,-0.275692,3.14159
1.9643,-2.9129,0,-78.4942,-19.4069,0,6.73262,3.14159,-0.270426,3.14159
1.9683,-2.9907,0,-78.4677,-19.4444,0,6.63118,3.14159,-0.265162,3.14159
1.9723,-3.06863,0,-78.4416,-19.4812,0,6.52954,3.14159,-0.259902,3.14159
1.9763,-3.14671,0,-78.4159,-19.5172,0,6.42764,3.14159,-0.254642,3.14159
1.98031,-3.22494,0,-78.3906,-19.5525,0,6.32553,3.14159,-0.249384,3.14159
1.98431,-3.30331,0,-78.3657,-19.587,0,6.2232,3.14159,-0.244129,3.14159
1.98831,-3.38179,0,-78.3412,-19.6208,0,6.12069,3.14159,-0.238877,3.14159
1.99231,-3.46043,0,-78.3171,-19.6539,0,6.01796,3.14159,-0.233625,3.14159
1.99631,-3.53919,0,-78.2934,-19.6862,0,5.91504,3.14159,-0.228376,3.14159
2.00031,-3.61807,0,-78.2702,-19.7178,0,5.81195,3.14159,-0.223131,3.14159
2.00431,-3.69706,0,-78.2474,-19.7487,0,5.7087,3.14159,-0.217888,3.14159
2.00831,-3.7762,0,-78.2249,-19.7788,0,5.60524,3.14159,-0.212646,3.14159
2.01231,-3.85543,0,-78.2029,-19.8081,0,5.50164,3.14159,-0.207407,3.14159
2.01631,-3.93477,0,-78.1813,-19.8368,0,5.39789,3.14159,-0.202171,3.14159
2.02031,-4.01423,0,-78.1602,-19.8646,0,5.29399,3.14159,-0.196938,3.14159
2.02431,-4.09382,0,-78.1394,-19.8918,0,5.18991,3.14159,-0.191705,3.14159
2.02831,-4.17349,0,-78.1191,-19.9181,0,5.08572,3.14159,-0.186476,3.14159
2.03231,-4.25327,0,-78.0991,-19.9437,0,4.9814,3.14159,-0.18125,3.14159
2.03631,-4.33316,0,-78.0796,-19.9686,0,4.87693,3.14159,-0.176025,3.14159
2.04031,-4.41315,0,-78.0605,-19.9927,0,4.77234,3.14159,-0.170803,3.14159
2.04431,-4.49322,0,-78.0418,-20.0161,0,4.66766,3.14159,-0.165585,3.14159
2.04831,-4.57339,0,-78.0236,-20.0387,0,4.56286,3.14159,-0.160368,3.14159
2.05231,-4.65365,0,-78.0058,-20.0606,0,4.45796,3.14159,-0.155153,3.14159
2.05631,-4.73398,0,-77.9883,-20.0817,0,4.35299,3.14159,-0.149943,3.14159
2.06031,-4.81441,0,-77.9713,-20.1021,0,4.24792,3.14159,-0.144734,3.14159
2.06431,-4.8949,0,-77.9548,-20.1217,0,4.14279,3.14159,-0.139529,3.14159
2.06831,-4.97546,0,-77.9386,-20.1405,0,4.03759,3.14159,-0.134327,3.14159
2.07231,-5.05609,0,-77.9229,-20.1586,0,3.93233,3.14159,-0.129128,3.14159
2.07632,-5.13682,0,-77.9076,-20.176,0,3.82698,3.14159,-0.123931,3.14159
2.08032,-5.21759,0,-77.8927,-20.1925,0,3.72161,3.14159,-0.118737,3.14159
2.08432,-5.29842,0,-77.8782,-20.2084,0,3.61619,3.14159,-0.113547,3.14159
2.08832,-5.37934,0,-77.8642,-20.2235,0,3.51071,3.14159,-0.108358,3.14159
2.09232,-5.46031,0,-77.8506,-20.2378,0,3.4052,3.14159,-0.103173,3.14159
2.09632,-5.54131,0,-77.8374,-20.2514,0,3.2997,3.14159,-0.0979915,3.14159
2.10032,-5.62239,0,-77.8246,-20.2642,0,3.19415,3.14159,-0.0928121,3.14159
2.10432,-5.70351,0,-77.8122,-20.2762,0,3.08859,3.14159,-0.0876359,3.14159
2.10832,-5.78466,0,-77.8003,-20.2875,0,2.98305,3.14159,-0.082464,3.14159
2.11232,-5.86588,0,-77.7888,-20.2981,0,2.8775,3.14159,-0.0772941,3.14159
2.11632,-5.94711,0,-77.7777,-20.3079,0,2.77197,3.14159,-0.0721288,3.14159
2.12032,-6.02838,0,-77.767,-20.317,0,2.66647,3.14159,-0.0669667,3.14159
2.12432,-6.10968,0,-77.7568,-20.3253,0,2.56098,3.14159,-0.0618079,3.14159
2.12832,-6.19103,0,-77.7469,-20.3328,0,2.4555,3.14159,-0.0566511,3.14159
2.13232,-6.27239,0,-77.7375,-20.3396,0,2.35009,3.14159,-0.051499,3.14159
2.13632,-6.35377,0,-77.7286,-20.3457,0,2.24471,3.14159,-0.0463504,3.14159
2.14032,-6.43517,0,-77.72,-20.351,0,2.13939,3.14159,-0.0412051,3.14159
2.14432,-6.51662,0,-77.7119,-20.3556,0,2.03409,3.14159,-0.0360621,3.14159
2.14832,-6.59806,0,-77.7042,-20.3594,0,1.92889,3.14159,-0.0309239,3.14159
2.15232,-6.67951,0,-77.6969,-20.3625,0,1.82375,3.14159,-0.0257892,3.14159
2.15632,-6.76098,0,-77.69,-20.3648,0,1.71867,3.14159,-0.0206568,3.14159
2.16032,-6.84247,0,-77.6835,-20.3664,0,1.61366,3.14159,-0.0155281,3.14159
2.16432,-6.92394,0,-77.6775,-20.3673,0,1.50878,3.14159,-0.0104043,3.14159
2.16833,-7.00543,0,-77.6719,-20.3674,0,1.40396,3.14159,-0.00528286,3.14159
2.17233,-7.08692,0,-77.6667,-20.3668,0,1.29924,3.14159,-0.000165176,3.14159
2.17633,-7.16838,0,-77.6619,-20.3655,0,1.19466,-3.14159,0.00494747,-3.14159
2.18033,-7.24985,0,-77.6575,-20.3634,0,1.09016,-3.14159,0.0100576,-3.14159
2.18433,-7.3313,0,-77.6536,-20.3606,0,0.985817,-3.14159,0.0151626,-3.14159
2.18833,-7.41272,0,-77.6501,-20.3571,0,0.881598,-3.14159,0.0202638,-3.14159
2.19233,-7.49414,0,-77.647,-20.3528,0,0.777512,-3.14159,0.0253611,-3.14159
2.19633,-7.57555,0,-77.6443,-20.3478,0,0.673541,-3.14159,0.0304557,-3.14159
2.20033,-7.65692,0,-77.642,-20.3421,0,0.569741,-3.14159,0.0355451,-3.14159
2.20433,-7.73826,0,-77.6401,-20.3357,0,0.466094,-3.14159,0.0406305,-3.14159
2.20833,-7.81959,0,-77.6387,-20.3285,0,0.362579,-3.14159,0.0457131,-3.14159
2.21233,-7.9009,0,-77.6376,-20.3206,0,0.25923,-3.14159,0.0507917,-3.14159
2.21633,-7.98214,0,-77.637,-20.3121,0,0.156078,-3.14159,0.0558649,-3.14159
2.22033,-8.06337,0,-77.6368,-20.3028,0,0.0530765,-3.14159,0.0609353,-3.14159
2.22433,-8.14457,0,-77.637,-20.2928,0,-0.0497415,-3.14159,0.0660014,-3.14159
2.22833,-8.22569,0,-77.6376,-20.2821,0,-0.152344,-3.14159,0.0710621,-3.14159
2.23233,-8.3068,0,-77.6386,-20.2706,0,-0.254777,-3.14159,0.0761198,-3.14159
2.23633,-8.38783,0,-77.6401,-20.2585,0,-0.356983,-3.14159,0.0811721,-3.14159
2.24033,-8.46881,0,-77.6419,-20.2457,0,-0.458982,-3.14159,0.08622,-3.14159
2.24433,-8.54974,0,-77.6441,-20.2322,0,-0.560767,-3.14159,0.0912635,-3.14159
2.24833,-8.63063,0,-77.6468,-20.2179,0,-0.662359,-3.14159,0.096304,-3.14159
2.25233,-8.71145,0,-77.6498,-20.203,0,-0.7637,-3.14159,0.101339,-3.14159
2.25633,-8.7922,0,-77.6533,-20.1874,0,-0.86481,-3.14159,0.106369,-3.14159
2.26033,-8.87288,0,-77.6572,-20.1712,0,-0.965683,-3.14159,0.111395,-3.14159
2.26434,-8.95352,0,-77.6614,-20.1542,0,-1.06634,-3.14159,0.116418,-3.14159
2.26834,-9.03406,0,-77.6661,-20.1365,0,-1.16672,-3.14159,0.121434,-3.14159
2.27234,-9.11454,0,-77.6712,-20.1182,0,-1.26685,-3.14159,0.126447,-3.14159
2.27634,-9.19495,0,-77.6766,-20.0992,0,-1.36675,-3.14159,0.131456,-3.14159
2.28034,-9.27529,0,-77.6825,-20.0795,0,-1.46638,-3.14159,0.13646,-3.14159
2.28434,-9.35553,0,-77.6888,-20.0592,0,-1.56571,-3.14159,0.141458,-3.14159
2.28834,-9.4357,0,-77.6954,-20.0382,0,-1.66479,-3.14159,0.146453,-3.14159
2.29234,-9.51577,0,-77.7025,-20.0165,0,-1.76357,-3.14159,0.151442,-3.14159
2.29634,-9.59574,0,-77.7099,-19.9942,0,-1.86206,-3.14159,0.156426,-3.14159
2.30034,-9.67563,0,-77.7178,-19.9712,0,-1.96026,-3.14159,0.161405,-3.14159
2.30434,-9.75544,0,-77.726,-19.9476,0,-2.05818,-3.14159,0.166381,-3.14159
2.30834,-9.83513,0,-77.7346,-19.9233,0,-2.15578,-3.14159,0.171351,-3.14159
2.31234,-9.91472,0,-77.7436,-19.8984,0,-2.25307,-3.14159,0.176315,-3.14159
2.31634,-9.99422,0,-77.753,-19.8728,0,-2.35004,-3.14159,0.181275,-3.14159
2.32034,-10.0736,0,-77.7628,-19.8466,0,-2.44672,-3.14159,0.186231,-3.14159
2.32434,-10.1529,0,-77.773,-19.8198,0,-2.54306,-3.14159,0.191181,-3.14159
2.32834,-10.2321,0,-77.7835,-19.7923,0,-2.63906,-3.14159,0.196125,-3.14159
2.33234,-10.3111,0,-77.7945,-19.7642,0,-2.73475,-3.14159,0.201066,-3.14159
2.33634,-10.3901,0,-77.8058,-19.7355,0,-2.83011,-3.14159,0.206002,-3.14159
2.34034,-10.4689,0,-77.8175,-19.7061,0,-2.92509,-3.14159,0.210932,-3.14159
2.34434,-10.5477,0,-77.8296,-19.6762,0,-3.01975,-3.14159,0.215857,-3.14159
2.34834,-10.6263,0,-77.8421,-19.6456,0,-3.11406,-3.14159,0.220777,-3.14159
2.35234,-10.7047,0,-77.8549,-19.6145,0,-3.20799,-3.14159,0.225691,-3.14159
2.35635,-10.7831,0,-77.8681,-19.5827,0,-3.30158,-3.14159,0.230601,-3.14159
2.36035,-10.8613,0,-77.8817,-19.5503,0,-3.39478,-3.14159,0.235504,-3.14159
2.36435,-10.9393,0,-77.8956,-19.5174,0,-3.4876,-3.14159,0.240402,-3.14159
2.36835,-11.0173,0,-77.91,-19.4838,0,-3.58005,-3.14159,0.245295,-3.14159
2.37235,-11.0951,0,-77.9246,-19.4497,0,-3.67214,-3.14159,0.250183,-3.14159
2.37635,-11.1728,0,-77.9397,-19.415,0,-3.76382,-3.14159,0.255065,-3.14159
2.38035,-11.2503,0,-77.9551,-19.3797,0,-3.8551,-3.14159,0.259941,-3.14159
2.38435,-11.3277,0,-77.9709,-19.3438,0,-3.94602,-3.14159,0.264813,-3.14159
2.38835,-11.4049,0,-77.9871,-19.3073,0,-4.03653,-3.14159,0.26968,-3.14159
2.39235,-11.482,0,-78.0036,-19.2703,0,-4.12662,-3.14159,0.27454,-3.14159
2.39635,-11.5589,0,-78.0204,-19.2327,0,-4.21632,-3.14159,0.279395,-3.14159
2.40035,-11.6357,0,-78.0377,-19.1946,0,-4.30561,-3.14159,0.284245,-3.14159
2.40435,-11.7124,0,-78.0552,-19.1559,0,-4.39447,-3.14159,0.289088,-3.14159
2.40835,-11.7889,0,-78.0732,-19.1166,0,-4.48299,-3.14159,0.29393,-3.14159
2.41236,-11.8652,0,-78.0915,-19.0768,0,-4.57102,-3.14159,0.298763,-3.14159
2.41636,-11.9414,0,-78.1101,-19.0365,0,-4.6586,-3.14159,0.303589,-3.14159
2.42036,-12.0174,0,-78.1291,-18.9957,0,-4.74575,-3.14159,0.308409,-3.14159
2.42436,-12.0932,0,-78.1484,-18.9543,0,-4.83246,-3.14159,0.313223,-3.14159
2.42836,-12.1688,0,-78.1681,-18.9124,0,-4.91877,-3.14159,0.318033,-3.14159
2.43236,-12.2443,0,-78.1881,-18.87,0,-5.0046,-3.14159,0.322835,-3.14159
2.43636,-12.3196,0,-78.2085,-18.8271,0,-5.08998,-3.14159,0.327632,-3.14159
2.44036,-12.3948,0,-78.2292,-18.7837,0,-5.17492,-3.14159,0.332423,-3.14159
2.44436,-12.4698,0,-78.2502,-18.7397,0,-5.25942,-3.14159,0.337209,-3.14159
2.44836,-12.5445,0,-78.2716,-18.6952,0,-5.34344,-3.14159,0.341988,-3.14159
2.45236,-12.6191,0,-78.2933,-18.6503,0,-5.427,-3.14159,0.346761,-3.14159
2.45636,-12.6936,0,-78.3153,-18.6048,0,-5.51011,-3.14159,0.351529,-3.14159
2.46036,-12.7678,0,-78.3377,-18.5589,0,-5.59276,-3.14159,0.356291,-3.14159
2.46436,-12.8419,0,-78.3604,-18.5125,0,-5.67491,-3.14159,0.361046,-3.14159
2.46836,-12.9158,0,-78.3835,-18.4656,0,-5.75662,-3.14159,0.365796,-3.14159
2.47236,-12.9894,0,-78.4068,-18.4183,0,-5.83784,-3.14159,0.370539,-3.14159
2.47636,-13.0629,0,-78.4305,-18.3705,0,-5.91857,-3.14159,0.375276,-3.14159
2.48036,-13.1362,0,-78.4545,-18.3222,0,-5.99882,-3.14159,0.380007,-3.14159
2.48436,-13.2093,0,-78.4788,-18.2734,0,-6.07857,-3.14159,0.384731,-3.14159
2.48836,-13.2822,0,-78.5034,-18.2242,0,-6.15783,-3.14159,0.389449,-3.14159
2.49236,-13.3549,0,-78.5284,-18.1746,0,-6.2366,-3.14159,0.39416,-3.14159
2.49636,-13.4274,0,-78.5536,-18.1245,0,-6.31489,-3.14159,0.398866,-3.14159
2.50036,-13.4997,0,-78.5792,-18.074,0,-6.39267,-3.14159,0.403565,-3.14159
2.50436,-13.5718,0,-78.6051,-18.023,0,-6.46994,-3.14159,0.408257,-3.14159
2.50836,-13.6437,0,-78.6313,-17.9716,0,-6.54673,-3.14159,0.412945,-3.14159
2.51237,-13.7154,0,-78.6578,-17.9198,0,-6.62301,-3.14159,0.417625,-3.14159
2.51637,-13.7869,0,-78.6846,-17.8676,0,-6.69876,-3.14159,0.422299,-3.14159
2.52037,-13.8582,0,-78.7117,-17.815,0,-6.77402,-3.14159,0.426966,-3.14159
2.52437,-13.9292,0,-78.7391,-17.7619,0,-6.84876,-3.14159,0.431628,-3.14159
2.52837,-14.0001,0,-78.7668,-17.7085,0,-6.92297,-3.14159,0.436281,-3.14159
2.53237,-14.0707,0,-78.7948,-17.6546,0,-6.99668,-3.14159,0.440929,-3.14159
2.53637,-14.1411,0,-78.8231,-17.6004,0,-7.06985,-3.14159,0.44557,-3.14159
2.54037,-14.2113,0,-78.8516,-17.5458,0,-7.14249,-3.14159,0.450204,-3.14159
2.54437,-14.2813,0,-78.8805,-17.4908,0,-7.21461,-3.14159,0.454831,-3.14159
2.54837,-14.351,0,-78.9096,-17.4354,0,-7.28622,-3.14159,0.459453,-3.14159
2.55237,-14.4205,0,-78.9391,-17.3796,0,-7.35728,-3.14159,0.464067,-3.14159
2.55637,-14.4898,0,-78.9688,-17.3235,0,-7.42781,-3.14159,0.468674,-3.14159
2.56037,-14.5589,0,-78.9988,-17.2671,0,-7.4978,-3.14159,0.473274,-3.14159
2.56437,-14.6278,0,-79.029,-17.2102,0,-7.56728,-3.14159,0.477869,-3.14159
2.56837,-14.6964,0,-79.0596,-17.153,0,-7.6362,-3.14159,0.482456,-3.14159
2.57237,-14.7648,0,-79.0904,-17.0955,0,-7.70457,-3.14159,0.487036,-3.14159
2.57637,-14.8329,0,-79.1215,-17.0376,0,-7.77243,-3.14159,0.49161,-3.14159
2.58037,-14.9009,0,-79.1529,-16.9794,0,-7.83974,-3.14159,0.496178,-3.14159
2.58437,-14.9685,0,-79.1845,-16.9208,0,-7.90648,-3.14159,0.500737,-3.14159
2.58837,-15.036,0,-79.2164,-16.8619,0,-7.97269,-3.14159,0.505291,-3.14159
2.59237,-15.1032,0,-79.2485,-16.8027,0,-8.03834,-3.14159,0.509836,-3.14159
2.59637,-15.1702,0,-79.281,-16.7432,0,-8.10344,-3.14159,0.514375,-3.14159
2.60037,-15.2369,0,-79.3136,-16.6834,0,-8.16799,-3.14159,0.518906,-3.14159
2.60437,-15.3034,0,-79.3466,-16.6233,0,-8.232,-3.14159,0.523432,-3.14159
2.60837,-15.3697,0,-79.3797,-16.5628,0,-8.29544,-3.14159,0.52795,-3.14159
2.61237,-15.4357,0,-79.4132,-16.5021,0,-8.35833,-3.14159,0.53246,-3.14159
2.61637,-15.5015,0,-79.4469,-16.4411,0,-8.42067,-3.14159,0.536964,-3.14159
2.62038,-15.567,0,-79.4808,-16.3798,0,-8.48246,-3.14159,0.541461,-3.14159
2.62438,-15.6323,0,-79.515,-16.3182,0,-8.54372,-3.14159,0.545953,-3.14159
2.62838,-15.6974,0,-79.5494,-16.2563,0,-8.60439,-3.14159,0.550437,-3.14159
2.63238,-15.7621,0,-79.5841,-16.1942,0,-8.66449,-3.14159,0.554911,-3.14159
2.63638,-15.8267,0,-79.619,-16.1319,0,-8.72404,-3.14159,0.55938,-3.14159
2.64038,-15.891,0,-79.6541,-16.0692,0,-8.78303,-3.14159,0.563842,-3.14159
2.64438,-15.955,0,-79.6895,-16.0063,0,-8.84143,-3.14159,0.568295,-3.14159
2.64838,-16.0188,0,-79.7251,-15.9431,0,-8.89929,-3.14159,0.572741,-3.14159
2.65238,-16.0823,0,-79.7609,-15.8798,0,-8.95658,-3.14159,0.577181,-3.14159
2.65638,-16.1456,0,-79.797,-15.8161,0,-9.01329,-3.14159,0.581612,-3.14159
2.66038,-16.2086,0,-79.8333,-15.7523,0,-9.06944,-3.14159,0.586037,-3.14159
2.66438,-16.2714,0,-79.8698,-15.6882,0,-9.12502,-3.14159,0.590454,-3.14159
2.66838,-16.3339,0,-79.9065,-15.6239,0,-9.18003,-3.14159,0.594863,-3.14159
2.67238,-16.3961,0,-79.9434,-15.5593,0,-9.23447,-3.14159,0.599265,-3.14159
2.67639,-16.4581,0,-79.9806,-15.4946,0,-9.28836,-3.14159,0.60366,-3.14159
2.68039,-16.5198,0,-80.018,-15.4297,0,-9.34166,-3.14159,0.608047,-3.14159
2.68439,-16.5813,0,-80.0555,-15.3645,0,-9.3944,-3.14159,0.612426,-3.14159
2.68839,-16.6425,0,-80.0933,-15.2992,0,-9.44658,-3.14159,0.616799,-3.14159
2.69239,-16.7034,0,-80.1313,-15.2336,0,-9.49819,-3.14159,0.621165,-3.14159
2.69639,-16.7641,0,-80.1695,-15.1679,0,-9.54922,-3.14159,0.625521,-3.14159
2.70039,-16.8245,0,-80.2079,-15.102,0,-9.59969,-3.14159,0.629871,-3.14159
2.70439,-16.8847,0,-80.2465,-15.0359,0,-9.64958,-3.14159,0.634214,-3.14159
2.70839,-16.9446,0,-80.2853,-14.9696,0,-9.6989,-3.14159,0.638548,-3.14159
2.71239,-17.0042,0,-80.3243,-14.9032,0,-9.74766,-3.14159,0.642876,-3.14159
2.71639,-17.0635,0,-80.3635,-14.8366,0,-9.79584,-3.14159,0.647195,-3.14159
2.72039,-17.1226,0,-80.4029,-14.7698,0,-9.84344,-3.14159,0.651506,-3.14159
2.72439,-17.1814,0,-80.4425,-14.7029,0,-9.89048,-3.14159,0.655809,-3.14159
2.72839,-17.24,0,-80.4822,-14.6359,0,-9.93695,-3.14159,0.660106,-3.14159
2.73239,-17.2983,0,-80.5221,-14.5687,0,-9.98286,-3.14159,0.664394,-3.14159
2.73639,-17.3563,0,-80.5623,-14.5013,0,-10.0282,-3.14159,0.668674,-3.14159
2.74039,-17.414,0,-80.6026,-14.4339,0,-10.0729,-3.14159,0.672947,-3.14159
2.74439,-17.4715,0,-80.643,-14.3662,0,-10.1171,-3.14159,0.677213,-3.14159
2.74839,-17.5287,0,-80.6837,-14.2985,0,-10.1608,-3.14159,0.68147,-3.14159
2.75239,-17.5856,0,-80.7245,-14.2307,0,-10.2038,-3.14159,0.685719,-3.14159
2.75639,-17.6423,0,-80.7655,-14.1627,0,-10.2463,-3.14159,0.689962,-3.14159
2.76039,-17.6986,0,-80.8066,-14.0947,0,-10.2882,-3.14159,0.694196,-3.14159
2.76439,-17.7548,0,-80.848,-14.0265,0,-10.3296,-3.14159,0.698422,-3.14159
2.7684,-17.8106,0,-80.8895,-13.9582,0,-10.3704,-3.14159,0.702641,-3.14159
2.7724,-17.8662,0,-80.9311,-13.8898,0,-10.4106,-3.14159,0.706852,-3.14159
2.7764,-17.9215,0,-80.9729,-13.8213,0,-10.4503,-3.14159,0.711054,-3.14159
2.7804,-17.9765,0,-81.0149,-13.7528,0,-10.4894,-3.14159,0.715249,-3.14159
2.7844,-18.0312,0,-81.057,-13.6841,0,-10.5279,-3.14159,0.719435,-3.14159
2.7884,-18.0857,0,-81.0993,-13.6154,0,-10.5659,-3.14159,0.723613,-3.14159
2.7924,-18.1399,0,-81.1417,-13.5466,0,-10.6033,-3.14159,0.727783,-3.14159
2.7964,-18.1938,0,-81.1842,-13.4778,0,-10.6401,-3.14159,0.731946,-3.14159
2.8004,-18.2474,0,-81.227,-13.4088,0,-10.6764,-3.14159,0.7361,-3.14159
2.8044,-18.3008,0,-81.2698,-13.3399,0,-10.7121,-3.14159,0.740247,-3.14159
2.8084,-18.3539,0,-81.3128,-13.2708,0,-10.7473,-3.14159,0.744386,-3.14159
2.8124,-18.4067,0,-81.3559,-13.2017,0,-10.7819,-3.14159,0.748517,-3.14159
2.8164,-18.4592,0,-81.3992,-13.1325,0,-10.816,-3.14159,0.752638,-3.14159
2.8204,-18.5115,0,-81.4426,-13.0633,0,-10.8495,-3.14159,0.756753,-3.14159
2.8244,-18.5635,0,-81.4862,-12.9941,0,-10.8824,-3.14159,0.76086,-3.14159
2.8284,-18.6152,0,-81.5298,-12.9248,0,-10.9148,-3.14159,0.764957,-3.14159
2.8324,-18.6666,0,-81.5736,-12.8555,0,-10.9467,-3.14159,0.769048,-3.14159
2.8364,-18.7178,0,-81.6175,-12.7862,0,-10.978,-3.14159,0.773129,-3.14159
2.8404,-18.7686,0,-81.6616,-12.7169,0,-11.0087,-3.14159,0.777202,-3.14159
2.8444,-18.8192,0,-81.7057,-12.6475,0,-11.0389,-3.14159,0.781267,-3.14159
2.8484,-18.8696,0,-81.75,-12.5782,0,-11.0686,-3.14159,0.785325,-3.14159
2.8524,-18.9196,0,-81.7944,-12.5088,0,-11.0977,-3.14159,0.789373,-3.14159
2.85641,-18.9693,0,-81.8389,-12.4394,0,-11.1262,-3.14159,0.793414,-3.14159
2.86041,-19.0188,0,-81.8835,-12.37,0,-11.1543,-3.14159,0.797446,-3.14159
2.86441,-19.0681,0,-81.9283,-12.3006,0,-11.1817,-3.14159,0.801471,-3.14159
2.86841,-19.117,0,-81.9731,-12.2312,0,-11.2087,-3.14159,0.805487,-3.14159
2.87241,-19.1656,0,-82.0181,-12.1618,0,-11.2351,-3.14159,0.809495,-3.14159
2.87641,-19.214,0,-82.0631,-12.0924,0,-11.261,-3.14159,0.813495,-3.14159
2.88041,-19.2621,0,-82.1083,-12.0231,0,-11.2863,-3.14159,0.817485,-3.14159
2.88441,-19.3099,0,-82.1535,-11.9538,0,-11.3111,-3.14159,0.821468,-3.14159
2.88841,-19.3575,0,-82.1989,-11.8845,0,-11.3354,-3.14159,0.825443,-3.14159
2.89241,-19.4048,0,-82.2443,-11.8152,0,-11.3591,-3.14159,0.829409,-3.14159
2.89641,-19.4517,0,-82.2898,-11.746,0,-11.3823,-3.14159,0.833367,-3.14159
2.90041,-19.4985,0,-82.3355,-11.6768,0,-11.405,-3.14159,0.837315,-3.14159
2.90441,-19.5449,0,-82.3812,-11.6077,0,-11.4272,-3.14159,0.841256,-3.14159
2.90841,-19.591,0,-82.427,-11.5386,0,-11.4488,-3.14159,0.845188,-3.14159
2.91241,-19.6369,0,-82.4729,-11.4695,0,-11.4699,-3.14159,0.849112,-3.14159
2.91641,-19.6825,0,-82.5188,-11.4005,0,-11.4905,-3.14159,0.853027,-3.14159
2.92041,-19.7279,0,-82.5649,-11.3315,0,-11.5106,-3.14159,0.856934,-3.14159
2.92441,-19.7729,0,-82.611,-11.2626,0,-11.5302,-3.14159,0.860833,-3.14159
2.92841,-19.8177,0,-82.6572,-11.1938,0,-11.5492,-3.14159,0.864724,-3.14159
2.93242,-19.8622,0,-82.7035,-11.125,0,-11.5677,-3.14159,0.868605,-3.14159
2.93642,-19.9065,0,-82.7499,-11.0562,0,-11.5858,-3.14159,0.872484,-3.14159
2.94042,-19.9505,0,-82.7963,-10.9876,0,-11.6033,-3.14159,0.876349,-3.14159
2.94442,-19.9941,0,-82.8428,-10.9191,0,-11.6203,-3.14159,0.880204,-3.14159
2.94842,-20.0375,0,-82.8894,-10.8506,0,-11.6368,-3.14159,0.884053,-3.14159
2.95242,-20.0807,0,-82.936,-10.7822,0,-11.6528,-3.14159,0.887892,-3.14159
2.95642,-20.1235,0,-82.9827,-10.7139,0,-11.6683,-3.14159,0.891722,-3.14159
2.96042,-20.1661,0,-83.0294,-10.6457,0,-11.6833,-3.14159,0.895545,-3.14159
2.96442,-20.2084,0,-83.0762,-10.5776,0,-11.6979,-3.14159,0.899358,-3.14159
2.96842,-20.2505,0,-83.123,-10.5095,0,-11.7119,-3.14159,0.903163,-3.14159
2.97242,-20.2923,0,-83.1699,-10.4416,0,-11.7254,-3.14159,0.906958,-3.14159
2.97643,-20.3338,0,-83.2169,-10.3738,0,-11.7384,-3.14159,0.910747,-3.14159
2.98043,-20.375,0,-83.2639,-10.3061,0,-11.751,-3.14159,0.914525,-3.14159
2.98443,-20.4159,0,-83.311,-10.2385,0,-11.763,-3.14159,0.918296,-3.14159
2.98843,-20.4566,0,-83.3581,-10.171,0,-11.7746,-3.14159,0.922057,-3.14159
2.99243,-20.497,0,-83.4052,-10.1036,0,-11.7857,-3.14159,0.925811,-3.14159
2.99643,-20.5372,0,-83.4524,-10.0364,0,-11.7963,-3.14159,0.929555,-3.14159
3.00043,-20.5771,0,-83.4996,-9.96922,0,-11.8065,-3.14159,0.933291,-3.14159
3.00443,-20.6167,0,-83.5469,-9.90219,0,-11.8162,-3.14159,0.937019,-3.14159
3.00843,-20.656,0,-83.5942,-9.8353,0,-11.8254,-3.14159,0.940738,-3.14159
3.01243,-20.6951,0,-83.6415,-9.76854,0,-11.8341,-3.14159,0.944447,-3.14159
3.01643,-20.7339,0,-83.6889,-9.7019,0,-11.8424,-3.14159,0.948149,-3.14159
3.02043,-20.7725,0,-83.7363,-9.6354,0,-11.8502,-3.14159,0.951842,-3.14159
3.02443,-20.8108,0,-83.7838,-9.56906,0,-11.8575,-3.14159,0.955526,-3.14159
3.02843,-20.8488,0,-83.8312,-9.50283,0,-11.8644,-3.14159,0.959202,-3.14159
3.03243,-20.8865,0,-83.8787,-9.43677,0,-11.8708,-3.14159,0.962868,-3.14159
3.03643,-20.924,0,-83.9262,-9.37086,0,-11.8768,-3.14159,0.966525,-3.14159
3.04043,-20.9612,0,-83.9738,-9.30509,0,-11.8823,-3.14159,0.970174,-3.14159
3.04443,-20.9982,0,-84.0213,-9.23945,0,-11.8873,-3.14159,0.973815,-3.14159
3.04843,-21.0349,0,-84.0689,-9.17398,0,-11.892,-3.14159,0.977446,-3.14159
3.05243,-21.0713,0,-84.1165,-9.10868,0,-11.8961,-3.14159,0.981068,-3.14159
3.05643,-21.1075,0,-84.1641,-9.04351,0,-11.8999,-3.14159,0.984683,-3.14159
3.06043,-21.1434,0,-84.2117,-8.9785,0,-11.9031,-3.14159,0.988289,-3.14159
3.06444,-21.1791,0,-84.2593,-8.91367,0,-11.906,-3.14159,0.991885,-3.14159
3.06844,-21.2145,0,-84.307,-8.849,0,-11.9084,-3.14159,0.995473,-3.14159
3.07244,-21.2496,0,-84.3546,-8.78449,0,-11.9104,-3.14159,0.999053,-3.14159
3.07644,-21.2845,0,-84.4023,-8.72017,0,-11.9119,-3.14159,1.00262,-3.14159
3.08044,-21.3191,0,-84.4499,-8.656,0,-11.913,-3.14159,1.00618,-3.14159
3.08444,-21.3535,0,-84.4976,-8.59203,0,-11.9137,-3.14159,1.00974,-3.14159
3.08844,-21.3876,0,-84.5452,-8.52824,0,-11.914,-3.14159,1.01328,-3.14159
3.09244,-21.4215,0,-84.5929,-8.46462,0,-11.9138,-3.14159,1.01681,-3.14159
3.09644,-21.4551,0,-84.6406,-8.40117,0,-11.9133,-3.14159,1.02034,-3.14159
3.10044,-21.4885,0,-84.6882,-8.33792,0,-11.9123,-3.14159,1.02386,-3.14159
3.10444,-21.5216,0,-84.7359,-8.27486,0,-11.9109,-3.14159,1.02737,-3.14159
3.10844,-21.5544,0,-84.7835,-8.21199,0,-11.9091,-3.14159,1.03087,-3.14159
3.11244,-21.587,0,-84.8311,-8.14929,0,-11.9068,-3.14159,1.03436,-3.14159
3.11644,-21.6194,0,-84.8788,-8.0868,0,-11.9042,-3.14159,1.03784,-3.14159
3.12044,-21.6515,0,-84.9264,-8.0245,0,-11.9012,-3.14159,1.04131,-3.14159
3.12444,-21.6833,0,-84.974,-7.96239,0,-11.8978,-3.14159,1.04478,-3.14159
3.12844,-21.7149,0,-85.0215,-7.90047,0,-11.8939,-3.14159,1.04823,-3.14159
3.13244,-21.7463,0,-85.0691,-7.83876,0,-11.8897,-3.14159,1.05168,-3.14159
3.13644,-21.7774,0,-85.1167,-7.77725,0,-11.8851,-3.14159,1.05512,-3.14159
3.14044,-21.8083,0,-85.1642,-7.71595,0,-11.8801,-3.14159,1.05855,-3.14159
3.14444,-21.8389,0,-85.2117,-7.65486,0,-11.8747,-3.14159,1.06197,-3.14159
3.14844,-21.8693,0,-85.2592,-7.59398,0,-11.8689,-3.14159,1.06538,-3.14159
3.15244,-21.8994,0,-85.3066,-7.53329,0,-11.8628,-3.14159,1.06878,-3.14159
3.15645,-21.9293,0,-85.3541,-7.47274,0,-11.8562,-3.14159,1.07218,-3.14159
3.16045,-21.959,0,-85.4015,-7.41249,0,-11.8493,-3.14159,1.07556,-3.14159
3.16445,-21.9884,0,-85.4489,-7.35244,0,-11.842,-3.14159,1.07894,-3.14159
3.16845,-22.0176,0,-85.4962,-7.29261,0,-11.8343,-3.14159,1.08231,-3.14159
3.17245,-22.0465,0,-85.5435,-7.23302,0,-11.8263,-3.14159,1.08566,-3.14159
3.17645,-22.0752,0,-85.5908,-7.17362,0,-11.8179,-3.14159,1.08901,-3.14159
3.18045,-22.1037,0,-85.6381,-7.11444,0,-11.8091,-3.14159,1.09235,-3.14159
3.18445,-22.1319,0,-85.6853,-7.0555,0,-11.8,-3.14159,1.09569,-3.14159
3.18845,-22.1599,0,-85.7324,-6.99677,0,-11.7905,-3.14159,1.09901,-3.14159
3.19245,-22.1876,0,-85.7796,-6.93826,0,-11.7807,-3.14159,1.10232,-3.14159
3.19646,-22.2152,0,-85.8267,-6.87999,0,-11.7705,-3.14159,1.10563,-3.14159
3.20046,-22.2425,0,-85.8737,-6.82194,0,-11.7599,-3.14159,1.10892,-3.14159
3.20446,-22.2695,0,-85.9207,-6.76412,0,-11.749,-3.14159,1.11221,-3.14159
3.20846,-22.2963,0,-85.9677,-6.70654,0,-11.7378,-3.14159,1.11549,-3.14159
3.21246,-22.3229,0,-86.0146,-6.64918,0,-11.7262,-3.14159,1.11876,-3.14159
3.21646,-22.3493,0,-86.0614,-6.59207,0,-11.7143,-3.14159,1.12202,-3.14159
3.22046,-22.3755,0,-86.1082,-6.53519,0,-11.702,-3.14159,1.12527,-3.14159
3.22446,-22.4014,0,-86.155,-6.47855,0,-11.6894,-3.14159,1.12851,-3.14159
3.22846,-22.4271,0,-86.2017,-6.42213,0,-11.6765,-3.14159,1.13175,-3.14159
3.23246,-22.4525,0,-86.2484,-6.36597,0,-11.6632,-3.14159,1.13497,-3.14159
3.23646,-22.4778,0,-86.295,-6.31004,0,-11.6496,-3.14159,1.13819,-3.14159
3.24046,-22.5028,0,-86.3415,-6.25434,0,-11.6357,-3.14159,1.14139,-3.14159
3.24446,-22.5276,0,-86.388,-6.19888,0,-11.6215,-3.14159,1.14459,-3.14159
3.24846,-22.5522,0,-86.4345,-6.14368,0,-11.6069,-3.14159,1.14778,-3.14159
3.25246,-22.5765,0,-86.4808,-6.0887,0,-11.592,-3.14159,1.15096,-3.14159
3.25646,-22.6007,0,-86.5272,-6.03397,0,-11.5768,-3.14159,1.15413,-3.14159
3.26046,-22.6246,0,-86.5734,-5.9795,0,-11.5613,-3.14159,1.1573,-3.14159
3.26446,-22.6483,0,-86.6196,-5.92527,0,-11.5455,-3.14159,1.16045,-3.14159
3.26846,-22.6718,0,-86.6657,-5.87127,0,-11.5294,-3.14159,1.16359,-3.14159
3.27246,-22.6951,0,-86.7118,-5.81755,0,-11.513,-3.14159,1.16673,-3.14159
3.27647,-22.7181,0,-86.7578,-5.76406,0,-11.4962,-3.14159,1.16986,-3.14159
3.28047,-22.741,0,-86.8037,-5.71083,0,-11.4792,-3.14159,1.17298,-3.14159
3.28447,-22.7636,0,-86.8495,-5.65785,0,-11.4619,-3.14159,1.17608,-3.14159
3.28847,-22.786,0,-86.8953,-5.60513,0,-11.4443,-3.14159,1.17918,-3.14159
3.29247,-22.8082,0,-86.941,-5.55264,0,-11.4264,-3.14159,1.18228,-3.14159
3.29647,-22.8302,0,-86.9866,-5.50042,0,-11.4082,-3.14159,1.18536,-3.14159
3.30047,-22.852,0,-87.0322,-5.44845,0,-11.3897,-3.14159,1.18843,-3.14159
3.30447,-22.8736,0,-87.0777,-5.39673,0,-11.3709,-3.14159,1.1915,-3.14159
3.30847,-22.895,0,-87.1231,-5.34526,0,-11.3519,-3.14159,1.19455,-3.14159
3.31247,-22.9162,0,-87.1684,-5.29406,0,-11.3325,-3.14159,1.1976,-3.14159
3.31647,-22.9372,0,-87.2137,-5.2431,0,-11.3129,-3.14159,1.20064,-3.14159
3.32047,-22.9579,0,-87.2589,-5.1924,0,-11.293,-3.14159,1.20367,-3.14159
3.32447,-22.9785,0,-87.304,-5.14198,0,-11.2729,-3.14159,1.20669,-3.14159
3.32847,-22.9989,0,-87.349,-5.09179,0,-11.2525,-3.14159,1.2097,-3.14159
3.33247,-23.019,0,-87.3939,-5.04188,0,-11.2318,-3.14159,1.2127,-3.14159
3.33647,-23.039,0,-87.4388,-4.99223,0,-11.2108,-3.14159,1.2157,-3.14159
3.34047,-23.0588,0,-87.4835,-4.94284,0,-11.1896,-3.14159,1.21868,-3.14159
3.34447,-23.0784,0,-87.5282,-4.8937,0,-11.1681,-3.14159,1.22166,-3.14159
3.34847,-23.0977,0,-87.5728,-4.84483,0,-11.1464,-3.14159,1.22463,-3.14159
3.35247,-23.1169,0,-87.6173,-4.79622,0,-11.1244,-3.14159,1.22759,-3.14159
3.35647,-23.1359,0,-87.6617,-4.74787,0,-11.1022,-3.14159,1.23054,-3.14159
3.36047,-23.1547,0,-87.706,-4.69977,0,-11.0797,-3.14159,1.23348,-3.14159
3.36447,-23.1733,0,-87.7503,-4.65195,0,-11.0569,-3.14159,1.23641,-3.14159
3.36847,-23.1917,0,-87.7944,-4.60438,0,-11.034,-3.14159,1.23933,-3.14159
3.37247,-23.21,0,-87.8385,-4.55707,0,-11.0107,-3.14159,1.24225,-3.14159
3.37648,-23.228,0,-87.8824,-4.51003,0,-10.9873,-3.14159,1.24515,-3.14159
3.38048,-23.2459,0,-87.9263,-4.46326,0,-10.9636,-3.14159,1.24805,-3.14159
3.38448,-23.2635,0,-87.97,-4.41674,0,-10.9396,-3.14159,1.25094,-3.14159
3.38848,-23.281,0,-88.0137,-4.3705,0,-10.9154,-3.14159,1.25382,-3.14159
3.39248,-23.2983,0,-88.0573,-4.32452,0,-10.891,-3.14159,1.25669,-3.14159
3.39648,-23.3154,0,-88.1007,-4.2788,0,-10.8664,-3.14159,1.25955,-3.14159
3.40048,-23.3324,0,-88.1441,-4.23335,0,-10.8415,-3.14159,1.26241,-3.14159
3.40448,-23.3491,0,-88.1874,-4.18816,0,-10.8165,-3.14159,1.26525,-3.14159
3.40848,-23.3657,0,-88.2306,-4.14324,0,-10.7912,-3.14159,1.26808,-3.14159
3.41248,-23.3821,0,-88.2736,-4.09859,0,-10.7656,-3.14159,1.27091,-3.14159
3.41648,-23.3983,0,-88.3166,-4.05418,0,-10.7399,-3.14159,1.27373,-3.14159
3.42048,-23.4144,0,-88.3594,-4.01006,0,-10.7139,-3.14159,1.27654,-3.14159
3.42448,-23.4302,0,-88.4022,-3.9662,0,-10.6878,-3.14159,1.27934,-3.14159
3.42848,-23.4459,0,-88.4448,-3.9226,0,-10.6614,-3.14159,1.28213,-3.14159
3.43248,-23.4614,0,-88.4874,-3.87926,0,-10.6348,-3.14159,1.28492,-3.14159
3.43648,-23.4768,0,-88.5298,-3.8362,0,-10.608,-3.14159,1.28769,-3.14159
3.44048,-23.492,0,-88.5722,-3.79339,0,-10.581,-3.14159,1.29046,-3.14159
3.44448,-23.507,0,-88.6144,-3.75085,0,-10.5538,-3.14159,1.29322,-3.14159
3.44848,-23.5218,0,-88.6565,-3.70858,0,-10.5264,-3.14159,1.29597,-3.14159
3.45248,-23.5365,0,-88.6985,-3.66657,0,-10.4988,-3.14159,1.29871,-3.14159
3.45648,-23.551,0,-88.7404,-3.62484,0,-10.471,-3.14159,1.30144,-3.14159
3.46048,-23.5653,0,-88.7822,-3.58336,0,-10.443,-3.14159,1.30416,-3.14159
3.46448,-23.5795,0,-88.8238,-3.54216,0,-10.4148,-3.14159,1.30687,-3.14159
3.46848,-23.5935,0,-88.8654,-3.50121,0,-10.3864,-3.14159,1.30958,-3.14159
3.47248,-23.6073,0,-88.9068,-3.46053,0,-10.3579,-3.14159,1.31228,-3.14159
