t,x,y,z,vx,vy,vz,roll,pitch,yaw
0,0,0,-100,10,0,0,0,0,0
0.004001,0,0,-100,10,0,0,0,0,0
0.008002,0.0399786,2.06703e-05,-99.9997,9.99214,0.00516629,0.0730648,-2.11446e-05,7.86566e-05,-0.00246776
0.012003,0.0799242,3.77783e-05,-99.9992,9.98392,0.00427592,0.132588,-3.94898e-05,0.000237846,-0.00131968
0.016004,0.119837,5.58159e-05,-99.9985,9.97573,0.00450827,0.181061,-5.81345e-05,0.000478707,-0.00126165
0.020005,0.159718,7.3505e-05,-99.9976,9.96764,0.00442119,0.222251,-7.62385e-05,0.000800847,-0.000938179
0.024005,0.199556,9.12313e-05,-99.9965,9.95968,0.00443156,0.257643,-9.40442e-05,0.00119523,-0.000745645
0.028005,0.239364,0.000108887,-99.9954,9.95187,0.00441403,0.287916,-0.000111418,0.00165407,-0.000556898
0.032006,0.279151,0.000126516,-99.9941,9.94424,0.00440596,0.313669,-0.000128402,0.00217052,-0.000403834
0.036007,0.318908,0.000144103,-99.9928,9.93677,0.00439575,0.3356,-0.000145002,0.00273844,-0.000271981
0.040008,0.358635,0.000161653,-99.9914,9.92944,0.00438645,0.35431,-0.000161231,0.00334958,-0.000160443
0.044008,0.398325,0.000179162,-99.9899,9.92227,0.00437708,0.370126,-0.000177092,0.00399452,-6.55329e-05
0.048009,0.437995,0.000196637,-99.9883,9.91524,0.00436773,0.383362,-0.000192604,0.00466535,1.50491e-05
0.052009,0.477629,0.00021407,-99.9868,9.90833,0.00435822,0.394287,-0.000207771,0.00535431,8.34514e-05
0.056009,0.517235,0.000231464,-99.9852,9.90155,0.00434846,0.403158,-0.000222608,0.00605498,0.000141469
0.06001,0.556824,0.000248821,-99.9835,9.89487,0.00433837,0.410208,-0.00023713,0.00676166,0.00019064
0.06401,0.596378,0.000266133,-99.9819,9.8883,0.00432789,0.41564,-0.000251339,0.00746878,0.000232242
0.068011,0.635915,0.000283405,-99.9802,9.88181,0.00431696,0.419651,-0.000265252,0.00817208,0.000267396
0.072011,0.675416,0.000300627,-99.9785,9.87539,0.00430553,0.422396,-0.00027887,0.00886713,0.000296812
0.076011,0.714892,0.000317801,-99.9768,9.86904,0.0042935,0.424037,-0.000292202,0.00955053,0.000321615
0.080012,0.754353,0.000334929,-99.9751,9.86274,0.00428095,0.424719,-0.000305259,0.0102201,0.000342394
0.084012,0.793779,0.000352001,-99.9734,9.85649,0.00426783,0.424572,-0.000318041,0.0108754,0.000359748
0.088013,0.83319,0.000369021,-99.9717,9.85027,0.00425415,0.423712,-0.000330561,0.0115165,0.000374174
0.092013,0.872567,0.000385981,-99.97,9.84409,0.0042399,0.422241,-0.00034282,0.0121429,0.000386084
0.096014,0.911928,0.000402886,-99.9683,9.83794,0.00422508,0.420249,-0.000354828,0.0127548,0.000395849
0.100014,0.951255,0.000419724,-99.9667,9.8318,0.0042097,0.417814,-0.000366585,0.0133519,0.000403773
0.104014,0.990558,0.000436499,-99.965,9.82568,0.00419376,0.415007,-0.0003781,0.013934,0.000410119
0.108015,1.02985,0.000453213,-99.9634,9.81957,0.00417727,0.411888,-0.000389379,0.0145014,0.000415118
0.112015,1.0691,0.000469854,-99.9617,9.81347,0.00416025,0.408513,-0.000400423,0.0150537,0.000418953
0.116016,1.10834,0.000486429,-99.9601,9.80737,0.0041427,0.40493,-0.000411241,0.0155911,0.000421802
0.120016,1.14754,0.000502927,-99.9585,9.80127,0.00412465,0.401182,-0.000421832,0.0161133,0.000423793
0.124016,1.18673,0.000519352,-99.9569,9.79518,0.00410609,0.397305,-0.000432204,0.0166205,0.000425054
0.128017,1.22589,0.000535704,-99.9553,9.78908,0.00408705,0.393331,-0.000442363,0.0171126,0.000425688
0.132018,1.26503,0.000551978,-99.9538,9.78298,0.00406754,0.389291,-0.000452312,0.0175897,0.000425783
0.136018,1.30414,0.000568168,-99.9522,9.77687,0.00404758,0.385212,-0.000462052,0.0180515,0.000425415
0.140019,1.34323,0.000584281,-99.9507,9.77076,0.00402718,0.381113,-0.000471592,0.0184983,0.000424646
0.144019,1.38229,0.000600307,-99.9492,9.76464,0.00400635,0.377016,-0.000480931,0.0189299,0.00042354
0.14802,1.42134,0.000616251,-99.9477,9.75851,0.00398512,0.372938,-0.000490079,0.0193465,0.000422135
0.15202,1.46034,0.000632105,-99.9462,9.75238,0.00396349,0.368895,-0.000499034,0.019748,0.000420477
0.156021,1.49934,0.000647875,-99.9448,9.74623,0.00394148,0.364899,-0.000507804,0.0201345,0.000418601
0.160021,1.5383,0.000663551,-99.9433,9.74008,0.00391911,0.360964,-0.00051639,0.020506,0.000416536
0.164022,1.57725,0.000679141,-99.9419,9.73392,0.00389637,0.357099,-0.0005248,0.0208625,0.000414309
0.168022,1.61616,0.000694634,-99.9405,9.72776,0.00387331,0.353313,-0.000533032,0.021204,0.000411942
0.172023,1.65505,0.000710037,-99.9391,9.72158,0.00384991,0.349615,-0.000541095,0.0215306,0.000409458
0.176023,1.69391,0.000725342,-99.9377,9.7154,0.00382621,0.346011,-0.000548988,0.0218423,0.000406865
0.180024,1.73276,0.000740555,-99.9364,9.70921,0.0038022,0.342507,-0.000556719,0.0221392,0.000404183
0.184024,1.77157,0.000755666,-99.935,9.70301,0.0037779,0.33911,-0.000564287,0.0224213,0.000401424
0.188025,1.81037,0.000770684,-99.9337,9.6968,0.00375332,0.335822,-0.000571699,0.0226886,0.000398595
0.192025,1.84913,0.000785597,-99.9323,9.69059,0.00372848,0.33265,-0.000578956,0.0229411,0.000395711
0.196026,1.88788,0.000800415,-99.931,9.68437,0.00370338,0.329595,-0.000586063,0.023179,0.000392776
0.200026,1.92659,0.000815127,-99.9297,9.67815,0.00367803,0.326661,-0.000593021,0.0234022,0.000389798
0.204027,1.96529,0.00082974,-99.9284,9.67192,0.00365245,0.32385,-0.000599836,0.0236109,0.00038678
0.208027,2.00395,0.000844247,-99.9271,9.66569,0.00362665,0.321164,-0.000606508,0.0238049,0.000383732
0.212028,2.0426,0.000858653,-99.9258,9.65945,0.00360062,0.318606,-0.000613043,0.0239845,0.000380653
0.216028,2.08121,0.00087295,-99.9246,9.6532,0.00357439,0.316177,-0.000619441,0.0241495,0.000377551
0.220029,2.11981,0.000887146,-99.9233,9.64696,0.00354796,0.313878,-0.000625708,0.0243002,0.000374426
0.224029,2.15837,0.000901231,-99.9221,9.64071,0.00352135,0.31171,-0.000631844,0.0244364,0.000371282
0.22803,2.19692,0.000915213,-99.9208,9.63446,0.00349455,0.309673,-0.000637854,0.0245584,0.000368124
0.23203,2.23543,0.000929083,-99.9196,9.62821,0.00346758,0.30777,-0.000643739,0.024666,0.000364951
0.236031,2.27393,0.000942849,-99.9184,9.62196,0.00344045,0.306,-0.000649503,0.0247594,0.000361764
0.240031,2.31239,0.000956501,-99.9172,9.6157,0.00341316,0.304363,-0.000655147,0.0248386,0.00035857
0.244032,2.35084,0.000970047,-99.916,9.60945,0.00338571,0.302859,-0.000660675,0.0249037,0.000355366
0.248032,2.38925,0.00098348,-99.9148,9.6032,0.00335814,0.30149,-0.000666088,0.0249546,0.000352153
0.252033,2.42765,0.000996805,-99.9136,9.59695,0.00333041,0.300254,-0.000671391,0.0249915,0.000348935
0.256034,2.46602,0.00101002,-99.9124,9.5907,0.00330256,0.299152,-0.000676584,0.0250143,0.00034571
0.260035,2.50437,0.00102312,-99.9112,9.58445,0.00327459,0.298184,-0.000681671,0.0250232,0.000342481
0.264035,2.54268,0.00103611,-99.91,9.57821,0.00324651,0.29735,-0.000686651,0.0250182,0.000339249
0.268035,2.58097,0.00104898,-99.9088,9.57198,0.00321831,0.296648,-0.000691529,0.0249993,0.000336015
0.272036,2.61924,0.00106174,-99.9076,9.56574,0.00319001,0.296079,-0.000696308,0.0249665,0.000332778
0.276036,2.65748,0.00107439,-99.9064,9.55951,0.00316162,0.295643,-0.000700988,0.02492,0.000329537
0.280037,2.6957,0.00108692,-99.9052,9.55329,0.00313312,0.295339,-0.000705573,0.0248597,0.000326296
0.284037,2.73389,0.00109934,-99.9041,9.54707,0.00310455,0.295166,-0.000710062,0.0247858,0.000323052
0.288038,2.77207,0.00111165,-99.9029,9.54086,0.00307589,0.295125,-0.000714461,0.0246981,0.000319811
0.292038,2.8102,0.00112384,-99.9017,9.53466,0.00304716,0.295214,-0.000718768,0.0245969,0.00031657
0.296039,2.84833,0.00113591,-99.9005,9.52846,0.00301835,0.295433,-0.000722988,0.0244821,0.000313326
0.300039,2.88642,0.00114787,-99.8993,9.52227,0.00298948,0.295782,-0.00072712,0.0243538,0.000310083
0.30404,2.92449,0.00115972,-99.8981,9.51609,0.00296054,0.296261,-0.000731169,0.024212,0.000306842
0.30804,2.96253,0.00117144,-99.897,9.50992,0.00293155,0.296867,-0.000735134,0.0240568,0.000303601
0.312041,3.00055,0.00118306,-99.8958,9.50375,0.0029025,0.297602,-0.000739019,0.0238882,0.000300361
0.316041,3.03854,0.00119455,-99.8946,9.4976,0.0028734,0.298464,-0.000742824,0.0237063,0.000297125
0.320042,3.07652,0.00120593,-99.8934,9.49146,0.00284426,0.299453,-0.000746551,0.023511,0.000293888
0.324042,3.11446,0.00121719,-99.8922,9.48533,0.00281508,0.300568,-0.000750202,0.0233026,0.000290653
0.328043,3.15239,0.00122834,-99.891,9.47921,0.00278586,0.301809,-0.000753779,0.0230809,0.000287421
0.332043,3.19028,0.00123936,-99.8898,9.4731,0.00275661,0.303174,-0.000757281,0.022846,0.00028419
0.336044,3.22816,0.00125028,-99.8885,9.467,0.00272733,0.304664,-0.000760714,0.022598,0.00028096
0.340044,3.266,0.00126107,-99.8873,9.46092,0.00269802,0.306277,-0.000764075,0.022337,0.000277733
0.344045,3.30383,0.00127174,-99.8861,9.45485,0.00266869,0.308014,-0.000767368,0.0220629,0.000274511
0.348045,3.34163,0.0012823,-99.8848,9.44879,0.00263934,0.309873,-0.000770594,0.0217758,0.000271291
0.352046,3.37941,0.00129274,-99.8836,9.44275,0.00260997,0.311855,-0.000773754,0.0214757,0.000268073
0.356046,3.41715,0.00130307,-99.8823,9.43672,0.0025806,0.313957,-0.000776849,0.0211628,0.000264859
0.360047,3.45489,0.00131327,-99.8811,9.43071,0.0025512,0.31618,-0.000779882,0.020837,0.000261646
0.364047,3.49258,0.00132336,-99.8798,9.42471,0.00252181,0.318522,-0.000782852,0.0204984,0.000258437
0.368048,3.53027,0.00133333,-99.8785,9.41872,0.00249241,0.320985,-0.000785762,0.0201469,0.000255233
0.372048,3.56792,0.00134319,-99.8772,9.41276,0.00246301,0.323566,-0.000788611,0.0197828,0.000252032
0.376049,3.60556,0.00135292,-99.8759,9.40681,0.00243361,0.326265,-0.000791404,0.0194059,0.000248834
0.380049,3.64316,0.00136254,-99.8746,9.40087,0.00240422,0.329082,-0.000794138,0.0190164,0.00024564
0.38405,3.68075,0.00137204,-99.8733,9.39495,0.00237483,0.332016,-0.000796818,0.0186142,0.00024245
0.38805,3.7183,0.00138142,-99.8719,9.38905,0.00234545,0.335065,-0.000799442,0.0181996,0.000239264
0.392051,3.75585,0.00139069,-99.8706,9.38317,0.00231608,0.338231,-0.000802013,0.0177723,0.000236083
0.396051,3.79336,0.00139984,-99.8692,9.37731,0.00228673,0.341512,-0.00080453,0.0173326,0.000232904
0.400052,3.83085,0.00140887,-99.8678,9.37146,0.00225739,0.344908,-0.000806997,0.0168803,0.00022973
0.404052,3.86831,0.00141778,-99.8664,9.36564,0.00222808,0.348416,-0.000809413,0.0164158,0.000226558
0.408053,3.90576,0.00142658,-99.865,9.35983,0.00219878,0.352039,-0.000811779,0.0159387,0.00022339
0.412053,3.94318,0.00143526,-99.8636,9.35404,0.0021695,0.355774,-0.000814096,0.0154495,0.000220229
0.416054,3.98058,0.00144382,-99.8621,9.34827,0.00214025,0.359622,-0.000816367,0.0149478,0.000217073
0.420054,4.01795,0.00145226,-99.8607,9.34252,0.00211103,0.363581,-0.00081859,0.014434,0.00021392
0.424055,4.05531,0.00146059,-99.8592,9.3368,0.00208183,0.367651,-0.000820768,0.0139078,0.000210772
0.428055,4.09263,0.0014688,-99.8577,9.33109,0.00205267,0.371831,-0.000822901,0.0133696,0.00020763
0.432056,4.12994,0.0014769,-99.8562,9.3254,0.00202353,0.376122,-0.00082499,0.0128191,0.000204491
0.436056,4.16722,0.00148488,-99.8547,9.31974,0.00199443,0.380522,-0.000827035,0.0122567,0.000201356
0.440057,4.20449,0.00149274,-99.8531,9.31409,0.00196537,0.385031,-0.000829039,0.011682,0.000198229
0.444057,4.24172,0.00150049,-99.8516,9.30847,0.00193634,0.389647,-0.000831001,0.0110955,0.000195107
0.448058,4.27894,0.00150812,-99.85,9.30287,0.00190735,0.394372,-0.000832922,0.0104968,0.000191987
0.452058,4.31613,0.00151563,-99.8484,9.2973,0.0018784,0.399203,-0.000834803,0.0098864,0.000188871
0.456059,4.35331,0.00152303,-99.8468,9.29174,0.00184949,0.404142,-0.000836646,0.00926388,0.000185763
0.460059,4.39045,0.00153031,-99.8452,9.28621,0.00182063,0.409186,-0.000838449,0.00862965,0.000182659
0.46406,4.42758,0.00153748,-99.8435,9.2807,0.0017918,0.414336,-0.000840216,0.00798343,0.000179559
0.46806,4.46468,0.00154453,-99.8418,9.27522,0.00176303,0.419591,-0.000841945,0.00732558,0.000176467
0.472061,4.50177,0.00155147,-99.8401,9.26976,0.0017343,0.424951,-0.000843638,0.0066558,0.000173376
0.476061,4.53883,0.0015583,-99.8384,9.26432,0.00170562,0.430414,-0.000845295,0.00597453,0.000170293
0.480061,4.57587,0.001565,-99.8367,9.25891,0.00167699,0.43598,-0.000846918,0.00528183,0.000167216
0.484062,4.61289,0.0015716,-99.8349,9.25352,0.0016484,0.44165,-0.000848506,0.00457776,0.000164144
0.488062,4.64988,0.00157808,-99.8331,9.24815,0.00161988,0.447421,-0.000850061,0.0038629,0.000161077
0.492063,4.68686,0.00158445,-99.8313,9.24281,0.00159139,0.453294,-0.000851583,0.00313711,0.000158012
0.496063,4.72381,0.0015907,-99.8294,9.2375,0.00156297,0.459264,-0.000853072,0.002401,0.000154956
0.500064,4.76075,0.00159684,-99.8276,9.23221,0.00153459,0.465335,-0.00085453,0.00165441,0.000151903
0.504065,4.79767,0.00160286,-99.8257,9.22694,0.00150626,0.471502,-0.000855957,0.000897741,0.000148854
0.508065,4.83456,0.00160878,-99.8238,9.22171,0.00147799,0.477763,-0.000857353,0.000131403,0.000145809
0.512065,4.87142,0.00161457,-99.8218,9.21649,0.00144977,0.484117,-0.000858718,-0.000644584,0.000142771
0.516066,4.90828,0.00162026,-99.8199,9.21131,0.0014216,0.490565,-0.000860055,-0.00143021,0.000139736
0.520067,4.94511,0.00162584,-99.8179,9.20615,0.00139348,0.497104,-0.000861363,-0.00222508,0.000136704
0.524067,4.98191,0.0016313,-99.8159,9.20101,0.00136542,0.50373,-0.000862642,-0.0030288,0.000133676
0.528067,5.0187,0.00163665,-99.8138,9.19591,0.00133741,0.510444,-0.000863893,-0.00384137,0.000130653
0.532068,5.05547,0.00164189,-99.8118,9.19083,0.00130944,0.517244,-0.000865117,-0.0046628,0.000127632
0.536069,5.09222,0.00164702,-99.8097,9.18578,0.00128153,0.524129,-0.000866314,-0.00549272,0.000124616
0.540069,5.12895,0.00165203,-99.8075,9.18075,0.00125367,0.531094,-0.000867485,-0.00633072,0.000121602
0.544069,5.16565,0.00165693,-99.8054,9.17576,0.00122586,0.538139,-0.000868629,-0.00717685,0.000118594
0.54807,5.20234,0.00166173,-99.8032,9.17079,0.0011981,0.545265,-0.000869748,-0.00803115,0.000115587
0.552071,5.23901,0.00166641,-99.801,9.16585,0.00117038,0.552468,-0.000870843,-0.00889324,0.000112584
0.556071,5.27566,0.00167098,-99.7988,9.16094,0.00114272,0.559745,-0.000871913,-0.00976273,0.000109586
0.560071,5.31228,0.00167544,-99.7965,9.15606,0.00111511,0.567096,-0.000872958,-0.0106397,0.000106591
0.564072,5.3489,0.00167979,-99.7942,9.1512,0.00108754,0.574522,-0.00087398,-0.0115242,0.000103599
0.568073,5.38549,0.00168403,-99.7919,9.14637,0.00106001,0.582018,-0.000874978,-0.0124158,0.000100609
0.572073,5.42206,0.00168816,-99.7895,9.14158,0.00103254,0.589581,-0.000875954,-0.0133143,9.76231e-05
0.576073,5.4586,0.00169218,-99.7871,9.13681,0.00100512,0.597212,-0.000876907,-0.0142196,9.46385e-05
0.580074,5.49514,0.0016961,-99.7847,9.13207,0.000977727,0.604911,-0.000877838,-0.0151319,9.16608e-05
0.584075,5.53166,0.0016999,-99.7823,9.12736,0.000950386,0.612675,-0.000878748,-0.0160508,8.8682e-05
0.588075,5.56815,0.00170359,-99.7798,9.12269,0.000923093,0.6205,-0.000879636,-0.016976,8.57076e-05
0.592075,5.60462,0.00170717,-99.7773,9.11804,0.000895845,0.628387,-0.000880503,-0.0179075,8.27367e-05
0.596076,5.64109,0.00171065,-99.7747,9.11342,0.000868634,0.636337,-0.00088135,-0.0188454,7.9766e-05
0.600077,5.67753,0.00171402,-99.7721,9.10883,0.000841464,0.644346,-0.000882176,-0.0197895,7.67961e-05
0.604077,5.71395,0.00171727,-99.7695,9.10427,0.000814343,0.652411,-0.000882983,-0.0207393,7.38311e-05
0.608077,5.75035,0.00172042,-99.7669,9.09974,0.000787264,0.660532,-0.00088377,-0.021695,7.08672e-05
0.612078,5.78674,0.00172346,-99.7642,9.09524,0.000760219,0.668711,-0.000884537,-0.0226566,6.79069e-05
0.616079,5.82311,0.0017264,-99.7615,9.09077,0.000733215,0.676944,-0.000885286,-0.023624,6.49475e-05
0.620079,5.85945,0.00172922,-99.7588,9.08633,0.000706257,0.685229,-0.000886016,-0.0245966,6.19906e-05
0.624079,5.89578,0.00173194,-99.756,9.08193,0.000679339,0.693565,-0.000886728,-0.0255747,5.90364e-05
0.62808,5.9321,0.00173455,-99.7532,9.07755,0.000652453,0.701954,-0.000887422,-0.0265584,5.60844e-05
0.632081,5.9684,0.00173705,-99.7503,9.07321,0.000625605,0.710392,-0.000888098,-0.0275474,5.31333e-05
0.636081,6.00468,0.00173945,-99.7475,9.0689,0.000598803,0.718877,-0.000888756,-0.0285412,5.01858e-05
0.640081,6.04094,0.00174174,-99.7446,9.06461,0.000572038,0.72741,-0.000889398,-0.0295401,4.72411e-05
0.644082,6.07719,0.00174392,-99.7416,9.06036,0.000545305,0.735992,-0.000890023,-0.0305443,4.42962e-05
0.648083,6.11342,0.00174599,-99.7386,9.05614,0.000518607,0.744619,-0.000890631,-0.0315533,4.1353e-05
0.652083,6.14963,0.00174796,-99.7356,9.05195,0.000491953,0.753289,-0.000891222,-0.0325669,3.84114e-05
0.656083,6.18582,0.00174982,-99.7326,9.0478,0.000465335,0.762003,-0.000891798,-0.0335852,3.54737e-05
0.660084,6.222,0.00175158,-99.7295,9.04367,0.000438746,0.770762,-0.000892358,-0.0346084,3.2536e-05
0.664085,6.25817,0.00175323,-99.7264,9.03957,0.000412192,0.779563,-0.000892902,-0.0356362,2.95981e-05
0.668085,6.29431,0.00175477,-99.7232,9.03551,0.000385678,0.788403,-0.000893431,-0.0366682,2.66636e-05
0.672085,6.33044,0.00175621,-99.72,9.03148,0.0003592,0.797284,-0.000893945,-0.0377046,2.37344e-05
0.676086,6.36656,0.00175754,-99.7168,9.02748,0.00033275,0.806206,-0.000894444,-0.0387456,2.08055e-05
0.680087,6.40266,0.00175876,-99.7135,9.02352,0.000306333,0.815167,-0.000894929,-0.0397908,1.7878e-05
0.684087,6.43874,0.00175988,-99.7103,9.01958,0.000279957,0.824165,-0.000895399,-0.04084,1.49505e-05
0.688087,6.4748,0.0017609,-99.7069,9.01568,0.000253613,0.8332,-0.000895855,-0.0418932,1.20277e-05
0.692088,6.51086,0.00176181,-99.7035,9.01181,0.000227296,0.842273,-0.000896297,-0.0429508,9.10286e-06
0.696089,6.5469,0.00176261,-99.7001,9.00797,0.00020101,0.851383,-0.000896725,-0.0440124,6.1791e-06
0.700089,6.58291,0.00176331,-99.6967,9.00416,0.000174763,0.860526,-0.00089714,-0.0450776,3.25804e-06
0.704089,6.61892,0.00176391,-99.6932,9.00039,0.000148548,0.869704,-0.000897542,-0.0461467,3.38403e-07
0.708089,6.6549,0.00176439,-99.6897,8.99665,0.000122364,0.878916,-0.00089793,-0.0472195,-2.57892e-06
0.71209,6.69088,0.00176478,-99.6861,8.99294,9.62054e-05,0.888164,-0.000898305,-0.0482964,-5.49522e-06
0.716091,6.72685,0.00176506,-99.6826,8.98926,7.00773e-05,0.897444,-0.000898668,-0.0493769,-8.40885e-06
0.720091,6.76279,0.00176524,-99.6789,8.98561,4.39868e-05,0.906755,-0.000899018,-0.0504607,-1.13211e-05
0.724091,6.79872,0.00176531,-99.6753,8.982,1.79264e-05,0.916098,-0.000899356,-0.051548,-1.42313e-05
0.728092,6.83464,0.00176528,-99.6716,8.97842,-8.11055e-06,0.925474,-0.000899681,-0.0526392,-1.71422e-05
0.732093,6.87055,0.00176514,-99.6678,8.97487,-3.41181e-05,0.934881,-0.000899995,-0.0537337,-2.00503e-05
0.736093,6.90644,0.0017649,-99.6641,8.97136,-6.00894e-05,0.944316,-0.000900297,-0.0548313,-2.29553e-05
0.740093,6.94231,0.00176455,-99.6602,8.96787,-8.60312e-05,0.95378,-0.000900587,-0.0559323,-2.58604e-05
0.744094,6.97817,0.00176411,-99.6564,8.96442,-0.000111951,0.963276,-0.000900866,-0.0570367,-2.87641e-05
0.748095,7.01403,0.00176355,-99.6525,8.96101,-0.000137842,0.972801,-0.000901133,-0.0581444,-3.16676e-05
0.752095,7.04986,0.0017629,-99.6486,8.95762,-0.000163698,0.982352,-0.000901389,-0.0592549,-3.45688e-05
0.756095,7.08567,0.00176214,-99.6446,8.95427,-0.000189527,0.99193,-0.000901634,-0.0603686,-3.7468e-05
0.760096,7.12149,0.00176128,-99.6406,8.95095,-0.000215334,1.00154,-0.000901868,-0.0614855,-4.0364e-05
0.764097,7.15729,0.00176032,-99.6366,8.94766,-0.000241112,1.01117,-0.000902092,-0.0626054,-4.32528e-05
0.768097,7.19306,0.00175925,-99.6325,8.9444,-0.000266855,1.02083,-0.000902306,-0.063728,-4.61415e-05
0.772097,7.22883,0.00175808,-99.6283,8.94118,-0.000292571,1.03052,-0.000902509,-0.0648534,-4.90293e-05
0.776098,7.26459,0.0017568,-99.6242,8.93799,-0.000318267,1.04023,-0.000902702,-0.065982,-5.19172e-05
0.780099,7.30034,0.00175543,-99.62,8.93483,-0.000343936,1.04997,-0.000902884,-0.0671133,-5.48049e-05
0.784099,7.33607,0.00175395,-99.6157,8.93171,-0.000369573,1.05973,-0.000903058,-0.0682471,-5.76898e-05
0.788099,7.37178,0.00175237,-99.6115,8.92862,-0.000395183,1.06951,-0.00090322,-0.0693835,-6.05752e-05
0.7921,7.40749,0.00175069,-99.6071,8.92556,-0.000420774,1.07932,-0.000903374,-0.0705229,-6.34593e-05
0.796101,7.44319,0.0017489,-99.6028,8.92253,-0.000446339,1.08916,-0.000903518,-0.0716648,-6.6342e-05
0.800101,7.47887,0.00174701,-99.5984,8.91953,-0.000471873,1.09901,-0.000903652,-0.072809,-6.92246e-05
0.804101,7.51453,0.00174502,-99.594,8.91657,-0.000497381,1.10889,-0.000903777,-0.0739556,-7.21039e-05
0.808102,7.5502,0.00174293,-99.5895,8.91364,-0.000522872,1.1188,-0.000903893,-0.075105,-7.49857e-05
0.812103,7.58585,0.00174074,-99.585,8.91074,-0.000548337,1.12872,-0.000904,-0.0762567,-7.78633e-05
0.816103,7.62148,0.00173844,-99.5804,8.90788,-0.000573771,1.13867,-0.000904097,-0.0774105,-8.07397e-05
0.820103,7.6571,0.00173605,-99.5758,8.90505,-0.000599181,1.14863,-0.000904186,-0.0785666,-8.36154e-05
0.824104,7.69272,0.00173355,-99.5712,8.90225,-0.000624574,1.15862,-0.000904267,-0.0797252,-8.64904e-05
0.828105,7.72833,0.00173095,-99.5665,8.89948,-0.000649943,1.16864,-0.000904338,-0.080886,-8.93669e-05
0.832105,7.76391,0.00172824,-99.5618,8.89675,-0.000675283,1.17867,-0.000904401,-0.0820486,-9.22393e-05
0.836105,7.79949,0.00172544,-99.557,8.89404,-0.000700599,1.18871,-0.000904455,-0.0832134,-9.511e-05
0.840106,7.83506,0.00172254,-99.5522,8.89138,-0.000725898,1.19879,-0.000904502,-0.0843804,-9.79796e-05
0.844107,7.87063,0.00171953,-99.5474,8.88874,-0.000751174,1.20888,-0.00090454,-0.0855495,-0.000100849
0.848107,7.90617,0.00171643,-99.5425,8.88613,-0.000776422,1.21899,-0.000904569,-0.0867203,-0.000103717
0.852107,7.94171,0.00171322,-99.5376,8.88356,-0.000801648,1.22912,-0.000904591,-0.0878929,-0.000106584
0.856108,7.97724,0.00170991,-99.5326,8.88102,-0.000826858,1.23927,-0.000904605,-0.0890677,-0.000109448
0.860109,8.01276,0.0017065,-99.5276,8.87851,-0.000852046,1.24943,-0.000904611,-0.0902444,-0.000112315
0.864109,8.04827,0.00170299,-99.5226,8.87604,-0.000877206,1.25962,-0.000904609,-0.0914225,-0.000115176
0.868109,8.08376,0.00169938,-99.5175,8.8736,-0.000902345,1.26982,-0.000904599,-0.0926023,-0.000118037
0.87211,8.11926,0.00169567,-99.5124,8.87118,-0.000927469,1.28004,-0.000904582,-0.0937841,-0.000120898
0.876111,8.15474,0.00169186,-99.5072,8.86881,-0.000952573,1.29028,-0.000904557,-0.0949675,-0.000123757
0.880111,8.19021,0.00168795,-99.502,8.86646,-0.000977649,1.30053,-0.000904525,-0.0961522,-0.000126616
0.884111,8.22566,0.00168394,-99.4968,8.86415,-0.00100271,1.3108,-0.000904485,-0.0973384,-0.000129471
0.888112,8.26112,0.00167983,-99.4915,8.86187,-0.00102775,1.32109,-0.000904438,-0.0985265,-0.000132327
0.892113,8.29657,0.00167562,-99.4862,8.85962,-0.00105277,1.33139,-0.000904384,-0.099716,-0.000135181
0.896113,8.332,0.00167131,-99.4808,8.8574,-0.00107777,1.34171,-0.000904323,-0.100907,-0.000138034
0.900113,8.36742,0.0016669,-99.4754,8.85522,-0.00110274,1.35204,-0.000904255,-0.102099,-0.000140885
0.904114,8.40284,0.00166238,-99.47,8.85306,-0.00112771,1.3624,-0.00090418,-0.103292,-0.000143735
0.908115,8.43825,0.00165777,-99.4645,8.85094,-0.00115265,1.37276,-0.000904097,-0.104487,-0.000146587
0.912115,8.47365,0.00165306,-99.4589,8.84886,-0.00117758,1.38314,-0.000904008,-0.105683,-0.000149434
0.916115,8.50903,0.00164825,-99.4534,8.8468,-0.00120248,1.39353,-0.000903912,-0.10688,-0.00015228
0.920115,8.54441,0.00164334,-99.4478,8.84478,-0.00122736,1.40394,-0.00090381,-0.108078,-0.000155125
0.924116,8.57979,0.00163833,-99.4421,8.84279,-0.00125224,1.41437,-0.000903701,-0.109277,-0.000157968
0.928117,8.61517,0.00163322,-99.4364,8.84083,-0.00127709,1.42481,-0.000903585,-0.110478,-0.000160811
0.932117,8.65052,0.00162801,-99.4307,8.8389,-0.00130192,1.43525,-0.000903463,-0.111679,-0.00016365
0.936117,8.68587,0.00162271,-99.4249,8.837,-0.00132674,1.44572,-0.000903334,-0.112881,-0.00016649
0.940118,8.72122,0.0016173,-99.419,8.83514,-0.00135154,1.45619,-0.000903198,-0.114084,-0.00016933
0.944119,8.75656,0.00161179,-99.4132,8.83331,-0.00137633,1.46668,-0.000903057,-0.115288,-0.000172167
0.948119,8.79189,0.00160619,-99.4073,8.83151,-0.00140109,1.47718,-0.000902909,-0.116493,-0.000175002
0.952119,8.82721,0.00160049,-99.4013,8.82974,-0.00142584,1.4877,-0.000902756,-0.117699,-0.000177838
0.95612,8.86253,0.00159468,-99.3953,8.82801,-0.00145058,1.49822,-0.000902595,-0.118905,-0.00018067
0.960121,8.89784,0.00158878,-99.3893,8.8263,-0.0014753,1.50876,-0.000902429,-0.120112,-0.000183503
0.964121,8.93314,0.00158278,-99.3832,8.82463,-0.00150001,1.51931,-0.000902257,-0.12132,-0.000186333
0.968121,8.96843,0.00157668,-99.3771,8.82299,-0.00152469,1.52987,-0.000902079,-0.122528,-0.000189164
0.972122,9.00373,0.00157048,-99.3709,8.82138,-0.00154937,1.54044,-0.000901894,-0.123737,-0.000191994
0.976123,9.03901,0.00156418,-99.3647,8.8198,-0.00157403,1.55102,-0.000901704,-0.124946,-0.000194822
0.980123,9.07429,0.00155779,-99.3585,8.81826,-0.00159868,1.56161,-0.000901508,-0.126156,-0.00019765
0.984123,9.10955,0.0015513,-99.3522,8.81674,-0.00162331,1.57221,-0.000901306,-0.127366,-0.000200475
0.988124,9.14482,0.0015447,-99.3459,8.81526,-0.00164793,1.58282,-0.000901099,-0.128577,-0.0002033
0.992125,9.18009,0.00153801,-99.3395,8.81381,-0.00167254,1.59345,-0.000900886,-0.129788,-0.000206123
0.996125,9.21534,0.00153122,-99.3331,8.81239,-0.00169713,1.60408,-0.000900667,-0.130999,-0.000208944
1.00013,9.25058,0.00152434,-99.3266,8.811,-0.00172171,1.61471,-0.000900443,-0.13221,-0.000211763
1.00413,9.28583,0.00151735,-99.3201,8.80965,-0.00174627,1.62536,-0.000900213,-0.133422,-0.000214582
1.00813,9.32107,0.00151026,-99.3136,8.80832,-0.00177083,1.63602,-0.000899978,-0.134634,-0.000217399
1.01213,9.35631,0.00150308,-99.307,8.80703,-0.00179538,1.64669,-0.000899737,-0.135846,-0.000220216
1.01613,9.39153,0.0014958,-99.3003,8.80577,-0.00181991,1.65736,-0.000899491,-0.137058,-0.000223031
1.02013,9.42676,0.00148842,-99.2937,8.80454,-0.00184443,1.66804,-0.000899239,-0.13827,-0.000225844
1.02413,9.46198,0.00148094,-99.2869,8.80334,-0.00186894,1.67873,-0.000898982,-0.139482,-0.00022866
1.02813,9.49719,0.00147337,-99.2802,8.80217,-0.00189343,1.68943,-0.000898719,-0.140693,-0.000231474
1.03213,9.5324,0.0014657,-99.2734,8.80103,-0.00191792,1.70013,-0.000898452,-0.141905,-0.000234286
1.03613,9.56761,0.00145792,-99.2665,8.79993,-0.0019424,1.71084,-0.000898179,-0.143117,-0.000237097
1.04013,9.60281,0.00145005,-99.2596,8.79885,-0.00196687,1.72156,-0.000897901,-0.144328,-0.000239905
1.04413,9.63801,0.00144209,-99.2527,8.79781,-0.00199132,1.73228,-0.000897619,-0.145539,-0.000242712
1.04813,9.6732,0.00143402,-99.2457,8.7968,-0.00201577,1.74301,-0.00089733,-0.14675,-0.00024552
1.05213,9.70839,0.00142586,-99.2387,8.79582,-0.00204021,1.75374,-0.000897037,-0.14796,-0.000248327
1.05614,9.74357,0.0014176,-99.2317,8.79487,-0.00206464,1.76448,-0.000896739,-0.14917,-0.000251131
1.06014,9.77876,0.00140924,-99.2246,8.79395,-0.00208906,1.77523,-0.000896436,-0.15038,-0.000253936
1.06414,9.81394,0.00140079,-99.2174,8.79306,-0.00211348,1.78598,-0.000896128,-0.151589,-0.000256738
1.06814,9.84912,0.00139223,-99.2102,8.79221,-0.00213788,1.79674,-0.000895815,-0.152798,-0.000259538
1.07214,9.88428,0.00138359,-99.203,8.79138,-0.00216227,1.80749,-0.000895497,-0.154006,-0.000262341
1.07614,9.91945,0.00137484,-99.1957,8.79059,-0.00218667,1.81826,-0.000895174,-0.155213,-0.000265141
1.08014,9.95462,0.00136599,-99.1884,8.78982,-0.00221105,1.82903,-0.000894847,-0.15642,-0.000267938
1.08414,9.98978,0.00135705,-99.181,8.78909,-0.00223542,1.8398,-0.000894515,-0.157626,-0.000270736
1.08814,10.0249,0.00134801,-99.1736,8.78839,-0.00225979,1.85057,-0.000894178,-0.158832,-0.000273533
1.09214,10.0601,0.00133887,-99.1662,8.78771,-0.00228415,1.86135,-0.000893837,-0.160036,-0.000276326
1.09614,10.0953,0.00132963,-99.1587,8.78707,-0.00230851,1.87213,-0.000893491,-0.16124,-0.000279121
1.10014,10.1304,0.0013203,-99.1512,8.78646,-0.00233285,1.88292,-0.00089314,-0.162443,-0.000281912
1.10414,10.1656,0.00131087,-99.1436,8.78588,-0.0023572,1.8937,-0.000892785,-0.163645,-0.000284703
1.10814,10.2007,0.00130134,-99.136,8.78533,-0.00238154,1.90449,-0.000892425,-0.164846,-0.000287494
1.11215,10.2358,0.00129172,-99.1283,8.78481,-0.00240587,1.91528,-0.00089206,-0.166046,-0.000290283
1.11615,10.271,0.00128199,-99.1206,8.78433,-0.0024302,1.92607,-0.000891691,-0.167245,-0.000293072
1.12015,10.3061,0.00127217,-99.1129,8.78387,-0.00245453,1.93687,-0.000891318,-0.168443,-0.000295861
1.12415,10.3413,0.00126226,-99.1051,8.78344,-0.00247884,1.94766,-0.00089094,-0.169639,-0.000298649
1.12815,10.3764,0.00125224,-99.0972,8.78304,-0.00250316,1.95845,-0.000890557,-0.170835,-0.000301434
1.13215,10.4115,0.00124213,-99.0893,8.78267,-0.00252748,1.96925,-0.000890171,-0.172029,-0.000304218
1.13615,10.4467,0.00123192,-99.0814,8.78234,-0.00255179,1.98005,-0.00088978,-0.173222,-0.000307001
1.14015,10.4818,0.00122162,-99.0735,8.78203,-0.00257609,1.99084,-0.000889385,-0.174414,-0.000309783
1.14415,10.517,0.00121121,-99.0655,8.78176,-0.0026004,2.00164,-0.000888985,-0.175604,-0.000312565
1.14815,10.5521,0.00120071,-99.0574,8.78152,-0.0026247,2.01244,-0.000888581,-0.176794,-0.000315348
1.15215,10.5872,0.00119012,-99.0493,8.7813,-0.002649,2.02323,-0.000888173,-0.177981,-0.000318126
1.15615,10.6223,0.00117942,-99.0412,8.78112,-0.0026733,2.03402,-0.000887761,-0.179167,-0.000320905
1.16015,10.6575,0.00116863,-99.033,8.78096,-0.0026976,2.04482,-0.000887344,-0.180352,-0.000323682
1.16416,10.6926,0.00115774,-99.0248,8.78084,-0.0027219,2.05561,-0.000886923,-0.181535,-0.000326461
1.16816,10.7277,0.00114675,-99.0165,8.78074,-0.00274619,2.0664,-0.000886499,-0.182716,-0.000329236
1.17216,10.7629,0.00113567,-99.0082,8.78068,-0.00277048,2.07718,-0.000886069,-0.183896,-0.000332011
1.17616,10.798,0.00112448,-98.9998,8.78065,-0.00279478,2.08797,-0.000885636,-0.185074,-0.000334786
1.18016,10.8331,0.00111321,-98.9914,8.78064,-0.00281907,2.09875,-0.0008852,-0.186251,-0.000337559
1.18416,10.8682,0.00110183,-98.983,8.78067,-0.00284337,2.10953,-0.000884758,-0.187425,-0.000340334
1.18816,10.9034,0.00109036,-98.9745,8.78073,-0.00286767,2.12031,-0.000884313,-0.188598,-0.000343105
1.19216,10.9385,0.00107879,-98.966,8.78081,-0.00289196,2.13108,-0.000883864,-0.189769,-0.000345876
1.19616,10.9736,0.00106712,-98.9574,8.78093,-0.00291626,2.14185,-0.000883411,-0.190938,-0.000348646
1.20016,11.0088,0.00105536,-98.9488,8.78107,-0.00294056,2.15262,-0.000882954,-0.192105,-0.000351414
1.20416,11.0439,0.00104349,-98.9402,8.78125,-0.00296486,2.16338,-0.000882493,-0.19327,-0.000354182
1.20816,11.079,0.00103154,-98.9315,8.78146,-0.00298916,2.17413,-0.000882028,-0.194433,-0.000356948
1.21216,11.1142,0.00101948,-98.9227,8.78169,-0.00301347,2.18489,-0.000881559,-0.195594,-0.000359715
1.21616,11.1493,0.00100733,-98.9139,8.78196,-0.00303778,2.19564,-0.000881086,-0.196753,-0.000362482
1.22016,11.1844,0.000995079,-98.9051,8.78225,-0.00306209,2.20638,-0.00088061,-0.19791,-0.000365247
1.22417,11.2196,0.00098273,-98.8962,8.78257,-0.0030864,2.21711,-0.00088013,-0.199065,-0.00036801
1.22817,11.2547,0.000970284,-98.8873,8.78293,-0.00311072,2.22785,-0.000879645,-0.200217,-0.000370775
1.23217,11.2898,0.000957741,-98.8784,8.78331,-0.00313505,2.23857,-0.000879157,-0.201368,-0.00037354
1.23617,11.325,0.000945103,-98.8694,8.78372,-0.00315937,2.24929,-0.000878665,-0.202515,-0.000376302
1.24017,11.3601,0.000932365,-98.8603,8.78417,-0.00318371,2.26,-0.00087817,-0.203661,-0.000379063
1.24417,11.3953,0.00091953,-98.8512,8.78464,-0.00320804,2.27071,-0.000877671,-0.204804,-0.000381821
1.24817,11.4304,0.0009066,-98.8421,8.78514,-0.00323238,2.2814,-0.000877169,-0.205945,-0.00038458
1.25217,11.4656,0.00089357,-98.833,8.78567,-0.00325673,2.29209,-0.000876663,-0.207083,-0.000387338
1.25617,11.5007,0.000880443,-98.8237,8.78623,-0.00328108,2.30278,-0.000876153,-0.208219,-0.000390096
1.26017,11.5359,0.000867221,-98.8145,8.78682,-0.00330544,2.31345,-0.000875639,-0.209352,-0.000392853
1.26417,11.571,0.000853898,-98.8052,8.78744,-0.00332981,2.32412,-0.000875122,-0.210483,-0.000395611
1.26817,11.6062,0.000840478,-98.7958,8.78809,-0.00335418,2.33478,-0.000874601,-0.211611,-0.000398367
1.27217,11.6414,0.00082696,-98.7865,8.78876,-0.00337856,2.34543,-0.000874077,-0.212736,-0.000401121
1.27617,11.6765,0.000813349,-98.777,8.78947,-0.00340294,2.35607,-0.000873549,-0.213859,-0.000403875
1.28018,11.7117,0.000799636,-98.7676,8.79021,-0.00342734,2.3667,-0.000873018,-0.214979,-0.000406629
1.28418,11.7469,0.000785826,-98.7581,8.79097,-0.00345174,2.37732,-0.000872483,-0.216096,-0.000409381
1.28818,11.782,0.000771921,-98.7485,8.79176,-0.00347614,2.38793,-0.000871945,-0.21721,-0.000412133
1.29218,11.8172,0.000757915,-98.7389,8.79259,-0.00350056,2.39854,-0.000871403,-0.218322,-0.000414883
1.29618,11.8524,0.000743812,-98.7293,8.79344,-0.00352499,2.40913,-0.000870858,-0.219431,-0.000417635
1.30018,11.8876,0.00072961,-98.7196,8.79432,-0.00354942,2.41971,-0.000870309,-0.220537,-0.000420384
1.30418,11.9228,0.000715315,-98.7099,8.79523,-0.00357386,2.43028,-0.000869757,-0.221639,-0.000423133
1.30818,11.9579,0.000700918,-98.7001,8.79617,-0.00359832,2.44084,-0.000869202,-0.222739,-0.000425882
1.31218,11.9931,0.000686423,-98.6903,8.79713,-0.00362279,2.45139,-0.000868643,-0.223836,-0.00042863
1.31618,12.0283,0.000671834,-98.6804,8.79813,-0.00364726,2.46192,-0.000868081,-0.22493,-0.000431379
1.32018,12.0635,0.000657144,-98.6705,8.79915,-0.00367175,2.47245,-0.000867515,-0.226021,-0.000434126
1.32418,12.0987,0.000642355,-98.6606,8.80021,-0.00369624,2.48296,-0.000866947,-0.227108,-0.000436872
1.32818,12.134,0.000627472,-98.6506,8.80129,-0.00372074,2.49346,-0.000866374,-0.228192,-0.000439617
1.33218,12.1692,0.000612487,-98.6406,8.8024,-0.00374526,2.50394,-0.000865799,-0.229274,-0.000442362
1.33619,12.2044,0.000597404,-98.6306,8.80354,-0.00376979,2.51442,-0.000865221,-0.230352,-0.000445106
1.34019,12.2396,0.000582223,-98.6205,8.80471,-0.00379434,2.52488,-0.00086464,-0.231426,-0.000447847
1.34419,12.2748,0.000566948,-98.6103,8.80591,-0.00381889,2.53532,-0.000864054,-0.232497,-0.000450591
1.34819,12.3101,0.00055157,-98.6001,8.80713,-0.00384345,2.54575,-0.000863466,-0.233565,-0.000453335
1.35219,12.3453,0.000536094,-98.5899,8.80839,-0.00386804,2.55617,-0.000862874,-0.23463,-0.000456077
1.35619,12.3806,0.000520523,-98.5796,8.80967,-0.00389262,2.56658,-0.00086228,-0.235691,-0.000458817
1.36019,12.4158,0.000504851,-98.5693,8.81098,-0.00391723,2.57697,-0.000861682,-0.236749,-0.000461557
1.36419,12.4511,0.000489079,-98.559,8.81232,-0.00394185,2.58734,-0.000861082,-0.237803,-0.000464297
1.36819,12.4863,0.000473209,-98.5486,8.81369,-0.00396649,2.5977,-0.000860477,-0.238854,-0.000467037
1.37219,12.5216,0.000457245,-98.5382,8.81509,-0.00399113,2.60804,-0.00085987,-0.239901,-0.000469777
1.37619,12.5569,0.000441178,-98.5277,8.81651,-0.00401579,2.61837,-0.00085926,-0.240945,-0.000472515
1.38019,12.5922,0.000425012,-98.5172,8.81797,-0.00404047,2.62868,-0.000858647,-0.241985,-0.000475253
1.38419,12.6274,0.000408751,-98.5066,8.81945,-0.00406516,2.63898,-0.000858031,-0.243021,-0.000477988
1.38819,12.6627,0.000392387,-98.496,8.82096,-0.00408987,2.64926,-0.000857411,-0.244054,-0.000480726
1.3922,12.698,0.000375925,-98.4854,8.8225,-0.00411459,2.65952,-0.000856789,-0.245083,-0.000483463
1.3962,12.7333,0.000359364,-98.4747,8.82406,-0.00413933,2.66976,-0.000856164,-0.246108,-0.000486197
1.4002,12.7686,0.000342707,-98.464,8.82566,-0.00416408,2.67999,-0.000855536,-0.24713,-0.000488933
1.4042,12.8039,0.000325948,-98.4532,8.82728,-0.00418885,2.6902,-0.000854904,-0.248148,-0.000491668
1.4082,12.8393,0.000309089,-98.4424,8.82893,-0.00421364,2.70039,-0.00085427,-0.249161,-0.000494402
1.4122,12.8746,0.000292135,-98.4315,8.83061,-0.00423844,2.71056,-0.000853633,-0.250171,-0.000497137
1.4162,12.9099,0.000275078,-98.4207,8.83232,-0.00426327,2.72072,-0.000852993,-0.251177,-0.000499868
1.4202,12.9453,0.000257921,-98.4097,8.83406,-0.00428811,2.73086,-0.000852351,-0.25218,-0.0005026
1.4242,12.9806,0.000240669,-98.3988,8.83582,-0.00431296,2.74097,-0.000851705,-0.253178,-0.000505332
1.4282,13.016,0.000223313,-98.3878,8.83761,-0.00433784,2.75107,-0.000851056,-0.254172,-0.000508064
1.4322,13.0513,0.000205858,-98.3767,8.83943,-0.00436274,2.76115,-0.000850404,-0.255162,-0.000510797
1.4362,13.0867,0.000188303,-98.3656,8.84128,-0.00438765,2.77121,-0.000849749,-0.256149,-0.000513529
1.4402,13.1221,0.000170653,-98.3545,8.84315,-0.00441258,2.78125,-0.000849092,-0.25713,-0.000516258
1.4442,13.1575,0.000152898,-98.3433,8.84505,-0.00443753,2.79127,-0.000848432,-0.258109,-0.000518988
1.4482,13.1929,0.000135044,-98.3321,8.84698,-0.00446251,2.80127,-0.000847769,-0.259082,-0.00052172
1.45221,13.2283,0.000117094,-98.3209,8.84894,-0.00448749,2.81124,-0.000847104,-0.260052,-0.000524449
1.45621,13.2637,9.90392e-05,-98.3096,8.85093,-0.0045125,2.8212,-0.000846436,-0.261018,-0.000527177
1.46021,13.2991,8.08845e-05,-98.2983,8.85294,-0.00453754,2.83113,-0.000845765,-0.261979,-0.000529905
1.46421,13.3345,6.26296e-05,-98.2869,8.85498,-0.00456259,2.84105,-0.000845091,-0.262936,-0.000532632
1.46821,13.37,4.4279e-05,-98.2755,8.85705,-0.00458766,2.85093,-0.000844416,-0.263889,-0.000535358
1.47221,13.4054,2.58233e-05,-98.2641,8.85915,-0.00461275,2.8608,-0.000843736,-0.264837,-0.000538085
1.47621,13.4409,7.26723e-06,-98.2526,8.86127,-0.00463787,2.87065,-0.000843055,-0.265782,-0.000540811
1.48021,13.4763,-1.13848e-05,-98.2411,8.86342,-0.004663,2.88047,-0.000842371,-0.266721,-0.000543533
1.48421,13.5118,-3.01421e-05,-98.2295,8.8656,-0.00468816,2.89027,-0.000841684,-0.267657,-0.000546261
1.48821,13.5473,-4.90002e-05,-98.2179,8.86781,-0.00471334,2.90005,-0.000840994,-0.268588,-0.000548986
1.49221,13.5828,-6.79543e-05,-98.2062,8.87004,-0.00473854,2.9098,-0.000840302,-0.269515,-0.000551712
1.49621,13.6182,-8.70141e-05,-98.1946,8.8723,-0.00476376,2.91953,-0.000839607,-0.270437,-0.000554435
1.50021,13.6538,-0.000106175,-98.1828,8.87459,-0.00478901,2.92924,-0.00083891,-0.271355,-0.000557159
1.50422,13.6893,-0.000125437,-98.1711,8.8769,-0.00481428,2.93892,-0.00083821,-0.272268,-0.000559882
1.50822,13.7248,-0.000144795,-98.1593,8.87924,-0.00483957,2.94858,-0.000837507,-0.273176,-0.000562606
1.51222,13.7603,-0.00016426,-98.1475,8.88161,-0.00486489,2.95821,-0.000836802,-0.274081,-0.000565328
1.51622,13.7959,-0.000183825,-98.1356,8.88401,-0.00489024,2.96782,-0.000836095,-0.27498,-0.000568049
1.52022,13.8314,-0.000203488,-98.1237,8.88643,-0.0049156,2.9774,-0.000835386,-0.275875,-0.00057077
1.52422,13.867,-0.000223257,-98.1117,8.88888,-0.00494099,2.98696,-0.000834673,-0.276766,-0.000573494
1.52822,13.9026,-0.000243127,-98.0997,8.89136,-0.0049664,2.99649,-0.000833958,-0.277652,-0.000576214
1.53222,13.9381,-0.0002631,-98.0877,8.89386,-0.00499184,3.00599,-0.000833241,-0.278533,-0.000578934
1.53622,13.9737,-0.000283169,-98.0757,8.89639,-0.0050173,3.01547,-0.000832522,-0.279409,-0.000581651
1.54022,14.0093,-0.000303345,-98.0636,8.89895,-0.00504279,3.02492,-0.000831799,-0.280281,-0.000584373
1.54422,14.0449,-0.000323623,-98.0514,8.90153,-0.0050683,3.03435,-0.000831075,-0.281148,-0.000587092
1.54822,14.0806,-0.000343999,-98.0392,8.90414,-0.00509384,3.04374,-0.000830348,-0.28201,-0.000589811
1.55222,14.1162,-0.000364481,-98.027,8.90678,-0.00511941,3.05312,-0.000829619,-0.282867,-0.000592531
1.55622,14.1518,-0.000385067,-98.0148,8.90945,-0.005145,3.06246,-0.000828888,-0.28372,-0.000595248
1.56022,14.1875,-0.000405749,-98.0025,8.91214,-0.00517061,3.07177,-0.000828153,-0.284568,-0.000597967
1.56423,14.2232,-0.000426539,-97.9902,8.91486,-0.00519626,3.08106,-0.000827417,-0.285411,-0.000600684
1.56823,14.2588,-0.000447432,-97.9778,8.9176,-0.00522193,3.09032,-0.000826679,-0.286249,-0.000603401
1.57223,14.2945,-0.000468428,-97.9654,8.92037,-0.00524763,3.09955,-0.000825939,-0.287083,-0.000606117
1.57623,14.3302,-0.000489521,-97.953,8.92317,-0.00527336,3.10875,-0.000825195,-0.287911,-0.000608835
1.58023,14.3659,-0.000510723,-97.9405,8.92599,-0.00529911,3.11792,-0.00082445,-0.288734,-0.00061155
1.58423,14.4017,-0.000532028,-97.928,8.92884,-0.00532489,3.12707,-0.000823703,-0.289553,-0.000614266
1.58823,14.4374,-0.000553431,-97.9154,8.93172,-0.0053507,3.13618,-0.000822953,-0.290367,-0.00061698
1.59223,14.4731,-0.000574942,-97.9028,8.93462,-0.00537653,3.14526,-0.000822201,-0.291175,-0.000619695
1.59623,14.5089,-0.000596557,-97.8902,8.93755,-0.0054024,3.15432,-0.000821446,-0.291979,-0.000622413
1.60023,14.5447,-0.000618276,-97.8776,8.94051,-0.0054283,3.16334,-0.00082069,-0.292778,-0.000625127
1.60423,14.5804,-0.000640093,-97.8649,8.94349,-0.00545421,3.17234,-0.000819932,-0.293571,-0.00062784
1.60823,14.6162,-0.000662019,-97.8522,8.94649,-0.00548017,3.1813,-0.000819172,-0.29436,-0.000630552
1.61223,14.652,-0.000684049,-97.8394,8.94953,-0.00550615,3.19023,-0.00081841,-0.295144,-0.000633265
1.61623,14.6878,-0.000706178,-97.8266,8.95259,-0.00553215,3.19913,-0.000817645,-0.295922,-0.000635979
1.62024,14.7237,-0.000728416,-97.8138,8.95567,-0.00555819,3.208,-0.000816879,-0.296696,-0.00063869
1.62424,14.7595,-0.000750759,-97.8009,8.95878,-0.00558426,3.21684,-0.000816109,-0.297464,-0.000641403
1.62824,14.7954,-0.0007732,-97.788,8.96192,-0.00561036,3.22564,-0.000815339,-0.298227,-0.000644115
1.63224,14.8312,-0.000795752,-97.7751,8.96508,-0.00563649,3.23442,-0.000814565,-0.298985,-0.000646828
1.63624,14.8671,-0.000818408,-97.7621,8.96827,-0.00566265,3.24316,-0.000813791,-0.299738,-0.000649538
1.64024,14.903,-0.000841169,-97.7491,8.97148,-0.00568884,3.25187,-0.000813014,-0.300486,-0.000652247
1.64424,14.9389,-0.000864029,-97.736,8.97472,-0.00571505,3.26054,-0.000812236,-0.301229,-0.000654958
1.64824,14.9748,-0.000887,-97.723,8.97798,-0.0057413,3.26918,-0.000811455,-0.301966,-0.000657667
1.65224,15.0108,-0.000910076,-97.7098,8.98127,-0.00576758,3.27779,-0.000810672,-0.302698,-0.000660378
1.65624,15.0467,-0.000933252,-97.6967,8.98459,-0.00579389,3.28637,-0.000809887,-0.303425,-0.000663087
1.66024,15.0827,-0.000956539,-97.6835,8.98793,-0.00582024,3.29491,-0.000809101,-0.304147,-0.000665795
1.66424,15.1186,-0.000979931,-97.6703,8.9913,-0.00584661,3.30342,-0.000808313,-0.304864,-0.000668501
1.66824,15.1546,-0.00100343,-97.657,8.99469,-0.00587302,3.31189,-0.000807523,-0.305575,-0.00067121
1.67224,15.1906,-0.00102703,-97.6438,8.9981,-0.00589945,3.32033,-0.000806731,-0.306281,-0.000673916
1.67625,15.2266,-0.00105074,-97.6304,9.00154,-0.00592592,3.32874,-0.000805937,-0.306982,-0.000676624
1.68025,15.2627,-0.00107455,-97.6171,9.00501,-0.00595243,3.33711,-0.000805141,-0.307677,-0.00067933
1.68425,15.2987,-0.00109847,-97.6037,9.0085,-0.00597896,3.34544,-0.000804344,-0.308367,-0.000682037
1.68825,15.3348,-0.0011225,-97.5903,9.01202,-0.00600552,3.35374,-0.000803544,-0.309052,-0.000684744
1.69225,15.3708,-0.00114663,-97.5768,9.01555,-0.00603212,3.36201,-0.000802743,-0.309732,-0.00068745
1.69625,15.4069,-0.00117087,-97.5634,9.01912,-0.00605875,3.37023,-0.00080194,-0.310406,-0.000690156
1.70025,15.443,-0.00119521,-97.5498,9.02271,-0.00608542,3.37843,-0.000801135,-0.311075,-0.00069286
1.70425,15.4791,-0.00121967,-97.5363,9.02632,-0.00611212,3.38658,-0.000800329,-0.311738,-0.000695565
1.70825,15.5153,-0.00124423,-97.5227,9.02996,-0.00613885,3.39471,-0.000799522,-0.312397,-0.000698268
1.71225,15.5514,-0.00126889,-97.5091,9.03363,-0.00616561,3.40279,-0.000798712,-0.313049,-0.000700972
1.71625,15.5875,-0.00129367,-97.4954,9.03732,-0.00619241,3.41084,-0.000797901,-0.313697,-0.000703674
1.72025,15.6237,-0.00131855,-97.4818,9.04103,-0.00621924,3.41885,-0.000797087,-0.314339,-0.000706379
1.72425,15.6599,-0.00134354,-97.4681,9.04476,-0.0062461,3.42682,-0.000796273,-0.314975,-0.000709082
1.72825,15.6961,-0.00136863,-97.4543,9.04852,-0.006273,3.43476,-0.000795457,-0.315606,-0.000711783
1.73226,15.7323,-0.00139384,-97.4405,9.05231,-0.00629994,3.44265,-0.000794639,-0.316232,-0.000714485
1.73626,15.7686,-0.00141915,-97.4267,9.05612,-0.0063269,3.45052,-0.000793819,-0.316853,-0.000717186
1.74026,15.8048,-0.00144457,-97.4129,9.05995,-0.0063539,3.45834,-0.000792999,-0.317467,-0.000719885
1.74426,15.8411,-0.0014701,-97.399,9.06381,-0.00638094,3.46612,-0.000792176,-0.318077,-0.000722586
1.74826,15.8773,-0.00149574,-97.3851,9.06769,-0.00640801,3.47387,-0.000791352,-0.318681,-0.000725287
1.75227,15.9137,-0.00152154,-97.3712,9.0716,-0.00643518,3.4816,-0.000790525,-0.319281,-0.000727991
1.75627,15.95,-0.0015474,-97.3572,9.07553,-0.00646232,3.48927,-0.000789698,-0.319874,-0.000730691
1.76027,15.9864,-0.00157336,-97.3432,9.07948,-0.00648949,3.4969,-0.000788869,-0.320462,-0.000733391
1.76427,16.0227,-0.00159943,-97.3292,9.08346,-0.00651669,3.50449,-0.000788039,-0.321044,-0.000736087
1.76827,16.059,-0.00162561,-97.3151,9.08746,-0.00654394,3.51204,-0.000787208,-0.321621,-0.000738784
1.77227,16.0954,-0.0016519,-97.3011,9.09148,-0.00657122,3.51955,-0.000786375,-0.322192,-0.000741483
1.77627,16.1318,-0.0016783,-97.287,9.09552,-0.00659852,3.52702,-0.00078554,-0.322757,-0.00074418
1.78027,16.1682,-0.00170481,-97.2728,9.09959,-0.00662587,3.53446,-0.000784704,-0.323318,-0.000746879
1.78427,16.2046,-0.00173143,-97.2586,9.10368,-0.00665326,3.54185,-0.000783868,-0.323872,-0.000749573
1.78828,16.2411,-0.00175816,-97.2444,9.1078,-0.00668068,3.5492,-0.00078303,-0.324422,-0.000752267
1.79228,16.2775,-0.00178499,-97.2302,9.11193,-0.00670813,3.55651,-0.00078219,-0.324965,-0.000754962
1.79628,16.314,-0.00181194,-97.216,9.11609,-0.00673562,3.56378,-0.000781349,-0.325504,-0.000757656
1.80028,16.3505,-0.001839,-97.2017,9.12028,-0.00676315,3.57102,-0.000780506,-0.326036,-0.000760352
1.80428,16.387,-0.00186616,-97.1874,9.12448,-0.00679071,3.5782,-0.000779664,-0.326563,-0.000763042
1.80828,16.4235,-0.00189344,-97.173,9.12871,-0.0068183,3.58535,-0.000778818,-0.327085,-0.000765736
1.81228,16.46,-0.00192083,-97.1586,9.13296,-0.00684594,3.59246,-0.000777974,-0.327601,-0.000768425
1.81628,16.4966,-0.00194833,-97.1442,9.13724,-0.00687361,3.59953,-0.000777126,-0.328112,-0.000771119
1.82028,16.5332,-0.00197594,-97.1298,9.14153,-0.00690131,3.60655,-0.000776278,-0.328617,-0.000773808
1.82428,16.5698,-0.00200366,-97.1153,9.14585,-0.00692905,3.61354,-0.000775428,-0.329117,-0.000776501
1.82828,16.6064,-0.0020315,-97.1009,9.15019,-0.00695683,3.62048,-0.000774576,-0.329611,-0.000779192
1.83228,16.643,-0.00205943,-97.0863,9.15455,-0.00698464,3.62737,-0.000773725,-0.330099,-0.00078188
1.83628,16.6796,-0.00208749,-97.0718,9.15894,-0.00701249,3.63423,-0.000772872,-0.330582,-0.000784569
1.84028,16.7163,-0.00211566,-97.0572,9.16334,-0.00704038,3.64105,-0.000772018,-0.33106,-0.000787257
1.84428,16.753,-0.00214393,-97.0426,9.16777,-0.00706829,3.64782,-0.000771162,-0.331532,-0.000789946
1.84829,16.7897,-0.00217232,-97.028,9.17222,-0.00709625,3.65455,-0.000770305,-0.331998,-0.000792634
1.85229,16.8264,-0.00220083,-97.0134,9.17669,-0.00712425,3.66123,-0.000769448,-0.332459,-0.00079532
1.85629,16.8631,-0.00222945,-96.9987,9.18118,-0.00715228,3.66788,-0.00076859,-0.332914,-0.000798005
1.86029,16.8999,-0.00225817,-96.984,9.1857,-0.00718034,3.67447,-0.00076773,-0.333364,-0.000800691
1.86429,16.9366,-0.00228701,-96.9693,9.19023,-0.00720845,3.68103,-0.00076687,-0.333808,-0.000803376
1.86829,16.9734,-0.00231596,-96.9545,9.19479,-0.00723659,3.68754,-0.000766008,-0.334247,-0.000806062
1.87229,17.0102,-0.00234502,-96.9397,9.19936,-0.00726477,3.69401,-0.000765146,-0.33468,-0.000808743
1.87629,17.047,-0.0023742,-96.9249,9.20396,-0.00729298,3.70044,-0.000764284,-0.335108,-0.000811425
1.88029,17.0839,-0.00240349,-96.9101,9.20858,-0.00732123,3.70682,-0.000763419,-0.33553,-0.000814109
1.88429,17.1207,-0.0024329,-96.8952,9.21322,-0.00734952,3.71316,-0.000762554,-0.335946,-0.00081679
1.88829,17.1576,-0.00246241,-96.8804,9.21788,-0.00737784,3.71945,-0.000761687,-0.336357,-0.000819472
1.89229,17.1945,-0.00249204,-96.8655,9.22256,-0.00740621,3.7257,-0.000760821,-0.336763,-0.000822151
1.89629,17.2314,-0.00252179,-96.8505,9.22727,-0.00743461,3.7319,-0.000759953,-0.337163,-0.000824831
1.90029,17.2684,-0.00255164,-96.8356,9.23199,-0.00746304,3.73806,-0.000759084,-0.337557,-0.00082751
1.9043,17.3053,-0.00258161,-96.8206,9.23673,-0.00749151,3.74418,-0.000758214,-0.337946,-0.000830189
1.9083,17.3423,-0.0026117,-96.8056,9.24149,-0.00752002,3.75025,-0.000757344,-0.33833,-0.000832866
1.9123,17.3793,-0.00264189,-96.7906,9.24627,-0.00754856,3.75627,-0.000756473,-0.338707,-0.000835543
1.9163,17.4163,-0.00267221,-96.7755,9.25108,-0.00757714,3.76225,-0.000755602,-0.33908,-0.000838216
1.9203,17.4533,-0.00270264,-96.7604,9.2559,-0.00760576,3.76818,-0.000754729,-0.339447,-0.000840893
1.9243,17.4904,-0.00273319,-96.7453,9.26074,-0.00763442,3.77407,-0.000753855,-0.339808,-0.000843569
1.9283,17.5274,-0.00276384,-96.7302,9.2656,-0.0076631,3.77992,-0.000752982,-0.340164,-0.000846242
1.9323,17.5645,-0.00279461,-96.7151,9.27048,-0.00769183,3.78571,-0.000752107,-0.340514,-0.000848914
1.9363,17.6016,-0.0028255,-96.6999,9.27538,-0.0077206,3.79147,-0.000751231,-0.340859,-0.000851589
1.9403,17.6388,-0.0028565,-96.6847,9.2803,-0.00774939,3.79717,-0.000750355,-0.341199,-0.000854261
1.9443,17.6759,-0.00288762,-96.6695,9.28524,-0.00777824,3.80283,-0.000749479,-0.341533,-0.00085693
1.9483,17.7131,-0.00291886,-96.6543,9.2902,-0.00780711,3.80844,-0.000748601,-0.341861,-0.000859601
1.9523,17.7503,-0.00295021,-96.639,9.29518,-0.00783603,3.81401,-0.000747724,-0.342184,-0.000862269
1.9563,17.7875,-0.00298167,-96.6237,9.30017,-0.00786497,3.81953,-0.000746845,-0.342502,-0.000864937
1.96031,17.8247,-0.00301325,-96.6084,9.30518,-0.00789395,3.825,-0.000745966,-0.342814,-0.000867606
1.96431,17.862,-0.00304495,-96.5931,9.31021,-0.00792297,3.83043,-0.000745087,-0.34312,-0.000870272
1.96831,17.8992,-0.00307676,-96.5778,9.31526,-0.00795203,3.83581,-0.000744206,-0.343422,-0.000872938
1.97231,17.9365,-0.00310869,-96.5624,9.32033,-0.00798112,3.84114,-0.000743326,-0.343717,-0.000875605
1.97631,17.9738,-0.00314074,-96.547,9.32542,-0.00801025,3.84643,-0.000742443,-0.344008,-0.000878271
1.98031,18.0111,-0.0031729,-96.5316,9.33052,-0.00803941,3.85167,-0.000741563,-0.344293,-0.000880932
1.98431,18.0485,-0.00320518,-96.5162,9.33564,-0.00806861,3.85686,-0.00074068,-0.344572,-0.000883595
1.98831,18.0859,-0.00323758,-96.5007,9.34079,-0.00809785,3.86201,-0.000739798,-0.344846,-0.000886256
1.99231,18.1233,-0.0032701,-96.4852,9.34594,-0.00812713,3.86711,-0.000738914,-0.345115,-0.00088892
1.99631,18.1607,-0.00330272,-96.4697,9.35112,-0.00815643,3.87215,-0.00073803,-0.345378,-0.000891581
2.00031,18.1981,-0.00333548,-96.4542,9.35631,-0.00818578,3.87716,-0.000737147,-0.345636,-0.000894239
2.00431,18.2356,-0.00336835,-96.4387,9.36152,-0.00821516,3.88211,-0.000736263,-0.345888,-0.000896895
2.00831,18.273,-0.00340132,-96.4232,9.36674,-0.00824457,3.88702,-0.000735379,-0.346135,-0.000899551
2.01231,18.3105,-0.00343442,-96.4076,9.37199,-0.00827402,3.89188,-0.000734493,-0.346377,-0.000902209
2.01631,18.348,-0.00346764,-96.392,9.37725,-0.00830351,3.89669,-0.000733608,-0.346613,-0.000904864
2.02031,18.3856,-0.00350097,-96.3764,9.38252,-0.00833302,3.90145,-0.000732723,-0.346844,-0.000907519
2.02431,18.4231,-0.00353442,-96.3608,9.38782,-0.00836258,3.90616,-0.000731838,-0.34707,-0.00091017
2.02832,18.4607,-0.003568,-96.3451,9.39313,-0.00839217,3.91083,-0.000730951,-0.34729,-0.000912823
2.03232,18.4983,-0.0036017,-96.3295,9.39846,-0.0084218,3.91545,-0.000730065,-0.347505,-0.000915475
2.03632,18.5359,-0.0036355,-96.3138,9.4038,-0.00845146,3.92002,-0.000729178,-0.347715,-0.000918126
2.04032,18.5736,-0.00366944,-96.2981,9.40916,-0.00848116,3.92454,-0.00072829,-0.347919,-0.000920779
2.04432,18.6112,-0.00370349,-96.2824,9.41453,-0.0085109,3.92901,-0.000727403,-0.348118,-0.000923427
2.04832,18.6489,-0.00373765,-96.2666,9.41992,-0.00854066,3.93344,-0.000726517,-0.348312,-0.000926074
2.05232,18.6866,-0.00377194,-96.2509,9.42533,-0.00857047,3.93781,-0.000725628,-0.348501,-0.000928723
2.05632,18.7243,-0.00380635,-96.2351,9.43075,-0.00860031,3.94214,-0.000724741,-0.348684,-0.000931369
2.06032,18.7621,-0.00384087,-96.2193,9.43618,-0.00863017,3.94642,-0.000723854,-0.348862,-0.000934012
2.06432,18.7999,-0.00387552,-96.2035,9.44163,-0.00866008,3.95064,-0.000722966,-0.349034,-0.000936655
2.06832,18.8377,-0.00391028,-96.1877,9.4471,-0.00869002,3.95482,-0.000722078,-0.349202,-0.000939297
2.07232,18.8755,-0.00394516,-96.1719,9.45258,-0.00871998,3.95895,-0.00072119,-0.349364,-0.00094194
2.07632,18.9133,-0.00398016,-96.156,9.45807,-0.00874999,3.96303,-0.000720302,-0.349521,-0.00094458
2.08032,18.9512,-0.00401529,-96.1401,9.46358,-0.00878003,3.96707,-0.000719414,-0.349673,-0.000947219
2.08432,18.989,-0.00405053,-96.1243,9.4691,-0.0088101,3.97105,-0.000718527,-0.34982,-0.000949855
2.08832,19.0269,-0.00408589,-96.1084,9.47464,-0.00884021,3.97498,-0.000717639,-0.349961,-0.000952489
2.09232,19.0649,-0.00412138,-96.0924,9.48019,-0.00887035,3.97887,-0.000716751,-0.350097,-0.000955127
2.09632,19.1028,-0.00415699,-96.0765,9.48576,-0.00890053,3.9827,-0.000715862,-0.350228,-0.000957763
2.10032,19.1408,-0.00419272,-96.0606,9.49134,-0.00893073,3.98649,-0.000714975,-0.350354,-0.000960395
2.10433,19.1788,-0.00422857,-96.0446,9.49693,-0.00896098,3.99022,-0.000714087,-0.350475,-0.000963028
2.10833,19.2168,-0.00426454,-96.0286,9.50254,-0.00899125,3.99391,-0.000713199,-0.350591,-0.000965659
2.11233,19.2548,-0.00430063,-96.0126,9.50816,-0.00902156,3.99755,-0.00071231,-0.350701,-0.00096829
2.11633,19.2929,-0.00433685,-95.9966,9.5138,-0.0090519,4.00113,-0.000711422,-0.350807,-0.000970919
2.12033,19.331,-0.00437318,-95.9806,9.51944,-0.00908227,4.00467,-0.000710535,-0.350907,-0.000973546
2.12433,19.3691,-0.00440963,-95.9646,9.5251,-0.00911267,4.00816,-0.000709648,-0.351003,-0.000976171
2.12833,19.4072,-0.00444622,-95.9485,9.53077,-0.00914311,4.01159,-0.000708761,-0.351093,-0.000978797
2.13233,19.4454,-0.00448291,-95.9324,9.53646,-0.00917357,4.01498,-0.000707873,-0.351178,-0.000981423
2.13633,19.4835,-0.00451973,-95.9164,9.54215,-0.00920407,4.01832,-0.000706986,-0.351258,-0.000984046
2.14033,19.5217,-0.00455666,-95.9003,9.54786,-0.00923459,4.02161,-0.000706099,-0.351333,-0.000986667
2.14433,19.5599,-0.00459373,-95.8842,9.55358,-0.00926515,4.02484,-0.000705212,-0.351403,-0.000989289
2.14833,19.5982,-0.00463092,-95.8681,9.55931,-0.00929574,4.02803,-0.000704326,-0.351468,-0.000991907
2.15233,19.6364,-0.00466822,-95.852,9.56505,-0.00932636,4.03117,-0.00070344,-0.351528,-0.000994527
2.15633,19.6747,-0.00470566,-95.8358,9.57081,-0.00935702,4.03426,-0.000702554,-0.351584,-0.000997144
2.16033,19.713,-0.00474322,-95.8197,9.57658,-0.00938771,4.03729,-0.000701669,-0.351634,-0.000999757
2.16433,19.7514,-0.00478089,-95.8035,9.58236,-0.00941842,4.04028,-0.000700784,-0.351679,-0.00100237
2.16833,19.7897,-0.0048187,-95.7873,9.58815,-0.00944917,4.04322,-0.0006999,-0.351719,-0.00100498
2.17233,19.8281,-0.00485663,-95.7711,9.59395,-0.00947995,4.04611,-0.000699014,-0.351755,-0.0010076
2.17633,19.8665,-0.00489467,-95.7549,9.59976,-0.00951075,4.04894,-0.00069813,-0.351785,-0.00101021
2.18034,19.905,-0.00493285,-95.7387,9.60558,-0.00954159,4.05173,-0.000697246,-0.351811,-0.00101281
2.18433,19.9434,-0.00497114,-95.7225,9.61141,-0.00957245,4.05447,-0.000696363,-0.351831,-0.00101542
2.18833,19.9819,-0.00500955,-95.7063,9.61726,-0.00960334,4.05715,-0.00069548,-0.351847,-0.00101803
2.19234,20.0204,-0.00504809,-95.69,9.62311,-0.00963426,4.05979,-0.000694598,-0.351858,-0.00102063
2.19634,20.0589,-0.00508676,-95.6738,9.62897,-0.00966521,4.06238,-0.000693716,-0.351864,-0.00102323
2.20034,20.0974,-0.00512554,-95.6575,9.63484,-0.00969619,4.06491,-0.000692835,-0.351866,-0.00102583
2.20434,20.136,-0.00516445,-95.6413,9.64072,-0.00972719,4.06739,-0.000691953,-0.351862,-0.00102843
2.20834,20.1746,-0.00520349,-95.625,9.64661,-0.00975822,4.06983,-0.000691072,-0.351854,-0.00103103
2.21234,20.2132,-0.00524265,-95.6087,9.65251,-0.00978929,4.07221,-0.000690192,-0.351841,-0.00103363
2.21634,20.2518,-0.00528193,-95.5924,9.65842,-0.00982037,4.07455,-0.000689313,-0.351823,-0.00103623
2.22034,20.2905,-0.00532134,-95.5761,9.66434,-0.00985149,4.07683,-0.000688433,-0.3518,-0.00103882
2.22434,20.3292,-0.00536088,-95.5598,9.67026,-0.00988264,4.07906,-0.000687554,-0.351773,-0.00104142
2.22834,20.3679,-0.00540055,-95.5434,9.6762,-0.00991382,4.08125,-0.000686676,-0.351741,-0.00104401
2.23234,20.4066,-0.00544033,-95.5271,9.68214,-0.00994501,4.08338,-0.000685799,-0.351704,-0.0010466
2.23634,20.4454,-0.00548024,-95.5108,9.68809,-0.00997624,4.08546,-0.000684922,-0.351663,-0.00104918
2.24034,20.4842,-0.00552027,-95.4944,9.69405,-0.0100075,4.0875,-0.000684045,-0.351617,-0.00105177
2.24434,20.523,-0.00556043,-95.4781,9.70002,-0.0100388,4.08948,-0.000683169,-0.351566,-0.00105436
2.24834,20.5618,-0.00560071,-95.4617,9.70599,-0.0100701,4.09141,-0.000682293,-0.35151,-0.00105694
2.25234,20.6006,-0.00564112,-95.4453,9.71197,-0.0101014,4.09329,-0.000681418,-0.35145,-0.00105953
2.25634,20.6395,-0.00568165,-95.4289,9.71796,-0.0101328,4.09512,-0.000680545,-0.351386,-0.00106211
2.26034,20.6784,-0.00572231,-95.4125,9.72396,-0.0101641,4.0969,-0.000679672,-0.351317,-0.00106469
2.26434,20.7173,-0.00576309,-95.3961,9.72996,-0.0101955,4.09863,-0.000678799,-0.351243,-0.00106727
2.26834,20.7563,-0.00580401,-95.3797,9.73597,-0.010227,4.10031,-0.000677928,-0.351164,-0.00106984
2.27234,20.7953,-0.00584504,-95.3633,9.74199,-0.0102584,4.10194,-0.000677055,-0.351082,-0.00107242
2.27634,20.8342,-0.0058862,-95.3469,9.74801,-0.0102899,4.10352,-0.000676185,-0.350994,-0.00107499
2.28034,20.8733,-0.0059275,-95.3305,9.75404,-0.0103214,4.10505,-0.000675316,-0.350902,-0.00107756
2.28434,20.9123,-0.00596892,-95.3141,9.76007,-0.0103529,4.10653,-0.000674446,-0.350806,-0.00108013
2.28834,20.9514,-0.00601046,-95.2976,9.76611,-0.0103845,4.10795,-0.000673578,-0.350705,-0.0010827
2.29235,20.9905,-0.00605213,-95.2812,9.77216,-0.010416,4.10933,-0.000672711,-0.350599,-0.00108527
2.29635,21.0296,-0.00609393,-95.2647,9.77821,-0.0104476,4.11066,-0.000671844,-0.35049,-0.00108784
2.30035,21.0687,-0.00613585,-95.2483,9.78427,-0.0104792,4.11194,-0.000670978,-0.350375,-0.0010904
2.30435,21.1079,-0.0061779,-95.2318,9.79033,-0.0105109,4.11317,-0.000670114,-0.350257,-0.00109296
2.30835,21.1471,-0.00622007,-95.2154,9.7964,-0.0105425,4.11435,-0.00066925,-0.350134,-0.00109552
2.31235,21.1863,-0.00626237,-95.1989,9.80247,-0.0105742,4.11547,-0.000668386,-0.350006,-0.00109808
2.31635,21.2255,-0.00630479,-95.1824,9.80854,-0.0106059,4.11655,-0.000667523,-0.349874,-0.00110064
2.32035,21.2648,-0.00634736,-95.166,9.81463,-0.0106377,4.11758,-0.000666661,-0.349738,-0.0011032
2.32435,21.3041,-0.00639003,-95.1495,9.82071,-0.0106694,4.11856,-0.000665799,-0.349598,-0.00110575
2.32835,21.3434,-0.00643284,-95.133,9.8268,-0.0107012,4.11949,-0.000664941,-0.349453,-0.0011083
2.33235,21.3827,-0.00647578,-95.1165,9.83289,-0.0107329,4.12037,-0.000664081,-0.349304,-0.00111086
2.33635,21.4221,-0.00651885,-95.1001,9.83899,-0.0107647,4.1212,-0.000663224,-0.34915,-0.0011134
2.34035,21.4615,-0.00656204,-95.0836,9.84509,-0.0107966,4.12198,-0.000662366,-0.348993,-0.00111595
2.34435,21.5009,-0.00660536,-95.0671,9.85119,-0.0108284,4.12271,-0.00066151,-0.348831,-0.0011185
2.34835,21.5403,-0.00664881,-95.0506,9.8573,-0.0108603,4.12339,-0.000660655,-0.348665,-0.00112104
2.35235,21.5798,-0.00669238,-95.0341,9.86341,-0.0108922,4.12402,-0.000659801,-0.348494,-0.00112358
2.35635,21.6193,-0.00673609,-95.0176,9.86952,-0.0109241,4.1246,-0.000658947,-0.34832,-0.00112612
2.36035,21.6588,-0.00677991,-95.0011,9.87563,-0.010956,4.12513,-0.000658094,-0.348141,-0.00112866
2.36435,21.6983,-0.00682386,-94.9846,9.88175,-0.0109879,4.12561,-0.000657243,-0.347959,-0.0011312
2.36835,21.7379,-0.00686794,-94.9681,9.88787,-0.0110199,4.12605,-0.000656394,-0.347772,-0.00113373
2.37235,21.7775,-0.00691216,-94.9516,9.89399,-0.0110518,4.12643,-0.000655545,-0.347581,-0.00113626
2.37635,21.8171,-0.0069565,-94.9351,9.90011,-0.0110838,4.12676,-0.000654698,-0.347385,-0.00113879
2.38035,21.8567,-0.00700096,-94.9185,9.90623,-0.0111158,4.12705,-0.000653849,-0.347186,-0.00114133
2.38435,21.8963,-0.00704555,-94.902,9.91235,-0.0111478,4.12729,-0.000653005,-0.346983,-0.00114385
2.38836,21.936,-0.00709028,-94.8855,9.91848,-0.0111799,4.12747,-0.000652159,-0.346776,-0.00114638
2.39235,21.9757,-0.00713513,-94.869,9.92461,-0.0112119,4.12761,-0.000651314,-0.346564,-0.00114891
2.39636,22.0154,-0.00718011,-94.8525,9.93073,-0.011244,4.1277,-0.000650472,-0.346349,-0.00115143
2.40036,22.0552,-0.00722522,-94.836,9.93686,-0.0112761,4.12774,-0.000649631,-0.346129,-0.00115395
