t,x,y,z,vx,vy,vz,roll,pitch,yaw
0,0,0,-500,5,0,0,0,0,0
0.033496,0,0,-500,5,0,0,0,0,0
0.038942,0.0252266,0,-500,4.99933,0,0.0315155,0,-0.00078613,0
0.105273,0.358911,-1.40421e-12,-499.972,5.03097,-2.11713e-11,0.426084,-1.90667e-12,-0.154036,4.64682e-12
0.115326,0.409428,-9.95864e-12,-499.966,5.02511,-8.50933e-10,0.565314,-1.61565e-11,-0.17595,3.30999e-11
0.120367,0.434745,-1.42467e-11,-499.963,5.02213,-8.50639e-10,0.632972,-2.35556e-11,-0.186648,4.75169e-11
0.12437,0.454839,-1.76507e-11,-499.96,5.01971,-8.50371e-10,0.685895,-2.95498e-11,-0.194975,5.90346e-11
0.128376,0.474933,-2.23824e-11,-499.957,5.01725,-1.18144e-09,0.738212,-3.80103e-11,-0.203149,7.5039e-11
0.132381,0.495022,-2.71138e-11,-499.954,5.01475,-1.18108e-09,0.78991,-4.66155e-11,-0.211179,9.11328e-11
0.137502,0.520686,-3.31594e-11,-499.949,5.01151,-1.18055e-09,0.855188,-5.78203e-11,-0.221226,1.11828e-10
0.141505,0.540732,-3.78823e-11,-499.946,5.00902,-1.18012e-09,0.90534,-6.67372e-11,-0.228961,1.28101e-10
0.145508,0.560828,-4.39557e-11,-499.942,5.00655,-1.51306e-09,0.954849,-7.83549e-11,-0.236619,1.49e-10
0.149511,0.58081,-4.99955e-11,-499.938,5.00415,-1.5126e-09,1.00334,-9.00898e-11,-0.244152,1.69904e-10
0.153517,0.600847,-5.60531e-11,-499.934,5.0018,-1.51213e-09,1.05129,-1.02042e-10,-0.251641,1.90993e-10
0.157521,0.620865,-6.34423e-11,-499.929,4.99951,-1.84546e-09,1.09854,-1.16803e-10,-0.259071,2.167e-10
0.161528,0.640884,-7.08334e-11,-499.925,4.99729,-1.84499e-09,1.14519,-1.31791e-10,-0.266462,2.4257e-10
0.165533,0.66089,-7.82206e-11,-499.92,4.99513,-1.84452e-09,1.19126,-1.46997e-10,-0.273821,2.68587e-10
0.169538,0.680892,-8.56079e-11,-499.915,4.99304,-1.84406e-09,1.23682,-1.6243e-10,-0.281162,2.94769e-10
0.173543,0.700876,-9.29898e-11,-499.91,4.99101,-1.84362e-09,1.28187,-1.78083e-10,-0.288491,3.211e-10
0.177548,0.720857,-1.00372e-10,-499.905,4.98905,-1.84319e-09,1.32651,-1.9397e-10,-0.295822,3.47605e-10
0.181552,0.740836,-1.09105e-10,-499.899,4.98713,-2.18005e-09,1.37077,-2.1297e-10,-0.303163,3.78909e-10
0.185558,0.760802,-1.17835e-10,-499.893,4.98528,-2.17965e-09,1.41466,-2.32244e-10,-0.310519,4.10416e-10
0.189561,0.78075,-1.26558e-10,-499.888,4.98348,-2.17929e-09,1.45817,-2.51794e-10,-0.317897,4.42126e-10
0.193566,0.800702,-1.35285e-10,-499.882,4.98172,-2.17894e-09,1.50141,-2.71644e-10,-0.325312,4.74081e-10
0.197573,0.820652,-1.44012e-10,-499.875,4.97998,-2.17862e-09,1.54444,-2.91797e-10,-0.332768,5.0628e-10
0.201579,0.8406,-1.52741e-10,-499.869,4.97826,-2.17831e-09,1.58731,-3.1226e-10,-0.340271,5.38732e-10
0.205585,0.860531,-1.61464e-10,-499.863,4.97655,-2.17801e-09,1.63005,-3.33024e-10,-0.347815,5.71424e-10
0.209588,0.88045,-1.70183e-10,-499.856,4.97482,-2.17771e-09,1.67271,-3.54103e-10,-0.355406,6.0437e-10
0.21486,0.90666,-1.84039e-10,-499.847,4.97249,-2.62867e-09,1.72885,-3.87947e-10,-0.365481,6.56472e-10
0.218864,0.926568,-1.95943e-10,-499.84,4.97068,-2.97238e-09,1.77154,-4.1741e-10,-0.373183,7.01273e-10
0.222868,0.946458,-2.0784e-10,-499.832,4.9688,-2.97201e-09,1.81428,-4.47317e-10,-0.380925,7.46437e-10
0.226873,0.96635,-2.21126e-10,-499.825,4.96686,-3.31734e-09,1.85714,-4.8109e-10,-0.388712,7.969e-10
0.230877,0.986229,-2.34407e-10,-499.817,4.96484,-3.31688e-09,1.9001,-5.15385e-10,-0.396534,8.47801e-10
0.234882,1.00611,-2.49085e-10,-499.81,4.96272,-3.66394e-09,1.94323,-5.53723e-10,-0.404392,9.04128e-10
0.238887,1.02598,-2.63757e-10,-499.802,4.9605,-3.66336e-09,1.98651,-5.92659e-10,-0.412276,9.60959e-10
0.242894,1.04584,-2.78433e-10,-499.793,4.95818,-3.66271e-09,2.02998,-6.32232e-10,-0.420186,1.01835e-09
0.246898,1.06569,-2.93096e-10,-499.785,4.95574,-3.66199e-09,2.07359,-6.72406e-10,-0.428107,1.07623e-09
0.250903,1.08552,-3.07759e-10,-499.777,4.95318,-3.66119e-09,2.1174,-7.13232e-10,-0.43604,1.13468e-09
0.254907,1.10534,-3.22411e-10,-499.768,4.9505,-3.6603e-09,2.16137,-7.54689e-10,-0.443975,1.19366e-09
0.258911,1.12516,-3.37067e-10,-499.759,4.94768,-3.65932e-09,2.20555,-7.9683e-10,-0.451912,1.25324e-09
0.262916,1.14496,-3.51714e-10,-499.75,4.94473,-3.65826e-09,2.2499,-8.39634e-10,-0.459841,1.31339e-09
0.26692,1.16474,-3.66357e-10,-499.741,4.94166,-3.65712e-09,2.29441,-8.8312e-10,-0.467758,1.37411e-09
0.270925,1.18453,-3.82429e-10,-499.732,4.93847,-4.01201e-09,2.33908,-9.31296e-10,-0.475663,1.4407e-09
0.27493,1.20429,-3.99917e-10,-499.722,4.93514,-4.36765e-09,2.38387,-9.84242e-10,-0.483544,1.51318e-09
0.278934,1.22403,-4.174e-10,-499.712,4.9317,-4.36625e-09,2.42879,-1.03802e-09,-0.491401,1.58639e-09
0.282944,1.24383,-4.34933e-10,-499.702,4.92812,-4.36474e-09,2.47399,-1.09283e-09,-0.499256,1.66057e-09
0.286957,1.26356,-4.5386e-10,-499.692,4.92442,-4.72352e-09,2.51919,-1.15258e-09,-0.50706,1.74069e-09
0.290965,1.28328,-4.72785e-10,-499.682,4.9206,-4.72183e-09,2.56452,-1.21327e-09,-0.514831,1.82165e-09
0.294969,1.30297,-4.91684e-10,-499.672,4.91666,-4.72004e-09,2.60991,-1.27484e-09,-0.522555,1.90334e-09
0.298974,1.32264,-5.10581e-10,-499.661,4.9126,-4.71818e-09,2.6554,-1.33739e-09,-0.530241,1.98588e-09
0.30298,1.3423,-5.29469e-10,-499.65,4.90843,-4.71622e-09,2.70098,-1.40089e-09,-0.537881,2.06926e-09
0.306985,1.36195,-5.48354e-10,-499.639,4.90414,-4.71419e-09,2.74665,-1.46538e-09,-0.545476,2.15349e-09
0.31099,1.38157,-5.6869e-10,-499.628,4.89974,-5.07885e-09,2.79236,-1.53541e-09,-0.553018,2.24417e-09
0.314993,1.40117,-5.89017e-10,-499.617,4.89524,-5.07666e-09,2.83813,-1.60649e-09,-0.560507,2.33577e-09
0.318996,1.42074,-6.0933e-10,-499.605,4.89064,-5.0744e-09,2.88394,-1.67862e-09,-0.567941,2.42827e-09
0.323,1.4403,-6.29633e-10,-499.593,4.88594,-5.07208e-09,2.92978,-1.75182e-09,-0.575318,2.5217e-09
0.327007,1.45986,-6.51437e-10,-499.581,4.88114,-5.44147e-09,2.9757,-1.83103e-09,-0.582645,2.622e-09
0.33101,1.47938,-6.7321e-10,-499.569,4.87627,-5.43901e-09,3.02159,-1.91132e-09,-0.589906,2.7232e-09
0.335017,1.49891,-6.94999e-10,-499.557,4.8713,-5.43651e-09,3.06754,-1.99289e-09,-0.597115,2.82556e-09
0.339021,1.51839,-7.18253e-10,-499.545,4.86626,-5.80906e-09,3.11345,-2.08058e-09,-0.604254,2.93478e-09
0.343024,1.53785,-7.41502e-10,-499.532,4.86115,-5.80645e-09,3.15935,-2.16955e-09,-0.611332,3.04513e-09
0.347031,1.55731,-7.64758e-10,-499.519,4.85597,-5.8038e-09,3.20528,-2.25987e-09,-0.618354,3.15668e-09
0.351035,1.57673,-7.89503e-10,-499.506,4.85073,-6.18014e-09,3.25115,-2.35665e-09,-0.625307,3.27537e-09
0.355039,1.59613,-8.14231e-10,-499.493,4.84543,-6.17741e-09,3.29697,-2.45476e-09,-0.632195,3.39524e-09
0.359044,1.61551,-8.38961e-10,-499.479,4.84008,-6.17466e-09,3.34279,-2.5543e-09,-0.639023,3.51639e-09
0.363049,1.63488,-8.63685e-10,-499.466,4.83468,-6.17189e-09,3.38858,-2.65525e-09,-0.64579,3.63878e-09
0.367054,1.65421,-8.88386e-10,-499.452,4.82923,-6.1691e-09,3.4343,-2.75754e-09,-0.652491,3.76235e-09
0.371059,1.67354,-9.13088e-10,-499.438,4.82374,-6.16632e-09,3.47999,-2.86128e-09,-0.659132,3.88722e-09
0.375063,1.69283,-9.37761e-10,-499.424,4.81822,-6.16354e-09,3.5256,-2.96635e-09,-0.665707,4.01325e-09
0.379066,1.71209,-9.62423e-10,-499.41,4.81267,-6.16084e-09,3.57114,-3.06439e-09,-0.67222,4.13862e-09
0.383071,1.73135,-9.87093e-10,-499.395,4.80708,-6.15821e-09,3.61666,-3.16387e-09,-0.678678,4.26527e-09
0.387077,1.75058,-1.01018e-09,-499.381,4.80146,-5.76427e-09,3.66211,-3.2588e-09,-0.685073,4.3865e-09
0.391082,1.76979,-1.03169e-09,-499.366,4.79582,-5.36892e-09,3.70751,-3.34907e-09,-0.691412,4.50223e-09
0.395086,1.78897,-1.05317e-09,-499.351,4.79016,-5.36662e-09,3.75281,-3.44053e-09,-0.697689,4.61895e-09
0.399102,1.80818,-1.07471e-09,-499.335,4.78446,-5.36445e-09,3.79818,-3.53349e-09,-0.703925,4.73708e-09
0.403106,1.82732,-1.09539e-09,-499.32,4.77875,-5.16379e-09,3.84336,-3.62436e-09,-0.71009,4.85257e-09
0.40711,1.84642,-1.11606e-09,-499.305,4.77304,-5.1619e-09,3.88844,-3.71641e-09,-0.716197,4.96907e-09
0.411115,1.86552,-1.13593e-09,-499.289,4.76732,-4.96002e-09,3.93347,-3.80656e-09,-0.722255,5.08324e-09
0.415122,1.8846,-1.15499e-09,-499.273,4.76159,-4.75754e-09,3.97842,-3.89469e-09,-0.728264,5.19494e-09
0.419127,1.90364,-1.17323e-09,-499.257,4.75586,-4.55493e-09,4.02328,-3.92802e-09,-0.734222,5.3014e-09
0.423141,1.92271,-1.19151e-09,-499.24,4.7501,-4.55452e-09,4.06817,-3.96229e-09,-0.740147,5.40867e-09
0.427147,1.94172,-1.20976e-09,-499.224,4.74433,-4.55468e-09,4.11291,-3.99736e-09,-0.746014,5.51631e-09
0.431236,1.9611,-1.22753e-09,-499.207,4.73842,-4.3469e-09,4.15852,-4.06203e-09,-0.751959,5.62471e-09
0.435241,1.98005,-1.24413e-09,-499.19,4.73262,-4.14297e-09,4.20312,-4.12293e-09,-0.757737,5.72801e-09
0.439245,1.99897,-1.26072e-09,-499.173,4.72679,-4.14413e-09,4.24766,-4.18478e-09,-0.763471,5.83204e-09
0.443249,2.01788,-1.27649e-09,-499.156,4.72093,-3.93928e-09,4.29217,-4.24413e-09,-0.769166,5.93317e-09
0.447253,2.03676,-1.29227e-09,-499.139,4.71503,-3.94113e-09,4.33663,-4.30441e-09,-0.774821,6.03505e-09
0.451259,2.05562,-1.30807e-09,-499.121,4.7091,-3.94331e-09,4.38108,-4.36568e-09,-0.780438,6.13775e-09
0.455264,2.07446,-1.32304e-09,-499.103,4.70312,-3.737e-09,4.42549,-4.42426e-09,-0.786017,6.23738e-09
0.459267,2.09326,-1.33717e-09,-499.085,4.69711,-3.53042e-09,4.46983,-4.48001e-09,-0.791551,6.33378e-09
0.463272,2.11205,-1.35132e-09,-499.067,4.69105,-3.53365e-09,4.51417,-4.53668e-09,-0.797049,6.43094e-09
0.467277,2.13082,-1.36465e-09,-499.049,4.68493,-3.32582e-09,4.55852,-4.5905e-09,-0.802515,6.52493e-09
0.471283,2.14955,-1.37713e-09,-499.031,4.67878,-3.11779e-09,4.6028,-4.64127e-09,-0.807935,6.61549e-09
0.475287,2.16827,-1.38878e-09,-499.012,4.67257,-2.90919e-09,4.64708,-4.68898e-09,-0.81332,6.70267e-09
0.479293,2.18695,-1.40045e-09,-498.993,4.6663,-2.91391e-09,4.69134,-4.73744e-09,-0.818666,6.79045e-09
0.483298,2.20562,-1.41128e-09,-498.974,4.65999,-2.70439e-09,4.73559,-4.78269e-09,-0.823975,6.8747e-09
0.487302,2.22425,-1.42127e-09,-498.955,4.65362,-2.4944e-09,4.77981,-4.82461e-09,-0.829244,6.95533e-09
0.491307,2.24286,-1.43128e-09,-498.936,4.64719,-2.50031e-09,4.82401,-4.86719e-09,-0.834473,7.03644e-09
0.495312,2.26145,-1.44132e-09,-498.916,4.64072,-2.50662e-09,4.8682,-4.91043e-09,-0.839665,7.11806e-09
0.499317,2.28001,-1.45139e-09,-498.897,4.63418,-2.51334e-09,4.91237,-4.95435e-09,-0.844818,7.2002e-09
0.503323,2.29855,-1.46149e-09,-498.877,4.62759,-2.52047e-09,4.95655,-4.99896e-09,-0.849935,7.28288e-09
0.507328,2.31705,-1.47073e-09,-498.857,4.62095,-2.30825e-09,5.00067,-5.03993e-09,-0.855008,7.36165e-09
0.511333,2.33553,-1.47912e-09,-498.837,4.61426,-2.09552e-09,5.04479,-5.0772e-09,-0.860044,7.43648e-09
0.515338,2.35399,-1.48666e-09,-498.816,4.60752,-1.88228e-09,5.0889,-5.11065e-09,-0.865042,7.50727e-09
0.519344,2.37242,-1.49335e-09,-498.796,4.60072,-1.66866e-09,5.13297,-5.14017e-09,-0.87,7.57389e-09
0.523348,2.39081,-1.50006e-09,-498.775,4.59388,-1.67796e-09,5.17701,-5.17013e-09,-0.874918,7.64079e-09
0.527353,2.40918,-1.50682e-09,-498.754,4.58699,-1.6877e-09,5.22104,-5.20054e-09,-0.879798,7.70801e-09
0.531357,2.42752,-1.51362e-09,-498.733,4.58005,-1.69788e-09,5.26503,-5.2314e-09,-0.884637,7.77552e-09
0.535361,2.44583,-1.52046e-09,-498.712,4.57306,-1.70853e-09,5.309,-5.26271e-09,-0.889439,7.84332e-09
0.539364,2.46411,-1.52735e-09,-498.69,4.56604,-1.7196e-09,5.35294,-5.29447e-09,-0.894202,7.91144e-09
0.543369,2.48237,-1.53337e-09,-498.669,4.55896,-1.50331e-09,5.39686,-5.32193e-09,-0.898927,7.97509e-09
0.547373,2.5006,-1.53944e-09,-498.647,4.55184,-1.5153e-09,5.44077,-5.34981e-09,-0.903617,8.03903e-09
0.551377,2.51879,-1.54555e-09,-498.625,4.54469,-1.52773e-09,5.48462,-5.37805e-09,-0.908265,8.10318e-09
0.555381,2.53696,-1.55172e-09,-498.603,4.53749,-1.54063e-09,5.52844,-5.4067e-09,-0.912876,8.16759e-09
0.559387,2.55511,-1.55794e-09,-498.58,4.53025,-1.55399e-09,5.57226,-5.43577e-09,-0.917454,8.23231e-09
0.563392,2.57322,-1.56329e-09,-498.558,4.52296,-1.3353e-09,5.61605,-5.46019e-09,-0.921995,8.29226e-09
0.567395,2.5913,-1.5687e-09,-498.535,4.51564,-1.34957e-09,5.65979,-5.48495e-09,-0.926498,8.35241e-09
0.5714,2.60935,-1.57416e-09,-498.512,4.50828,-1.36431e-09,5.7035,-5.51004e-09,-0.930965,8.41277e-09
0.575405,2.62738,-1.57969e-09,-498.489,4.50088,-1.37952e-09,5.74721,-5.5355e-09,-0.9354,8.47337e-09
0.579409,2.64537,-1.58433e-09,-498.466,4.49344,-1.15899e-09,5.79086,-5.55602e-09,-0.939798,8.52894e-09
0.583414,2.66334,-1.58903e-09,-498.443,4.48597,-1.17514e-09,5.83449,-5.57682e-09,-0.944162,8.58469e-09
0.587419,2.68127,-1.5938e-09,-498.419,4.47845,-1.19175e-09,5.87808,-5.59791e-09,-0.948491,8.64058e-09
0.591425,2.69918,-1.59865e-09,-498.396,4.47089,-1.20885e-09,5.92167,-5.61928e-09,-0.952789,8.69666e-09
0.59543,2.71706,-1.6026e-09,-498.372,4.4633,-9.86289e-10,5.96522,-5.63543e-09,-0.957054,8.74747e-09
0.599437,2.73491,-1.60662e-09,-498.348,4.45567,-1.00434e-09,6.00875,-5.65179e-09,-0.961286,8.79838e-09
0.60344,2.75272,-1.60975e-09,-498.323,4.448,-7.80987e-10,6.05222,-5.66272e-09,-0.965482,8.84381e-09
0.607443,2.7705,-1.61295e-09,-498.299,4.44029,-8.00006e-10,6.09566,-5.6738e-09,-0.969647,8.88929e-09
0.611447,2.78824,-1.61623e-09,-498.274,4.43254,-8.19516e-10,6.13908,-5.68503e-09,-0.973781,8.93481e-09
0.615452,2.80596,-1.61959e-09,-498.25,4.42475,-8.39518e-10,6.18247,-5.69641e-09,-0.977883,8.98036e-09
0.619457,2.82365,-1.62205e-09,-498.225,4.41692,-6.14137e-10,6.22584,-5.70204e-09,-0.981956,9.0202e-09
0.623462,2.84131,-1.62361e-09,-498.2,4.40905,-3.88285e-10,6.26918,-5.70178e-09,-0.985998,9.05416e-09
0.627467,2.85894,-1.62426e-09,-498.174,4.40114,-1.61903e-10,6.31251,-5.69548e-09,-0.990011,9.08213e-09
0.631472,2.87654,-1.624e-09,-498.149,4.39319,6.48783e-11,6.3558,-5.68301e-09,-0.993993,9.10395e-09
0.635477,2.89409,-1.62283e-09,-498.123,4.3852,2.92061e-10,6.39905,-5.66421e-09,-0.997944,9.1195e-09
0.639481,2.91162,-1.62175e-09,-498.097,4.37717,2.6896e-10,6.44228,-5.64516e-09,-1.00187,9.1347e-09
0.643485,2.92912,-1.61976e-09,-498.071,4.3691,4.97059e-10,6.48548,-5.61957e-09,-1.00576,9.14343e-09
0.64749,2.94658,-1.61787e-09,-498.045,4.36099,4.72892e-10,6.52865,-5.59366e-09,-1.00962,9.15173e-09
0.651496,2.96402,-1.61505e-09,-498.019,4.35283,7.02079e-10,6.57183,-5.56095e-09,-1.01346,9.15336e-09
0.6555,2.98142,-1.61234e-09,-497.992,4.34463,6.76822e-10,6.61495,-5.52785e-09,-1.01727,9.15446e-09
0.659504,2.99878,-1.60974e-09,-497.966,4.3364,6.51044e-10,6.65803,-5.49433e-09,-1.02105,9.15507e-09
0.663508,3.01611,-1.60621e-09,-497.939,4.32812,8.81411e-10,6.70109,-5.45372e-09,-1.0248,9.14869e-09
0.667511,3.0334,-1.60279e-09,-497.912,4.3198,8.54512e-10,6.74412,-5.41261e-09,-1.02853,9.14172e-09
0.671517,3.05067,-1.59947e-09,-497.885,4.31143,8.2704e-10,6.78715,-5.37095e-09,-1.03223,9.13414e-09
0.675522,3.0679,-1.59627e-09,-497.857,4.30302,7.99014e-10,6.83015,-5.32877e-09,-1.0359,9.12594e-09
0.679527,3.0851,-1.59319e-09,-497.83,4.29458,7.70442e-10,6.87312,-5.28607e-09,-1.03955,9.11714e-09
0.68353,3.10226,-1.59022e-09,-497.802,4.28609,7.41337e-10,6.91604,-5.24285e-09,-1.04317,9.10772e-09
0.687535,3.1194,-1.58632e-09,-497.774,4.27755,9.74619e-10,6.95898,-5.19192e-09,-1.04676,9.0908e-09
0.691538,3.13648,-1.58254e-09,-497.746,4.26898,9.44399e-10,7.00184,-5.14042e-09,-1.05033,9.07319e-09
0.695543,3.15354,-1.57782e-09,-497.718,4.26037,1.17844e-09,7.04469,-5.081e-09,-1.05387,9.04785e-09
0.699547,3.17057,-1.57216e-09,-497.69,4.25171,1.41297e-09,7.08753,-5.01346e-09,-1.05739,9.01461e-09
0.703551,3.18756,-1.56663e-09,-497.661,4.24302,1.38103e-09,7.13032,-4.94513e-09,-1.06088,8.98048e-09
0.707554,3.20451,-1.56016e-09,-497.633,4.23428,1.6164e-09,7.1731,-4.86842e-09,-1.06435,8.93819e-09
0.711558,3.22142,-1.55274e-09,-497.604,4.22549,1.85216e-09,7.21584,-4.7832e-09,-1.06779,8.88762e-09
0.715563,3.23831,-1.54546e-09,-497.575,4.21667,1.81842e-09,7.25857,-4.69688e-09,-1.07121,8.83588e-09
0.719566,3.25516,-1.53723e-09,-497.545,4.2078,2.05607e-09,7.30126,-4.71515e-09,-1.07461,8.78063e-09
0.723571,3.27197,-1.52913e-09,-497.516,4.19889,2.02319e-09,7.34394,-4.73295e-09,-1.07798,8.72493e-09
0.727576,3.28875,-1.52116e-09,-497.486,4.18994,1.99074e-09,7.3866,-4.75026e-09,-1.08133,8.66882e-09
0.731581,3.3055,-1.51221e-09,-497.457,4.18094,2.23297e-09,7.42924,-4.75908e-09,-1.08466,8.6046e-09
0.735586,3.32221,-1.50229e-09,-497.427,4.1719,2.47663e-09,7.47185,-4.75922e-09,-1.08796,8.53212e-09
0.73959,3.33887,-1.4914e-09,-497.397,4.16282,2.72163e-09,7.5144,-4.75049e-09,-1.09124,8.45122e-09
0.743595,3.35551,-1.47951e-09,-497.366,4.1537,2.9683e-09,7.55697,-4.73267e-09,-1.0945,8.36159e-09
0.747599,3.3721,-1.46663e-09,-497.336,4.14453,3.21625e-09,7.59947,-4.70559e-09,-1.09774,8.2632e-09
0.751604,3.38867,-1.45387e-09,-497.305,4.13533,3.18638e-09,7.64197,-4.67744e-09,-1.10095,8.16376e-09
0.755611,3.4052,-1.44122e-09,-497.274,4.12607,3.15692e-09,7.68446,-4.64822e-09,-1.10415,8.06326e-09
0.759615,3.42169,-1.42869e-09,-497.243,4.11677,3.12771e-09,7.72691,-4.60196e-09,-1.10732,7.96832e-09
0.763618,3.43813,-1.41516e-09,-497.212,4.10744,3.38112e-09,7.7693,-4.5459e-09,-1.11047,7.86406e-09
0.767621,3.45453,-1.40174e-09,-497.181,4.09807,3.35238e-09,7.81167,-4.48858e-09,-1.1136,7.75856e-09
0.771624,3.4709,-1.38844e-09,-497.15,4.08865,3.32388e-09,7.85402,-4.42998e-09,-1.11671,7.65181e-09
0.77563,3.48724,-1.37523e-09,-497.118,4.07918,3.29502e-09,7.89638,-4.3086e-09,-1.1198,7.54012e-09
0.779633,3.50353,-1.36102e-09,-497.086,4.06967,3.55248e-09,7.93866,-4.17661e-09,-1.12286,7.41821e-09
0.783638,3.51979,-1.34575e-09,-497.054,4.06012,3.81086e-09,7.98096,-4.03353e-09,-1.12591,7.28563e-09
0.787644,3.53602,-1.33061e-09,-497.022,4.05052,3.78101e-09,8.02323,-3.88846e-09,-1.12894,7.15102e-09
0.791648,3.5522,-1.31559e-09,-496.99,4.04088,3.75084e-09,8.06547,-3.74144e-09,-1.13195,7.01444e-09
0.795654,3.56835,-1.30068e-09,-496.957,4.0312,3.72032e-09,8.10769,-3.59238e-09,-1.13494,6.87579e-09
0.799657,3.58444,-1.28475e-09,-496.925,4.02148,3.98144e-09,8.14984,-3.43191e-09,-1.13791,6.72615e-09
0.803662,3.60051,-1.26892e-09,-496.892,4.01171,3.95084e-09,8.19201,-3.3307e-09,-1.14087,6.57792e-09
0.807666,3.61654,-1.25205e-09,-496.859,4.00189,4.21472e-09,8.23413,-3.21799e-09,-1.1438,6.41874e-09
0.81167,3.63252,-1.23411e-09,-496.826,3.99204,4.47992e-09,8.27623,-3.0935e-09,-1.14671,6.24829e-09
0.815674,3.64846,-1.21511e-09,-496.793,3.98214,4.74637e-09,8.31829,-2.95699e-09,-1.14961,6.06637e-09
0.819678,3.66437,-1.19503e-09,-496.759,3.9722,5.01419e-09,8.36033,-2.80816e-09,-1.15249,5.87266e-09
0.823684,3.68024,-1.17625e-09,-496.725,3.9622,4.68608e-09,8.40238,-2.66701e-09,-1.15535,5.68611e-09
0.827689,3.69607,-1.15881e-09,-496.692,3.95217,4.35702e-09,8.44437,-2.50422e-09,-1.15819,5.51442e-09
0.831693,3.71186,-1.14148e-09,-496.658,3.9421,4.32744e-09,8.48635,-2.33908e-09,-1.16101,5.34037e-09
0.835698,3.7276,-1.12427e-09,-496.623,3.93198,4.29777e-09,8.52828,-2.17164e-09,-1.16382,5.16403e-09
0.839702,3.7433,-1.10718e-09,-496.589,3.92181,4.26801e-09,8.5702,-2.00184e-09,-1.16661,4.98534e-09
0.843708,3.75897,-1.0902e-09,-496.555,3.9116,4.23814e-09,8.6121,-1.82956e-09,-1.16939,4.80416e-09
0.847712,3.77459,-1.07457e-09,-496.52,3.90135,3.9032e-09,8.65396,-1.66576e-09,-1.17214,4.6309e-09
0.851728,3.79023,-1.05901e-09,-496.485,3.89102,3.87308e-09,8.69594,-1.49907e-09,-1.17489,4.45473e-09
0.855735,3.80577,-1.04485e-09,-496.45,3.88067,3.53574e-09,8.73775,-1.34162e-09,-1.17761,4.28727e-09
0.85974,3.82127,-1.03081e-09,-496.415,3.87029,3.50558e-09,8.77954,-1.18196e-09,-1.18032,4.11759e-09
0.863744,3.83672,-1.0169e-09,-496.38,3.85986,3.47537e-09,8.82129,-1.02009e-09,-1.18301,3.94572e-09
0.867749,3.85214,-1.0031e-09,-496.344,3.84938,3.4451e-09,8.86303,-8.55913e-10,-1.18568,3.77154e-09
0.871755,3.86752,-9.89419e-10,-496.308,3.83886,3.41476e-09,8.90475,-6.89396e-10,-1.18834,3.59502e-09
0.87576,3.88285,-9.75864e-10,-496.273,3.82829,3.38438e-09,8.94643,-5.20597e-10,-1.19099,3.41624e-09
0.879764,3.89814,-9.63691e-10,-496.237,3.81769,3.04027e-09,8.98807,-3.61221e-10,-1.19361,3.24627e-09
0.88377,3.91339,-9.51634e-10,-496.201,3.80703,3.00981e-09,9.02971,-1.99538e-10,-1.19623,3.07399e-09
0.887773,3.92859,-9.39707e-10,-496.164,3.79633,2.97934e-09,9.07129,-3.57231e-11,-1.19882,2.8996e-09
0.891778,3.94375,-9.27897e-10,-496.128,3.78559,2.94883e-09,9.11286,1.30455e-10,-1.2014,2.72285e-09
0.895781,3.95886,-9.16212e-10,-496.091,3.7748,2.91829e-09,9.15439,2.989e-10,-1.20397,2.54384e-09
0.899786,3.97393,-9.05928e-10,-496.054,3.76397,2.56857e-09,9.1959,4.57333e-10,-1.20652,2.3742e-09
0.903791,3.98896,-8.97046e-10,-496.017,3.75309,2.21766e-09,9.23739,6.0553e-10,-1.20906,2.21414e-09
0.907798,4.00396,-8.88282e-10,-495.98,3.74216,2.1871e-09,9.27887,7.55871e-10,-1.21159,2.05194e-09
0.911802,4.0189,-8.80939e-10,-495.943,3.7312,1.8341e-09,9.3203,8.95463e-10,-1.2141,1.89983e-09
0.915806,4.0338,-8.73714e-10,-495.905,3.72018,1.80356e-09,9.36172,1.03708e-09,-1.21659,1.7457e-09
0.919811,4.04865,-8.67914e-10,-495.868,3.70913,1.4484e-09,9.40309,1.16761e-09,-1.21907,1.60198e-09
0.923816,4.06346,-8.62236e-10,-495.83,3.69802,1.41792e-09,9.44445,1.3e-09,-1.22154,1.4564e-09
0.927822,4.07823,-8.56679e-10,-495.792,3.68688,1.38747e-09,9.48577,1.43424e-09,-1.22399,1.30899e-09
0.931828,4.09295,-8.52557e-10,-495.754,3.67568,1.02893e-09,9.52708,1.55699e-09,-1.22643,1.17236e-09
0.935833,4.10763,-8.48557e-10,-495.715,3.66444,9.98561e-10,9.56836,1.68147e-09,-1.22886,1.03402e-09
0.939838,4.12226,-8.44679e-10,-495.677,3.65316,9.68244e-10,9.6096,1.80766e-09,-1.23127,8.93985e-10
0.943844,4.13685,-8.40922e-10,-495.638,3.64183,9.37978e-10,9.65082,1.93563e-09,-1.23367,7.52192e-10
0.947849,4.15139,-8.37287e-10,-495.599,3.63045,9.07764e-10,9.692,2.06538e-09,-1.23606,6.0862e-10
0.951853,4.16588,-8.35108e-10,-495.56,3.61903,5.44039e-10,9.73316,2.18285e-09,-1.23843,4.76588e-10
0.955858,4.18033,-8.33049e-10,-495.521,3.60757,5.13959e-10,9.77429,2.30198e-09,-1.2408,3.4292e-10
0.959861,4.19472,-8.31112e-10,-495.482,3.59607,4.83964e-10,9.81536,2.42269e-09,-1.24314,2.07694e-10
0.963865,4.20908,-8.30643e-10,-495.442,3.58452,1.17222e-10,9.85641,2.53062e-09,-1.24548,8.44704e-11
0.967868,4.22338,-8.31646e-10,-495.403,3.57292,-2.50441e-10,9.89744,2.62538e-09,-1.2478,-2.63461e-11
0.971873,4.23764,-8.32768e-10,-495.363,3.56127,-2.802e-10,9.93846,2.72155e-09,-1.25011,-1.38577e-10
0.975876,4.25185,-8.34008e-10,-495.323,3.54959,-3.09843e-10,9.97942,2.81902e-09,-1.25241,-2.52073e-10
0.979881,4.26602,-8.35367e-10,-495.283,3.53785,-3.39393e-10,10.0204,2.9179e-09,-1.2547,-3.66964e-10
0.983884,4.28014,-8.36844e-10,-495.243,3.52608,-3.68843e-10,10.0613,3.01819e-09,-1.25697,-4.83242e-10
0.987888,4.29421,-8.38438e-10,-495.202,3.51425,-3.98186e-10,10.1022,3.1199e-09,-1.25924,-6.00927e-10
0.991893,4.30824,-8.41531e-10,-495.162,3.50238,-7.72097e-10,10.143,3.20745e-09,-1.26149,-7.05291e-10
0.995898,4.32221,-8.46123e-10,-495.121,3.49047,-1.1469e-09,10.1839,3.28048e-09,-1.26373,-7.95941e-10
0.999902,4.33614,-8.50831e-10,-495.08,3.47851,-1.17588e-09,10.2247,3.35455e-09,-1.26596,-8.87626e-10
1.00391,4.35003,-8.57052e-10,-495.039,3.4665,-1.55283e-09,10.2655,3.41363e-09,-1.26818,-9.6516e-10
1.00791,4.36387,-8.64789e-10,-494.997,3.45444,-1.93084e-09,10.3063,3.45729e-09,-1.27038,-1.02815e-09
1.01192,4.37766,-8.72638e-10,-494.956,3.44234,-1.95941e-09,10.347,3.5016e-09,-1.27258,-1.09175e-09
1.01593,4.39141,-8.8202e-10,-494.914,3.43018,-2.33963e-09,10.3877,3.52997e-09,-1.27477,-1.1403e-09
1.01993,4.4051,-8.91501e-10,-494.873,3.41799,-2.36785e-09,10.4284,3.55873e-09,-1.27694,-1.1892e-09
1.02394,4.41874,-9.02513e-10,-494.831,3.40576,-2.7495e-09,10.469,3.571e-09,-1.2791,-1.22249e-09
1.02795,4.43233,-9.13636e-10,-494.789,3.39348,-2.77739e-09,10.5096,3.58349e-09,-1.28125,-1.25598e-09
1.03195,4.44587,-9.26292e-10,-494.746,3.38116,-3.16081e-09,10.5502,3.57891e-09,-1.28339,-1.27328e-09
1.03595,4.45937,-9.39068e-10,-494.704,3.36878,-3.18834e-09,10.5908,3.57934e-09,-1.28553,-1.29581e-09
1.03996,4.4728,-9.53368e-10,-494.661,3.35638,-3.57342e-09,10.6312,3.56218e-09,-1.28765,-1.30165e-09
1.04396,4.48618,-9.67781e-10,-494.619,3.34392,-3.60053e-09,10.6717,3.54484e-09,-1.28975,-1.30727e-09
1.04798,4.49956,-9.82349e-10,-494.576,3.33138,-3.62752e-09,10.7123,3.52724e-09,-1.29186,-1.3127e-09
1.05198,4.51285,-9.98432e-10,-494.533,3.31883,-4.01564e-09,10.7527,3.49129e-09,-1.29395,-1.30064e-09
1.05599,4.52609,-1.01462e-09,-494.489,3.30624,-4.04337e-09,10.7931,3.56221e-09,-1.29603,-1.29393e-09
1.05999,4.53928,-1.03166e-09,-494.446,3.2936,-4.25399e-09,10.8334,3.6199e-09,-1.2981,-1.27433e-09
1.064,4.55242,-1.04954e-09,-494.402,3.28092,-4.46507e-09,10.8738,3.57983e-09,-1.30016,-1.24467e-09
1.068,4.56551,-1.06899e-09,-494.359,3.26819,-4.85956e-09,10.914,3.52015e-09,-1.30221,-1.19639e-09
1.072,4.57854,-1.08857e-09,-494.315,3.25541,-4.88822e-09,10.9543,3.45955e-09,-1.30425,-1.14718e-09
1.07601,4.59152,-1.10825e-09,-494.271,3.24259,-4.91683e-09,10.9945,3.39805e-09,-1.30628,-1.09706e-09
1.08001,4.60446,-1.12806e-09,-494.227,3.22973,-4.9454e-09,11.0347,3.33558e-09,-1.3083,-1.04595e-09
1.08402,4.61734,-1.14946e-09,-494.182,3.21682,-5.34418e-09,11.0749,3.2524e-09,-1.31031,-9.75143e-10
1.08802,4.63017,-1.17097e-09,-494.138,3.20387,-5.37264e-09,11.115,3.16796e-09,-1.31232,-9.03062e-10
1.09202,4.64294,-1.19409e-09,-494.093,3.19087,-5.77354e-09,11.1552,3.06204e-09,-1.31431,-8.10534e-10
1.09603,4.65567,-1.21732e-09,-494.048,3.17783,-5.80188e-09,11.1952,2.95454e-09,-1.31629,-7.16399e-10
1.10003,4.66834,-1.24066e-09,-494.003,3.16474,-5.83015e-09,11.2353,2.84541e-09,-1.31827,-6.20632e-10
1.10404,4.68096,-1.26413e-09,-493.958,3.1516,-5.85838e-09,11.2753,2.73457e-09,-1.32024,-5.23156e-10
1.10804,4.69353,-1.28771e-09,-493.913,3.13842,-5.88654e-09,11.3153,2.62209e-09,-1.32219,-4.24019e-10
1.11205,4.70605,-1.31291e-09,-493.867,3.12519,-6.29283e-09,11.3552,2.48661e-09,-1.32414,-3.02952e-10
1.11605,4.71851,-1.33822e-09,-493.822,3.11193,-6.32085e-09,11.3952,2.34912e-09,-1.32608,-1.79855e-10
1.12006,4.73092,-1.36365e-09,-493.776,3.09861,-6.3488e-09,11.435,2.20951e-09,-1.32802,-5.46318e-11
1.12406,4.74328,-1.38918e-09,-493.73,3.08525,-6.37669e-09,11.4749,2.06778e-09,-1.32994,7.27227e-11
1.12807,4.75558,-1.41637e-09,-493.684,3.07184,-6.78729e-09,11.5147,1.90163e-09,-1.33185,2.23388e-10
1.13207,4.76783,-1.44366e-09,-493.637,3.0584,-6.81502e-09,11.5545,1.73304e-09,-1.33376,3.7652e-10
1.13608,4.78003,-1.47107e-09,-493.591,3.0449,-6.8427e-09,11.5943,1.56179e-09,-1.33566,5.32314e-10
1.14008,4.79216,-1.49857e-09,-493.544,3.03137,-6.87027e-09,11.634,1.38805e-09,-1.33755,6.90621e-10
1.14409,4.80424,-1.52619e-09,-493.498,3.01779,-6.89778e-09,11.6737,1.2116e-09,-1.33943,8.51642e-10
1.14809,4.81628,-1.55393e-09,-493.451,3.00417,-6.92522e-09,11.7134,1.03239e-09,-1.3413,1.01543e-09
1.15209,4.82825,-1.58333e-09,-493.404,2.9905,-7.34192e-09,11.753,8.26806e-10,-1.34317,1.20445e-09
1.1561,4.84017,-1.6144e-09,-493.357,2.97678,-7.75974e-09,11.7926,5.94054e-10,-1.34502,1.41947e-09
1.1601,4.85205,-1.64718e-09,-493.309,2.96301,-8.17891e-09,11.8322,3.33283e-10,-1.34687,1.66133e-09
1.16411,4.86385,-1.68004e-09,-493.262,2.94922,-8.20734e-09,11.8717,1.8392e-10,-1.34871,1.89316e-09
1.16811,4.87561,-1.71224e-09,-493.214,2.93537,-8.04011e-09,11.9112,3.79147e-11,-1.35055,2.12237e-09
1.17212,4.8873,-1.74297e-09,-493.166,2.92148,-7.67628e-09,11.9506,-8.61295e-11,-1.35237,2.33072e-09
1.17612,4.89894,-1.77381e-09,-493.118,2.90755,-7.70566e-09,11.99,-4.51775e-10,-1.35419,2.56324e-09
1.18013,4.91053,-1.80401e-09,-493.07,2.89357,-7.53787e-09,12.0294,-5.61784e-10,-1.356,2.77311e-09
1.18413,4.92207,-1.83353e-09,-493.021,2.87955,-7.36952e-09,12.0688,-7.79047e-10,-1.35781,2.97448e-09
1.18814,4.93354,-1.86156e-09,-492.973,2.86548,-7.00079e-09,12.1081,-9.73645e-10,-1.3596,3.15441e-09
1.19214,4.94496,-1.88972e-09,-492.924,2.85137,-7.03155e-09,12.1474,-1.17132e-09,-1.36139,3.33744e-09
1.19615,4.95633,-1.91801e-09,-492.876,2.83721,-7.06226e-09,12.1867,-1.37215e-09,-1.36317,3.52362e-09
1.20015,4.96763,-1.9464e-09,-492.827,2.82302,-7.09292e-09,12.2259,-1.57607e-09,-1.36494,3.71291e-09
1.20415,4.97888,-1.97493e-09,-492.777,2.80878,-7.12355e-09,12.2651,-1.78335e-09,-1.36671,3.90557e-09
1.20816,4.99007,-2.00359e-09,-492.728,2.79449,-7.15414e-09,12.3042,-1.99402e-09,-1.36847,4.10161e-09
1.21217,5.0012,-2.03074e-09,-492.679,2.78016,-6.77842e-09,12.3434,-2.18015e-09,-1.37022,4.27441e-09
1.21617,5.01228,-2.05638e-09,-492.629,2.76579,-6.40317e-09,12.3825,-2.20961e-09,-1.37197,4.40785e-09
1.22017,5.0233,-2.08052e-09,-492.579,2.75138,-6.02859e-09,12.4215,-2.21192e-09,-1.37371,4.51533e-09
1.22418,5.03425,-2.10314e-09,-492.53,2.73693,-5.65289e-09,12.4605,-2.31793e-09,-1.37544,4.61185e-09
1.22818,5.04515,-2.12427e-09,-492.48,2.72243,-5.27589e-09,12.4995,-2.39651e-09,-1.37716,4.68225e-09
1.23219,5.05599,-2.14388e-09,-492.429,2.70789,-4.89798e-09,12.5384,-2.44679e-09,-1.37888,4.72569e-09
1.23619,5.06678,-2.16363e-09,-492.379,2.6933,-4.93179e-09,12.5773,-2.49785e-09,-1.38059,4.7699e-09
1.24019,5.0775,-2.18185e-09,-492.328,2.67868,-4.55168e-09,12.6162,-2.5195e-09,-1.3823,4.78604e-09
1.2442,5.08818,-2.19856e-09,-492.278,2.664,-4.17021e-09,12.655,-2.51088e-09,-1.38399,4.77326e-09
1.2482,5.09878,-2.21373e-09,-492.227,2.64929,-3.78785e-09,12.6938,-2.47113e-09,-1.38568,4.73072e-09
1.25221,5.10934,-2.22905e-09,-492.176,2.63451,-3.82184e-09,12.7327,-2.43051e-09,-1.38737,4.68731e-09
1.25622,5.11983,-2.24281e-09,-492.125,2.61972,-3.43734e-09,12.7714,-2.35754e-09,-1.38905,4.61291e-09
1.26022,5.13027,-2.25672e-09,-492.073,2.60487,-3.47142e-09,12.8101,-2.2831e-09,-1.39072,4.53704e-09
1.26423,5.14064,-2.27076e-09,-492.022,2.58998,-3.50553e-09,12.8488,-2.20727e-09,-1.39239,4.4598e-09
1.26823,5.15096,-2.28663e-09,-491.97,2.57505,-3.96178e-09,12.8874,-2.16265e-09,-1.39405,4.41236e-09
1.27224,5.1612,-2.30431e-09,-491.919,2.56009,-4.41872e-09,12.926,-2.15021e-09,-1.3957,4.39569e-09
1.27624,5.17139,-2.32384e-09,-491.867,2.54508,-4.87703e-09,12.9645,-2.1709e-09,-1.39735,4.41074e-09
1.28025,5.18153,-2.34352e-09,-491.815,2.53002,-4.91127e-09,13.0031,-2.19186e-09,-1.39899,4.42606e-09
1.28425,5.1916,-2.36162e-09,-491.762,2.51492,-4.51906e-09,13.0415,-2.1788e-09,-1.40062,4.40879e-09
1.28825,5.20161,-2.37985e-09,-491.71,2.49979,-4.55333e-09,13.08,-2.16538e-09,-1.40225,4.39116e-09
1.29226,5.21156,-2.39993e-09,-491.657,2.48462,-5.01609e-09,13.1184,-2.18667e-09,-1.40387,4.40681e-09
1.29626,5.22145,-2.41844e-09,-491.605,2.46939,-4.62049e-09,13.1568,-2.17271e-09,-1.40549,4.38865e-09
1.30027,5.23129,-2.43709e-09,-491.552,2.45412,-4.65486e-09,13.1951,-2.15836e-09,-1.4071,4.37011e-09
1.30428,5.24106,-2.45588e-09,-491.499,2.43881,-4.68924e-09,13.2334,-2.14363e-09,-1.4087,4.35119e-09
1.30828,5.25077,-2.4748e-09,-491.446,2.42346,-4.72363e-09,13.2717,-2.12851e-09,-1.4103,4.33188e-09
1.31229,5.26041,-2.49385e-09,-491.392,2.40807,-4.75804e-09,13.3099,-2.11298e-09,-1.41189,4.31216e-09
1.31629,5.26999,-2.51305e-09,-491.339,2.39265,-4.79247e-09,13.3481,-2.09704e-09,-1.41348,4.29203e-09
1.3203,5.27951,-2.53238e-09,-491.285,2.37717,-4.82694e-09,13.3863,-2.08065e-09,-1.41506,4.27147e-09
1.3243,5.28897,-2.55186e-09,-491.232,2.36166,-4.86142e-09,13.4244,-2.06384e-09,-1.41664,4.25047e-09
1.32831,5.29837,-2.57146e-09,-491.178,2.34612,-4.8959e-09,13.4625,-2.04658e-09,-1.41821,4.22904e-09
1.33231,5.3077,-2.59296e-09,-491.124,2.33052,-5.3703e-09,13.5005,-2.06854e-09,-1.41977,4.24527e-09
1.33632,5.31697,-2.61638e-09,-491.069,2.31489,-5.84593e-09,13.5385,-2.13102e-09,-1.42133,4.3005e-09
1.34032,5.32618,-2.63993e-09,-491.015,2.29922,-5.88042e-09,13.5765,-2.19461e-09,-1.42289,4.35685e-09
1.34433,5.33533,-2.66185e-09,-490.96,2.2835,-5.47158e-09,13.6144,-2.21817e-09,-1.42444,4.37471e-09
1.34833,5.3444,-2.68389e-09,-490.906,2.26775,-5.50607e-09,13.6523,-2.24207e-09,-1.42598,4.39293e-09
1.35234,5.35343,-2.70787e-09,-490.851,2.25195,-5.98619e-09,13.6902,-2.30865e-09,-1.42751,4.45225e-09
1.35634,5.36238,-2.73018e-09,-490.796,2.23612,-5.57432e-09,13.7279,-2.33365e-09,-1.42905,4.47159e-09
1.36034,5.37126,-2.75264e-09,-490.741,2.22026,-5.60882e-09,13.7657,-2.35905e-09,-1.43057,4.49132e-09
1.36435,5.38009,-2.77524e-09,-490.686,2.20434,-5.64334e-09,13.8034,-2.38487e-09,-1.43209,4.51147e-09
1.36835,5.38886,-2.79798e-09,-490.63,2.18839,-5.67786e-09,13.8411,-2.41111e-09,-1.43361,4.53204e-09
1.37236,5.39756,-2.81904e-09,-490.575,2.1724,-5.26145e-09,13.8788,-2.39266e-09,-1.43512,4.50955e-09
1.37636,5.40619,-2.84026e-09,-490.519,2.15636,-5.296e-09,13.9164,-2.37368e-09,-1.43663,4.48652e-09
1.38037,5.41476,-2.86342e-09,-490.463,2.14029,-5.78372e-09,13.954,-2.40047e-09,-1.43813,4.50763e-09
1.38437,5.42327,-2.88672e-09,-490.407,2.12418,-5.81827e-09,13.9916,-2.42772e-09,-1.43962,4.5292e-09
1.38838,5.43172,-2.91199e-09,-490.351,2.10803,-6.30845e-09,14.0291,-2.50307e-09,-1.44111,4.59722e-09
1.39238,5.44009,-2.93556e-09,-490.294,2.09184,-5.88647e-09,14.0665,-2.53169e-09,-1.4426,4.62018e-09
1.39639,5.4484,-2.95927e-09,-490.238,2.07562,-5.921e-09,14.104,-2.56082e-09,-1.44408,4.64365e-09
1.40039,5.45665,-2.98312e-09,-490.181,2.05935,-5.95553e-09,14.1413,-2.59047e-09,-1.44555,4.66764e-09
1.4044,5.46483,-3.00711e-09,-490.124,2.04304,-5.99006e-09,14.1787,-2.62066e-09,-1.44702,4.69217e-09
1.4084,5.47295,-3.03309e-09,-490.068,2.02669,-6.48578e-09,14.216,-2.70242e-09,-1.44849,4.76658e-09
1.41241,5.481,-3.05736e-09,-490.01,2.0103,-6.05801e-09,14.2533,-2.7342e-09,-1.44995,4.79272e-09
1.41641,5.48899,-3.08176e-09,-489.953,1.99388,-6.09253e-09,14.2905,-2.76657e-09,-1.45141,4.81945e-09
1.42042,5.49691,-3.10445e-09,-489.896,1.97742,-5.66253e-09,14.3277,-2.74634e-09,-1.45286,4.79529e-09
1.42443,5.50477,-3.12726e-09,-489.838,1.96092,-5.69705e-09,14.3649,-2.72548e-09,-1.45431,4.77051e-09
1.42843,5.51255,-3.15022e-09,-489.781,1.94438,-5.73157e-09,14.402,-2.70395e-09,-1.45575,4.74507e-09
1.43244,5.52028,-3.17332e-09,-489.723,1.9278,-5.7661e-09,14.4391,-2.68174e-09,-1.45719,4.71894e-09
1.43644,5.52793,-3.19654e-09,-489.665,1.9112,-5.80061e-09,14.4761,-2.65884e-09,-1.45862,4.69213e-09
1.44045,5.53552,-3.21992e-09,-489.607,1.89454,-5.83515e-09,14.5131,-2.63519e-09,-1.46005,4.66456e-09
1.44445,5.54304,-3.24344e-09,-489.548,1.87784,-5.86968e-09,14.5501,-2.61078e-09,-1.46147,4.63623e-09
1.44846,5.5505,-3.26708e-09,-489.49,1.86112,-5.9042e-09,14.587,-2.5856e-09,-1.46289,4.60714e-09
1.45246,5.55788,-3.29086e-09,-489.431,1.84436,-5.9387e-09,14.6239,-2.55963e-09,-1.4643,4.57727e-09
1.45646,5.56519,-3.31477e-09,-489.373,1.82757,-5.9732e-09,14.6607,-2.53283e-09,-1.46571,4.54656e-09
1.46047,5.57245,-3.33883e-09,-489.314,1.81074,-6.0077e-09,14.6975,-2.50516e-09,-1.46712,4.51498e-09
1.46447,5.57963,-3.36494e-09,-489.255,1.79386,-6.51891e-09,14.7342,-2.53929e-09,-1.46852,4.54339e-09
1.46848,5.58675,-3.39118e-09,-489.196,1.77696,-6.55337e-09,14.7709,-2.57416e-09,-1.46991,4.57254e-09
1.47248,5.59379,-3.41947e-09,-489.136,1.76002,-7.06649e-09,14.8076,-2.67448e-09,-1.47131,4.66533e-09
1.47649,5.60077,-3.44981e-09,-489.077,1.74304,-7.58056e-09,14.8442,-2.843e-09,-1.47269,4.82447e-09
1.48049,5.60768,-3.4803e-09,-489.017,1.72603,-7.61493e-09,14.8808,-3.01608e-09,-1.47408,4.98817e-09
1.48449,5.61452,-3.509e-09,-488.958,1.70898,-7.16729e-09,14.9173,-3.12597e-09,-1.47546,5.09055e-09
1.4885,5.6213,-3.53591e-09,-488.898,1.69189,-6.71841e-09,14.9538,-3.16981e-09,-1.47683,5.12874e-09
1.4925,5.62801,-3.5649e-09,-488.838,1.67476,-7.23718e-09,14.9903,-3.28493e-09,-1.4782,5.23634e-09
1.49651,5.63465,-3.59402e-09,-488.778,1.65759,-7.27147e-09,15.0267,-3.40318e-09,-1.47957,5.34707e-09
1.50051,5.64121,-3.62132e-09,-488.717,1.6404,-6.81944e-09,15.0631,-3.45215e-09,-1.48093,5.39042e-09
1.50453,5.64773,-3.64885e-09,-488.657,1.62312,-6.85379e-09,15.0995,-3.50255e-09,-1.48229,5.43517e-09
1.50853,5.65417,-3.67841e-09,-488.596,1.60585,-7.37688e-09,15.1359,-3.62926e-09,-1.48365,5.55435e-09
1.51254,5.66053,-3.70612e-09,-488.535,1.58855,-6.92136e-09,15.1721,-3.68319e-09,-1.485,5.60268e-09
1.51654,5.66682,-3.73396e-09,-488.474,1.57122,-6.95552e-09,15.2083,-3.73854e-09,-1.48634,5.65242e-09
1.52055,5.67304,-3.76391e-09,-488.413,1.55385,-7.48144e-09,15.2445,-3.87452e-09,-1.48768,5.78087e-09
1.52455,5.67919,-3.794e-09,-488.352,1.53645,-7.51555e-09,15.2806,-4.01465e-09,-1.48902,5.91346e-09
1.52855,5.68527,-3.82423e-09,-488.291,1.51901,-7.54963e-09,15.3167,-4.15904e-09,-1.49036,6.05032e-09
1.53256,5.69129,-3.85263e-09,-488.229,1.50153,-7.08815e-09,15.3528,-4.22428e-09,-1.49169,6.10998e-09
1.53656,5.69723,-3.87916e-09,-488.168,1.48402,-6.6259e-09,15.3888,-4.20621e-09,-1.49301,6.08831e-09
1.54057,5.7031,-3.90583e-09,-488.106,1.46648,-6.65993e-09,15.4247,-4.18728e-09,-1.49434,6.06579e-09
1.54457,5.7089,-3.93462e-09,-488.044,1.44891,-7.19228e-09,15.4606,-4.25588e-09,-1.49565,6.12881e-09
1.54858,5.71463,-3.96556e-09,-487.982,1.4313,-7.72597e-09,15.4965,-4.41689e-09,-1.49697,6.28225e-09
1.55258,5.72029,-3.99463e-09,-487.92,1.41365,-7.25923e-09,15.5323,-4.49127e-09,-1.49828,6.35107e-09
1.55658,5.72589,-4.02183e-09,-487.857,1.39597,-6.79114e-09,15.5681,-4.47408e-09,-1.49958,6.33032e-09
1.56059,5.7314,-4.05117e-09,-487.795,1.37826,-7.32789e-09,15.6039,-4.5518e-09,-1.50089,6.40247e-09
1.56459,5.73685,-4.08266e-09,-487.732,1.36052,-7.86557e-09,15.6396,-4.72977e-09,-1.50218,6.57284e-09
1.5686,5.74223,-4.11227e-09,-487.669,1.34274,-7.39423e-09,15.6753,-4.81435e-09,-1.50348,6.65186e-09
1.5726,5.74754,-4.14001e-09,-487.607,1.32492,-6.92153e-09,15.7109,-4.79982e-09,-1.50478,6.63383e-09
1.57661,5.75277,-4.16989e-09,-487.543,1.30708,-7.46254e-09,15.7465,-4.88855e-09,-1.50606,6.71699e-09
1.58061,5.75793,-4.19991e-09,-487.48,1.2892,-7.49629e-09,15.782,-4.98048e-09,-1.50734,6.80336e-09
1.58462,5.76302,-4.23005e-09,-487.417,1.2713,-7.52998e-09,15.8175,-5.07576e-09,-1.50863,6.89309e-09
1.58862,5.76804,-4.26035e-09,-487.353,1.25336,-7.56367e-09,15.853,-5.17461e-09,-1.5099,6.98638e-09
1.59263,5.77299,-4.29077e-09,-487.29,1.23539,-7.59731e-09,15.8884,-5.27722e-09,-1.51118,7.08344e-09
1.59663,5.77787,-4.32133e-09,-487.226,1.21738,-7.63092e-09,15.9238,-5.38389e-09,-1.51245,7.18456e-09
1.60064,5.78267,-4.35203e-09,-487.162,1.19934,-7.6645e-09,15.9591,-5.49477e-09,-1.51372,7.28989e-09
1.60464,5.7874,-4.38286e-09,-487.098,1.18126,-7.69806e-09,15.9944,-5.6102e-09,-1.51498,7.39976e-09
1.60865,5.79206,-4.4159e-09,-487.034,1.16316,-8.24777e-09,16.0296,-5.85583e-09,-1.51624,7.63773e-09
1.61265,5.79665,-4.44699e-09,-486.97,1.14503,-7.7642e-09,16.0648,-5.98383e-09,-1.51749,7.7602e-09
1.61666,5.80117,-4.47623e-09,-486.905,1.12681,-7.27794e-09,16.1001,-5.98533e-09,-1.51875,7.75829e-09
1.62066,5.8056,-4.50749e-09,-486.84,1.10867,-7.82901e-09,16.1351,-6.12088e-09,-1.52,7.88834e-09
1.62467,5.80997,-4.53897e-09,-486.776,1.09045,-7.86236e-09,16.1702,-6.26299e-09,-1.52124,8.02492e-09
1.62867,5.81426,-4.57059e-09,-486.711,1.07219,-7.89568e-09,16.2052,-6.4118e-09,-1.52249,8.16821e-09
1.63268,5.81848,-4.60236e-09,-486.646,1.0539,-7.92898e-09,16.2402,-6.56787e-09,-1.52373,8.31875e-09
1.63668,5.82263,-4.63633e-09,-486.581,1.03559,-8.4856e-09,16.2751,-6.88214e-09,-1.52497,8.62533e-09
1.64069,5.8267,-4.67046e-09,-486.515,1.01724,-8.5188e-09,16.31,-7.21305e-09,-1.5262,8.94854e-09
1.64469,5.8307,-4.7026e-09,-486.45,0.998859,-8.02612e-09,16.3449,-7.40189e-09,-1.52742,9.13189e-09
1.6487,5.83463,-4.73277e-09,-486.384,0.980453,-7.53231e-09,16.3797,-7.4363e-09,-1.52866,9.16303e-09
1.6527,5.83848,-4.76308e-09,-486.318,0.96201,-7.56539e-09,16.4145,-7.47204e-09,-1.52988,9.19549e-09
1.65671,5.84226,-4.79351e-09,-486.253,0.943543,-7.59843e-09,16.4492,-7.50931e-09,-1.5311,9.22947e-09
1.66071,5.84597,-4.82408e-09,-486.186,0.925044,-7.63143e-09,16.4839,-7.5483e-09,-1.53232,9.2652e-09
1.66472,5.8496,-4.85478e-09,-486.12,0.906518,-7.66438e-09,16.5185,-7.589e-09,-1.53353,9.30262e-09
1.66872,5.85315,-4.88559e-09,-486.054,0.887974,-7.69728e-09,16.5531,-7.63174e-09,-1.53475,9.3421e-09
1.67273,5.85664,-4.91656e-09,-485.988,0.869385,-7.73016e-09,16.5877,-7.67664e-09,-1.53595,9.38372e-09
1.67673,5.86004,-4.94978e-09,-485.921,0.850777,-8.29731e-09,16.6221,-7.93194e-09,-1.53715,9.63348e-09
1.68074,5.86338,-4.98317e-09,-485.854,0.832121,-8.33012e-09,16.6566,-8.20534e-09,-1.53836,9.90134e-09
1.68474,5.86664,-5.01666e-09,-485.787,0.813456,-8.36284e-09,16.691,-8.49794e-09,-1.53956,1.01884e-08
1.68875,5.86982,-5.05028e-09,-485.72,0.794758,-8.39552e-09,16.7254,-8.81254e-09,-1.54076,1.04975e-08
1.69275,5.87293,-5.08619e-09,-485.653,0.776033,-8.9669e-09,16.7597,-9.39513e-09,-1.54196,1.10722e-08
1.69676,5.87596,-5.12007e-09,-485.586,0.757286,-8.45976e-09,16.794,-9.77122e-09,-1.54316,1.14428e-08
1.70076,5.87892,-5.15407e-09,-485.519,0.738508,-8.49227e-09,16.8282,-1.01789e-08,-1.54434,1.1845e-08
1.70477,5.8818,-5.1882e-09,-485.451,0.719707,-8.52472e-09,16.8624,-1.06227e-08,-1.54554,1.22833e-08
1.70877,5.8846,-5.22247e-09,-485.384,0.700874,-8.55714e-09,16.8965,-1.11072e-08,-1.54672,1.27623e-08
1.71725,5.89021,-5.29561e-09,-485.24,0.660944,-8.62571e-09,16.9684,-1.22957e-08,-1.54923,1.39392e-08
1.72125,5.89278,-5.33027e-09,-485.172,0.64204,-8.65793e-09,17.0023,-1.29522e-08,-1.55041,1.45901e-08
1.72526,5.89527,-5.36507e-09,-485.103,0.623102,-8.69011e-09,17.0363,-1.36842e-08,-1.5516,1.53167e-08
1.72926,5.89769,-5.40001e-09,-485.035,0.604124,-8.72226e-09,17.0702,-1.45053e-08,-1.55278,1.61323e-08
1.73327,5.90004,-5.43727e-09,-484.967,0.585127,-9.3039e-09,17.1041,-1.5849e-08,-1.55397,1.74682e-08
1.73727,5.9023,-5.47467e-09,-484.898,0.566099,-9.33592e-09,17.1379,-1.73803e-08,-1.55517,1.89915e-08
1.74128,5.9045,-5.50999e-09,-484.829,0.547043,-8.81604e-09,17.1717,-1.86589e-08,-1.55634,2.02647e-08
1.74528,5.90661,-5.54762e-09,-484.76,0.527983,-9.4004e-09,17.2055,-2.06639e-08,-1.55755,2.22619e-08
1.74929,5.90865,-5.58318e-09,-484.691,0.508877,-8.87827e-09,17.2391,-2.2453e-08,-1.55874,2.40456e-08
1.75329,5.91061,-5.62108e-09,-484.622,0.489758,-9.46478e-09,17.2728,-2.52108e-08,-1.55996,2.67956e-08
1.7573,5.91249,-5.65688e-09,-484.553,0.470613,-8.94067e-09,17.3064,-2.78617e-08,-1.56117,2.94411e-08
1.7613,5.9143,-5.69279e-09,-484.483,0.45145,-8.97229e-09,17.3399,-3.11429e-08,-1.56242,3.27171e-08
1.76531,5.91603,-5.73108e-09,-484.414,0.432257,-9.56181e-09,17.3734,-3.61974e-08,-1.56372,3.77639e-08
1.76931,5.91769,-5.76952e-09,-484.344,0.413021,-9.59336e-09,17.4069,-4.28345e-08,-1.56504,4.43932e-08
1.77331,5.91926,-5.80581e-09,-484.274,0.393782,-9.06488e-09,17.4403,-5.06974e-08,-1.56655,5.22511e-08
1.77732,5.92076,-5.84222e-09,-484.204,0.374502,-9.09629e-09,17.4737,-6.21073e-08,-1.56828,6.3656e-08
1.78132,5.92218,-5.87878e-09,-484.134,0.35516,-9.12769e-09,17.507,-8.01707e-08,nan,8.17149e-08
1.78533,5.92406,-5.91465e-09,-484.064,0.468449,-8.95595e-09,17.5383,-3.14159,nan,3.14159
1.78933,5.92616,-5.9502e-09,-483.993,0.523668,-8.87352e-09,17.5702,-3.14159,-1.56009,3.14159
1.79334,5.92762,-3.25948e-07,-483.923,0.364536,-7.99196e-05,17.6059,3.14137,-1.55379,-3.14087
1.79734,5.92852,-1.29642e-06,-483.852,0.225079,-0.000242315,17.6405,-3.14157,-1.55061,-3.14128
1.80135,5.92897,-2.40116e-06,-483.782,0.11364,-0.000275841,17.6742,-3.14133,-1.54979,-3.14109
1.80535,5.92911,-4.38731e-06,-483.711,0.0346661,-0.000495794,17.7073,-3.14088,-1.55055,-3.14063
1.80936,5.92906,-7.69754e-06,-483.64,-0.0123405,-0.000827145,17.7402,-3.14011,-1.55202,-3.14014
1.81336,5.92893,-1.24619e-05,-483.568,-0.0345192,-0.00118961,17.7729,-3.13898,-1.55356,-3.13976
1.81737,5.92876,-1.86086e-05,-483.497,-0.0412025,-0.00153552,17.8057,-3.13753,-1.55474,-3.13954
1.82137,5.9286,-2.60443e-05,-483.426,-0.0404625,-0.00185706,17.8384,-3.13586,-1.55532,-3.13943
1.82537,5.92844,-3.47437e-05,-483.354,-0.0383224,-0.00217268,17.8712,-3.1341,-1.55531,-3.13933
1.82938,5.92829,-4.48116e-05,-483.282,-0.0386906,-0.00251321,17.9039,-3.13233,-1.55473,-3.13919
1.83338,5.92812,-5.64567e-05,-483.211,-0.0436077,-0.00290835,17.9366,-3.13058,-1.55373,-3.13898
1.83739,5.9279,-6.99947e-05,-483.139,-0.0536556,-0.00337945,17.9693,-3.12883,-1.55244,-3.13876
1.84139,5.92763,-8.57538e-05,-483.067,-0.0684261,-0.00393485,18.0018,-3.12703,-1.55099,-3.13858
1.8454,5.92728,-0.000104068,-482.994,-0.0869999,-0.00457174,18.0343,-3.12514,-1.54949,-3.13846
1.8494,5.92684,-0.0001252,-482.922,-0.108236,-0.00527772,18.0668,-3.12315,-1.548,-3.13845
1.85341,5.92632,-0.00014937,-482.85,-0.131075,-0.00603634,18.0992,-3.12104,-1.54657,-3.13854
1.85741,5.9257,-0.00017671,-482.777,-0.15464,-0.00683007,18.1314,-3.11882,-1.54519,-3.13873
1.86142,5.92499,-0.000207324,-482.704,-0.178324,-0.00764392,18.1637,-3.11653,-1.54388,-3.13899
1.86542,5.92418,-0.000241221,-482.631,-0.201727,-0.00846571,18.1959,-3.11417,-1.54264,-3.13932
1.86943,5.92328,-0.000278434,-482.558,-0.224709,-0.00928921,18.228,-3.11178,-1.54143,-3.13967
1.87343,5.92229,-0.000318929,-482.485,-0.247227,-0.0101112,18.2601,-3.10939,-1.54024,-3.14001
1.87744,5.92121,-0.000362715,-482.412,-0.26936,-0.0109327,18.2921,-3.10703,-1.53907,-3.14034
1.88144,5.92004,-0.000409828,-482.339,-0.291252,-0.0117578,18.3241,-3.1047,-1.53789,-3.14061
1.88544,5.91879,-0.000460209,-482.265,-0.312988,-0.0125889,18.356,-3.10244,-1.53671,-3.14083
1.88945,5.91745,-0.000514008,-482.191,-0.334734,-0.0134328,18.3879,-3.10024,-1.53553,-3.14097
1.89345,5.91602,-0.000571238,-482.118,-0.356552,-0.0142934,18.4197,-3.09812,-1.53433,-3.14104
1.89746,5.91451,-0.000631963,-482.044,-0.378496,-0.0151736,18.4514,-3.09608,-1.53313,-3.14102
1.90146,5.9129,-0.000696354,-481.97,-0.400623,-0.0160777,18.4831,-3.09412,-1.53191,-3.14092
1.90547,5.91121,-0.000764449,-481.896,-0.422924,-0.0170068,18.5147,-3.09224,-1.5307,-3.14074
1.90947,5.90942,-0.000836411,-481.821,-0.445412,-0.0179633,18.5463,-3.09044,-1.52948,-3.14047
1.91348,5.90755,-0.000912296,-481.747,-0.468056,-0.0189478,18.5778,-3.08873,-1.52826,-3.14012
1.91748,5.90558,-0.000992221,-481.672,-0.490837,-0.0199611,18.6093,-3.08709,-1.52703,-3.13969
1.92149,5.90352,-0.00107657,-481.598,-0.513813,-0.0210077,18.6407,-3.08553,-1.5258,-3.13917
1.9255,5.90137,-0.00116501,-481.523,-0.536858,-0.0220837,18.672,-3.08405,-1.52457,-3.13857
1.9295,5.89913,-0.0012579,-481.448,-0.560019,-0.0231929,18.7033,-3.08266,-1.52334,-3.13788
1.93351,5.89679,-0.00135539,-481.373,-0.583292,-0.0243373,18.7345,-3.08134,-1.52211,-3.13712
1.93752,5.89436,-0.00145762,-481.298,-0.606676,-0.0255191,18.7657,-3.0801,-1.52087,-3.13627
1.94152,5.89184,-0.00156469,-481.222,-0.630159,-0.0267397,18.7967,-3.07895,-1.51964,-3.13534
1.94552,5.88922,-0.00167675,-481.147,-0.653742,-0.0280013,18.8277,-3.07786,-1.51841,-3.13433
1.94953,5.88651,-0.00179413,-481.072,-0.677454,-0.0293078,18.8587,-3.07685,-1.51717,-3.13324
1.95353,5.8837,-0.00191699,-480.996,-0.701294,-0.0306618,18.8896,-3.07592,-1.51593,-3.13208
1.95754,5.8808,-0.00204541,-480.92,-0.725241,-0.0320642,18.9204,-3.07505,-1.51468,-3.13085
1.96154,5.8778,-0.00217958,-480.844,-0.749296,-0.0335171,18.9512,-3.07425,-1.51344,-3.12955
1.96555,5.8747,-0.00231982,-480.768,-0.773474,-0.0350246,18.9819,-3.07351,-1.51219,-3.12818
1.96955,5.8715,-0.00246631,-480.692,-0.797771,-0.0365881,19.0125,-3.07283,-1.51094,-3.12674
1.97356,5.86821,-0.00261939,-480.616,-0.822201,-0.038211,19.0431,-3.07221,-1.50969,-3.12525
1.97756,5.86482,-0.00277921,-480.539,-0.846756,-0.0398955,19.0736,-3.07164,-1.50843,-3.1237
1.98157,5.86133,-0.00294595,-480.463,-0.87142,-0.0416424,19.1041,-3.07113,-1.50718,-3.12209
1.98557,5.85774,-0.00312007,-480.386,-0.896219,-0.0434555,19.1345,-3.07066,-1.50592,-3.12044
1.98958,5.85405,-0.00330169,-480.309,-0.921139,-0.0453364,19.1649,-3.07024,-1.50466,-3.11873
1.99359,5.85026,-0.00349117,-480.233,-0.946186,-0.0472881,19.1952,-3.06985,-1.5034,-3.11699
1.99759,5.84637,-0.00368871,-480.156,-0.971344,-0.0493109,19.2254,-3.0695,-1.50213,-3.1152
2.0016,5.84237,-0.0038946,-480.078,-0.99662,-0.0514071,19.2555,-3.06919,-1.50086,-3.11338
2.0056,5.83828,-0.00410913,-480.001,-1.02202,-0.0535795,19.2856,-3.0689,-1.49959,-3.11153
2.0096,5.83409,-0.00433261,-479.924,-1.04753,-0.0558286,19.3156,-3.06864,-1.49832,-3.10964
2.01361,5.82979,-0.00456554,-479.846,-1.07317,-0.0581592,19.3456,-3.0684,-1.49704,-3.10773
2.01761,5.82539,-0.00480813,-479.769,-1.09894,-0.0605708,19.3755,-3.06818,-1.49577,-3.1058
2.02162,5.82089,-0.00506057,-479.691,-1.12482,-0.0630646,19.4053,-3.06797,-1.49449,-3.10386
2.02562,5.81628,-0.00532341,-479.613,-1.15083,-0.0656435,19.4351,-3.06778,-1.4932,-3.10189
2.02963,5.81156,-0.00559706,-479.535,-1.17698,-0.0683103,19.4648,-3.06759,-1.49192,-3.09992
2.03363,5.80674,-0.00588167,-479.457,-1.20325,-0.0710634,19.4945,-3.06742,-1.49063,-3.09793
2.03764,5.80182,-0.00617782,-479.379,-1.22965,-0.0739073,19.5241,-3.06724,-1.48933,-3.09594
2.04164,5.79679,-0.00648548,-479.301,-1.25616,-0.0768384,19.5536,-3.06706,-1.48804,-3.09394
2.04565,5.79165,-0.00680532,-479.222,-1.2828,-0.0798615,19.583,-3.06688,-1.48674,-3.09195
2.04965,5.78641,-0.00713748,-479.144,-1.30955,-0.0829759,19.6124,-3.0667,-1.48544,-3.08996
2.05531,5.77879,-0.00763265,-479.033,-1.3475,-0.0875489,19.6536,-3.06643,-1.4836,-3.08715
2.05931,5.77328,-0.00799649,-478.954,-1.37457,-0.0908909,19.6829,-3.06622,-1.4823,-3.08517
2.06331,5.76767,-0.00837417,-478.875,-1.40177,-0.0943263,19.712,-3.066,-1.48099,-3.0832
2.06732,5.76195,-0.00876619,-478.796,-1.42909,-0.0978576,19.7411,-3.06576,-1.47968,-3.08125
2.07132,5.75612,-0.00917241,-478.717,-1.45651,-0.10148,19.7701,-3.0655,-1.47836,-3.07931
2.07533,5.75017,-0.00959364,-478.637,-1.48406,-0.1052,19.7991,-3.06523,-1.47704,-3.07739
2.07933,5.74412,-0.0100301,-478.558,-1.51175,-0.109017,19.828,-3.06493,-1.47572,-3.07548
2.08334,5.73796,-0.0104824,-478.478,-1.53956,-0.112931,19.8568,-3.06461,-1.4744,-3.07359
2.08734,5.73168,-0.0109505,-478.399,-1.56749,-0.11694,19.8855,-3.06427,-1.47307,-3.07173
2.09134,5.72529,-0.0114352,-478.319,-1.59555,-0.121048,19.9142,-3.06391,-1.47174,-3.06988
2.09535,5.71879,-0.0119369,-478.239,-1.62375,-0.125253,19.9428,-3.06352,-1.4704,-3.06806
2.09935,5.71217,-0.0124556,-478.159,-1.65206,-0.129555,19.9713,-3.0631,-1.46906,-3.06625
2.10336,5.70545,-0.0129918,-478.079,-1.6805,-0.133953,19.9997,-3.06266,-1.46773,-3.06448
2.10873,5.6962,-0.0137452,-477.971,-1.71887,-0.140032,20.0377,-3.06202,-1.46592,-3.06213
2.11274,5.6892,-0.0143242,-477.891,-1.74763,-0.144658,20.066,-3.06152,-1.46457,-3.06041
2.11674,5.68209,-0.0149227,-477.811,-1.77652,-0.149383,20.0942,-3.06098,-1.46322,-3.05871
2.12075,5.67486,-0.0155403,-477.73,-1.80552,-0.154202,20.1223,-3.06042,-1.46186,-3.05703
2.12475,5.66751,-0.0161777,-477.649,-1.83465,-0.159116,20.1503,-3.05983,-1.46051,-3.05539
2.12876,5.66004,-0.016835,-477.569,-1.8639,-0.164126,20.1783,-3.05922,-1.45915,-3.05376
2.13276,5.65246,-0.0175126,-477.488,-1.89328,-0.16923,20.2062,-3.05857,-1.45778,-3.05216
2.13677,5.64476,-0.018211,-477.407,-1.92278,-0.174429,20.234,-3.05791,-1.45641,-3.05058
2.14077,5.63694,-0.0189308,-477.325,-1.95242,-0.179726,20.2617,-3.05721,-1.45504,-3.04902
2.14478,5.62901,-0.019672,-477.244,-1.98218,-0.185115,20.2894,-3.05649,-1.45367,-3.04749
2.14878,5.62095,-0.0204352,-477.163,-2.01207,-0.1906,20.3169,-3.05575,-1.45229,-3.04598
2.15279,5.61277,-0.0212209,-477.081,-2.04209,-0.196181,20.3444,-3.05499,-1.4509,-3.04449
2.15679,5.60447,-0.0220295,-477,-2.07225,-0.201858,20.3718,-3.0542,-1.44952,-3.04301
2.1608,5.59605,-0.0228608,-476.918,-2.10253,-0.207627,20.3991,-3.05339,-1.44813,-3.04156
2.1648,5.58751,-0.0237159,-476.836,-2.13294,-0.213492,20.4264,-3.05256,-1.44674,-3.04012
2.1688,5.57885,-0.0245946,-476.754,-2.16347,-0.219451,20.4535,-3.0517,-1.44534,-3.03871
2.17281,5.57006,-0.0254975,-476.672,-2.19413,-0.225502,20.4805,-3.05084,-1.44394,-3.0373
2.17681,5.56115,-0.0264248,-476.59,-2.22491,-0.231647,20.5075,-3.04995,-1.44254,-3.03591
2.18082,5.55212,-0.0273775,-476.508,-2.25583,-0.237888,20.5344,-3.04905,-1.44114,-3.03454
2.18482,5.54296,-0.0283556,-476.426,-2.28689,-0.244225,20.5612,-3.04813,-1.43972,-3.03317
2.18883,5.53368,-0.0293595,-476.343,-2.31807,-0.250656,20.5879,-3.0472,-1.43831,-3.03182
2.19283,5.52427,-0.030389,-476.261,-2.34936,-0.257179,20.6145,-3.04625,-1.4369,-3.03048
2.19683,5.51474,-0.0314455,-476.178,-2.3808,-0.263801,20.641,-3.0453,-1.43548,-3.02914
2.20084,5.50508,-0.0325281,-476.095,-2.41235,-0.270514,20.6674,-3.04433,-1.43405,-3.02781
2.20484,5.49529,-0.0336388,-476.012,-2.44405,-0.277329,20.6937,-3.04336,-1.43262,-3.02649
2.21082,5.4804,-0.0353591,-475.889,-2.49151,-0.287719,20.7327,-3.04188,-1.43049,-3.02453
2.21483,5.47029,-0.03654,-475.805,-2.52357,-0.294786,20.7588,-3.04089,-1.42905,-3.02322
2.21883,5.46005,-0.0377493,-475.722,-2.55573,-0.301944,20.7848,-3.03989,-1.42761,-3.02191
2.22284,5.44968,-0.038988,-475.639,-2.58802,-0.309201,20.8107,-3.03889,-1.42617,-3.02061
2.22684,5.43919,-0.0402558,-475.555,-2.62042,-0.316556,20.8365,-3.03788,-1.42472,-3.0193
2.23085,5.42857,-0.0415528,-475.472,-2.65293,-0.324008,20.8622,-3.03687,-1.42327,-3.01799
2.23485,5.41782,-0.0428803,-475.388,-2.68558,-0.331563,20.8879,-3.03586,-1.42182,-3.01668
2.23885,5.40694,-0.0442383,-475.304,-2.71836,-0.339222,20.9134,-3.03485,-1.42036,-3.01537
2.24286,5.39591,-0.0456283,-475.22,-2.75129,-0.346992,20.9388,-3.03384,-1.4189,-3.01406
2.24686,5.38476,-0.0470499,-475.137,-2.78436,-0.354867,20.9642,-3.03284,-1.41744,-3.01274
2.25171,5.37107,-0.0488165,-475.035,-2.82449,-0.364552,20.9946,-3.03162,-1.41566,-3.01113
2.25571,5.35963,-0.0503083,-474.951,-2.85783,-0.372663,21.0197,-3.03062,-1.41419,-3.0098
2.25972,5.34805,-0.0518345,-474.866,-2.89133,-0.38089,21.0447,-3.02961,-1.41271,-3.00847
2.26373,5.33633,-0.0533941,-474.782,-2.92494,-0.389228,21.0696,-3.02862,-1.41123,-3.00712
2.26773,5.32448,-0.0549864,-474.697,-2.95866,-0.397672,21.0944,-3.02762,-1.40975,-3.00577
2.27174,5.3125,-0.056613,-474.613,-2.99252,-0.406229,21.1191,-3.02664,-1.40827,-3.00442
2.27574,5.30038,-0.0582747,-474.528,-3.02651,-0.414904,21.1437,-3.02565,-1.40678,-3.00305
2.27975,5.28812,-0.0599711,-474.443,-3.06062,-0.423694,21.1682,-3.02467,-1.40528,-3.00168
2.28375,5.27573,-0.0617033,-474.359,-3.09486,-0.432603,21.1926,-3.0237,-1.40378,-3.0003
2.28775,5.26319,-0.0634725,-474.274,-3.12925,-0.441635,21.2169,-3.02273,-1.40228,-2.99891
2.29176,5.25052,-0.0652783,-474.188,-3.16376,-0.450791,21.2411,-3.02177,-1.40078,-2.99751
2.29576,5.23772,-0.0671195,-474.103,-3.19838,-0.460058,21.2652,-3.02082,-1.39927,-2.9961
2.29977,5.22477,-0.0690006,-474.018,-3.23316,-0.469464,21.2891,-3.01987,-1.39776,-2.99468
2.30377,5.21168,-0.0709185,-473.933,-3.26805,-0.478987,21.313,-3.01892,-1.39624,-2.99326
2.30778,5.19845,-0.0728755,-473.847,-3.30307,-0.488641,21.3368,-3.01798,-1.39473,-2.99183
2.31178,5.18509,-0.0748702,-473.762,-3.33819,-0.498416,21.3604,-3.01705,-1.3932,-2.99038
2.31579,5.17158,-0.0769055,-473.676,-3.37346,-0.508327,21.3839,-3.01612,-1.39168,-2.98893
2.31979,5.15794,-0.0789811,-473.59,-3.40886,-0.518369,21.4074,-3.0152,-1.39015,-2.98748
2.32379,5.14414,-0.0810984,-473.505,-3.44441,-0.528552,21.4307,-3.01428,-1.38861,-2.98601
2.3278,5.13021,-0.0832555,-473.419,-3.48005,-0.538859,21.4539,-3.01337,-1.38708,-2.98454
2.3318,5.11612,-0.085456,-473.333,-3.51585,-0.549313,21.477,-3.01246,-1.38554,-2.98305
2.33581,5.1019,-0.0876973,-473.247,-3.55175,-0.559895,21.5,-3.01155,-1.38399,-2.98157
2.33981,5.08753,-0.0899826,-473.16,-3.5878,-0.570623,21.5228,-3.01065,-1.38244,-2.98007
2.34382,5.07302,-0.0923109,-473.074,-3.62395,-0.581487,21.5456,-3.00976,-1.38089,-2.97857
2.34782,5.05837,-0.0946827,-472.988,-3.66024,-0.592492,21.5682,-3.00886,-1.37933,-2.97706
2.35182,5.04357,-0.0970996,-472.901,-3.69665,-0.603641,21.5908,-3.00797,-1.37778,-2.97555
2.35583,5.02862,-0.0995631,-472.815,-3.73322,-0.614942,21.6132,-3.00709,-1.37621,-2.97403
2.35983,5.01352,-0.102071,-472.728,-3.76988,-0.626382,21.6355,-3.0062,-1.37464,-2.9725
2.36384,4.99828,-0.104626,-472.641,-3.80668,-0.637973,21.6577,-3.00532,-1.37307,-2.97097
2.36784,4.98288,-0.107229,-472.555,-3.84362,-0.649714,21.6797,-3.00443,-1.37149,-2.96944
2.37185,4.96734,-0.109879,-472.468,-3.88067,-0.661601,21.7017,-3.00355,-1.36991,-2.9679
2.37585,4.95165,-0.112575,-472.381,-3.91783,-0.673632,21.7235,-3.00267,-1.36833,-2.96635
2.37986,4.93582,-0.115321,-472.294,-3.95512,-0.685815,21.7452,-3.0018,-1.36674,-2.96481
2.38386,4.91983,-0.118117,-472.206,-3.99255,-0.698157,21.7668,-3.00092,-1.36515,-2.96326
2.38786,4.90369,-0.120962,-472.119,-4.03009,-0.710648,21.7883,-3.00004,-1.36356,-2.96171
2.39187,4.88736,-0.123866,-472.032,-4.06786,-0.723328,21.8097,-2.99915,-1.36195,-2.96015
2.39587,4.87097,-0.126805,-471.945,-4.10554,-0.736094,21.8308,-2.99828,-1.36035,-2.9586
2.39988,4.85437,-0.129805,-471.857,-4.14346,-0.749054,21.8519,-2.99739,-1.35874,-2.95704
2.40388,4.83762,-0.132859,-471.769,-4.18153,-0.762177,21.8729,-2.99651,-1.35713,-2.95548
2.40789,4.82072,-0.135964,-471.682,-4.21969,-0.77545,21.8937,-2.99563,-1.35551,-2.95392
2.41189,4.80367,-0.139124,-471.594,-4.25798,-0.788882,21.9145,-2.99474,-1.35389,-2.95236
2.4159,4.78646,-0.142338,-471.506,-4.29639,-0.802476,21.9351,-2.99385,-1.35227,-2.95079
2.4199,4.76909,-0.145608,-471.418,-4.33495,-0.816236,21.9555,-2.99296,-1.35064,-2.94923
2.42391,4.75158,-0.148932,-471.33,-4.3736,-0.830148,21.9759,-2.99207,-1.34901,-2.94766
2.42791,4.73391,-0.152313,-471.242,-4.41238,-0.844224,21.9961,-2.99117,-1.34737,-2.9461
2.43192,4.71608,-0.155751,-471.154,-4.45127,-0.85846,22.0161,-2.99028,-1.34573,-2.94454
2.43592,4.6981,-0.159247,-471.066,-4.4903,-0.872864,22.0361,-2.98938,-1.34408,-2.94297
2.43993,4.67997,-0.1628,-470.977,-4.52943,-0.887425,22.0559,-2.98847,-1.34243,-2.9414
2.44393,4.66167,-0.166412,-470.889,-4.56868,-0.902152,22.0755,-2.98757,-1.34078,-2.93984
2.44794,4.64322,-0.170085,-470.8,-4.60806,-0.917046,22.0951,-2.98666,-1.33912,-2.93827
2.45194,4.62462,-0.173815,-470.712,-4.64754,-0.932097,22.1145,-2.98575,-1.33746,-2.93671
2.45594,4.60585,-0.177609,-470.623,-4.68717,-0.947326,22.1338,-2.98484,-1.33579,-2.93514
2.45995,4.58691,-0.181465,-470.534,-4.72691,-0.962722,22.1529,-2.98392,-1.33411,-2.93358
2.46395,4.56783,-0.185382,-470.446,-4.76676,-0.978282,22.1719,-2.983,-1.33244,-2.93201
2.46795,4.54859,-0.18936,-470.357,-4.80671,-0.994004,22.1907,-2.98208,-1.33076,-2.93045
2.47196,4.52919,-0.193402,-470.268,-4.8468,-1.0099,22.2094,-2.98115,-1.32907,-2.92888
2.47596,4.50961,-0.197513,-470.179,-4.88702,-1.02598,22.228,-2.98022,-1.32738,-2.92731
2.47997,4.48988,-0.201686,-470.09,-4.92734,-1.04222,22.2464,-2.97929,-1.32569,-2.92575
2.48397,4.46998,-0.205926,-470.001,-4.9678,-1.05864,22.2647,-2.97836,-1.32399,-2.92418
2.48798,4.44991,-0.210235,-469.911,-5.00839,-1.07524,22.2829,-2.97743,-1.32229,-2.92261
2.49198,4.4297,-0.214607,-469.822,-5.04907,-1.092,22.3009,-2.97649,-1.32058,-2.92104
2.49599,4.40932,-0.219047,-469.733,-5.08986,-1.10894,22.3187,-2.97555,-1.31887,-2.91947
2.49999,4.38877,-0.223557,-469.643,-5.13078,-1.12605,22.3364,-2.97461,-1.31715,-2.9179
2.504,4.36807,-0.228134,-469.554,-5.17179,-1.14334,22.354,-2.97367,-1.31543,-2.91633
2.508,4.34719,-0.232783,-469.464,-5.21294,-1.16081,22.3714,-2.97272,-1.3137,-2.91475
2.51201,4.32615,-0.237503,-469.375,-5.25419,-1.17845,22.3886,-2.97178,-1.31197,-2.91318
2.51601,4.30495,-0.242292,-469.285,-5.29555,-1.19627,22.4057,-2.97083,-1.31024,-2.9116
2.52001,4.28358,-0.247152,-469.195,-5.33702,-1.21427,22.4227,-2.96989,-1.3085,-2.91003
2.52402,4.26205,-0.252087,-469.105,-5.3786,-1.23246,22.4395,-2.96894,-1.30675,-2.90845
2.52802,4.24034,-0.257095,-469.015,-5.42031,-1.25082,22.4561,-2.96799,-1.305,-2.90686
2.53202,4.21847,-0.262178,-468.925,-5.46212,-1.26937,22.4726,-2.96704,-1.30325,-2.90528
2.53603,4.19644,-0.267335,-468.835,-5.50405,-1.28811,22.4889,-2.96609,-1.30149,-2.90369
2.54003,4.17422,-0.272571,-468.745,-5.5461,-1.30704,22.5051,-2.96513,-1.29973,-2.9021
2.54404,4.15185,-0.277879,-468.655,-5.58823,-1.32613,22.5211,-2.96418,-1.29796,-2.90051
2.54804,4.1293,-0.283267,-468.565,-5.6305,-1.34543,22.537,-2.96323,-1.29619,-2.89892
2.55204,4.10659,-0.288732,-468.474,-5.67286,-1.36492,22.5527,-2.96228,-1.29442,-2.89732
2.55605,4.08371,-0.294275,-468.384,-5.71531,-1.38458,22.5682,-2.96133,-1.29264,-2.89572
2.56005,4.06066,-0.299897,-468.294,-5.75788,-1.40444,22.5836,-2.96038,-1.29085,-2.89412
2.56406,4.03743,-0.305602,-468.203,-5.80058,-1.42451,22.5988,-2.95942,-1.28906,-2.89251
2.56806,4.01403,-0.311387,-468.113,-5.84337,-1.44476,22.6139,-2.95847,-1.28727,-2.8909
2.57207,3.99045,-0.317256,-468.022,-5.88629,-1.46521,22.6288,-2.95752,-1.28547,-2.88929
2.57607,3.96672,-0.323203,-467.931,-5.92927,-1.48584,22.6435,-2.95657,-1.28366,-2.88767
2.58007,3.94281,-0.329235,-467.841,-5.97238,-1.50668,22.6581,-2.95562,-1.28185,-2.88605
2.58408,3.91872,-0.335354,-467.75,-6.0156,-1.52772,22.6724,-2.95467,-1.28004,-2.88442
2.58808,3.89447,-0.341554,-467.659,-6.0589,-1.54896,22.6867,-2.95373,-1.27822,-2.8828
