t,x,y,z,vx,vy,vz,roll,pitch,yaw
0,0,0,-500,5,0,0,0,0,0
0.004001,0,0,-500,5,0,0,0,0,0
0.008002,0.0200029,0,-500,4.99946,0,0.024989,0,-0.000289171,0
0.012003,0.0400039,1.96654e-11,-500,4.999,4.91513e-09,0.0486348,3.16011e-07,-0.000871207,1.22704e-08
0.016008,0.0600283,4.05929e-11,-499.999,4.99862,5.22403e-09,0.0711321,1.26169e-06,-0.00175078,5.27706e-08
0.020009,0.0800216,4.34857e-11,-499.999,4.99833,7.23199e-10,0.0925758,3.14031e-06,-0.00292773,1.39518e-07
0.024009,0.100014,4.64674e-11,-499.999,4.99813,7.45437e-10,0.11315,6.25419e-06,-0.00440569,2.91787e-07
0.02801,0.120011,1.28496e-10,-499.998,4.99803,2.05019e-08,0.133008,1.07368e-05,-0.00618713,5.27873e-07
0.03201,0.140003,4.8686e-10,-499.997,4.99801,8.95911e-08,0.152399,1.66399e-05,-0.00827286,8.63571e-07
0.036011,0.160001,1.48661e-09,-499.997,4.99809,2.49875e-07,0.171428,2.41961e-05,-0.0106654,1.31475e-06
0.040012,0.179999,3.62232e-09,-499.996,4.99825,5.33795e-07,0.190177,3.36292e-05,-0.0133654,1.89478e-06
0.044012,0.199993,7.53395e-09,-499.995,4.99851,9.77905e-07,0.208722,4.51564e-05,-0.0163726,2.61406e-06
0.048013,0.219993,1.40258e-08,-499.994,4.99884,1.62256e-06,0.22715,5.89998e-05,-0.0196891,3.48011e-06
0.052013,0.23999,2.40642e-08,-499.993,4.99926,2.50959e-06,0.245528,7.53626e-05,-0.0233134,4.49558e-06
0.056014,0.259994,3.88006e-08,-499.992,4.99976,3.68319e-06,0.263935,9.44588e-05,-0.0272471,5.65967e-06
0.060014,0.279995,5.95446e-08,-499.991,5.00033,5.18601e-06,0.28243,0.000116478,-0.0314878,6.96543e-06
0.064018,0.300019,8.78257e-08,-499.99,5.00097,7.0632e-06,0.301101,0.000141648,-0.0360406,8.40308e-06
0.068019,0.320031,1.25239e-07,-499.989,5.00167,9.3509e-06,0.319979,0.000170112,-0.0408965,9.95258e-06
0.07202,0.340046,1.73598e-07,-499.987,5.00244,1.20867e-05,0.339137,0.000202073,-0.0460579,1.15917e-05
0.07602,0.360059,2.34801e-07,-499.986,5.00326,1.53009e-05,0.358625,0.000237697,-0.0515217,1.32902e-05
0.080021,0.38008,3.10919e-07,-499.984,5.00413,1.90247e-05,0.37855,0.000278019,-0.0572894,1.50151e-05
0.084021,0.4001,4.03686e-07,-499.983,5.00504,2.31918e-05,0.399039,0.000323435,-0.0633563,1.67142e-05
0.088021,0.420124,5.14832e-07,-499.981,5.00597,2.77865e-05,0.420167,0.000374126,-0.0697222,1.83267e-05
0.092022,0.440157,6.4607e-07,-499.979,5.00692,3.28013e-05,0.44199,0.000430273,-0.0763869,1.97831e-05
0.096022,0.460189,7.98902e-07,-499.977,5.00789,3.82079e-05,0.464547,0.000492004,-0.0833449,2.10048e-05
0.100023,0.480229,9.74807e-07,-499.975,5.00886,4.39655e-05,0.487895,0.000559505,-0.0905979,2.19059e-05
0.104023,0.500268,1.17484e-06,-499.973,5.00982,5.00072e-05,0.512066,0.000632889,-0.0981397,2.23915e-05
0.108023,0.520311,1.39984e-06,-499.971,5.01077,5.6251e-05,0.537101,0.000712259,-0.105967,2.23715e-05
0.112024,0.540363,1.65033e-06,-499.969,5.01169,6.26075e-05,0.563036,0.000797761,-0.114065,2.1748e-05
0.116024,0.560414,1.92614e-06,-499.967,5.01258,6.8953e-05,0.589886,0.000889467,-0.122416,2.04175e-05
0.120025,0.580472,2.22683e-06,-499.964,5.01342,7.51513e-05,0.617685,0.000987522,-0.131005,1.82723e-05
0.124025,0.600529,2.55099e-06,-499.962,5.0142,8.10421e-05,0.646435,0.00109196,-0.139812,1.52046e-05
0.128026,0.620594,2.89689e-06,-499.959,5.01491,8.64518e-05,0.676166,0.00120298,-0.148823,1.11022e-05
0.132026,0.640656,3.26124e-06,-499.956,5.01553,9.10877e-05,0.706943,0.00132115,-0.158023,5.84468e-06
0.136027,0.660725,3.63993e-06,-499.953,5.01605,9.46503e-05,0.738805,0.00144653,-0.167405,-6.98758e-07
0.140027,0.680791,4.02755e-06,-499.95,5.01644,9.69045e-05,0.77173,0.00157907,-0.176955,-8.65354e-06
0.144028,0.700863,4.41806e-06,-499.947,5.01671,9.76036e-05,0.805725,0.00171883,-0.186666,-1.81524e-05
0.148028,0.72093,4.804e-06,-499.943,5.01684,9.64837e-05,0.84076,0.00186575,-0.196525,-2.93188e-05
0.152029,0.741002,5.17566e-06,-499.94,5.01679,9.28922e-05,0.877027,0.00202247,-0.206522,-4.23581e-05
0.156029,0.761068,5.51887e-06,-499.936,5.0165,8.58012e-05,0.914685,0.00218874,-0.216636,-5.74041e-05
0.16003,0.781137,5.81852e-06,-499.932,5.01597,7.48956e-05,0.953687,0.00236447,-0.226856,-7.45966e-05
0.16403,0.801198,6.058e-06,-499.928,5.01519,5.98686e-05,0.993947,0.00254937,-0.237163,-9.40509e-05
0.168031,0.82126,6.21965e-06,-499.924,5.01415,4.04041e-05,1.03541,0.00274333,-0.247548,-0.000115892
0.172031,0.841311,6.2845e-06,-499.92,5.01285,1.62122e-05,1.078,0.00294606,-0.257991,-0.000140215
0.176032,0.861361,6.2331e-06,-499.916,5.01129,-1.28481e-05,1.12162,0.00315642,-0.268486,-0.000167022
0.180032,0.881399,6.04707e-06,-499.911,5.00948,-4.65063e-05,1.16607,0.0033737,-0.279017,-0.000196334
0.184033,0.901434,5.7074e-06,-499.906,5.00743,-8.48966e-05,1.2113,0.00359787,-0.289579,-0.000228242
0.188033,0.921454,5.19437e-06,-499.901,5.00512,-0.000128256,1.25725,0.0038287,-0.30016,-0.000262801
0.192034,0.94147,4.48679e-06,-499.896,5.00255,-0.000176853,1.30391,0.00406618,-0.310754,-0.000300091
0.196034,0.961468,3.56323e-06,-499.89,4.99972,-0.000230889,1.35122,0.00431006,-0.321348,-0.000340151
0.200035,0.98146,2.40051e-06,-499.885,4.99663,-0.000290608,1.39915,0.00456031,-0.33194,-0.000383052
0.204035,1.00143,9.75818e-07,-499.879,4.99328,-0.000356173,1.44766,0.00481669,-0.342518,-0.000428815
0.208036,1.0214,-7.35798e-07,-499.873,4.98965,-0.000427797,1.49672,0.00507917,-0.353078,-0.000477502
0.212036,1.04134,-2.75822e-06,-499.867,4.98576,-0.000505604,1.54627,0.00534747,-0.363611,-0.000529119
0.216037,1.06127,-5.11749e-06,-499.86,4.98161,-0.000589671,1.59628,0.00562121,-0.374116,-0.000583688
0.220037,1.08118,-7.83641e-06,-499.854,4.97721,-0.00067973,1.64665,0.00589936,-0.384585,-0.000641151
0.224038,1.10108,-1.09398e-05,-499.847,4.97257,-0.000775642,1.69734,0.00618199,-0.395023,-0.000701583
0.228038,1.12095,-1.44497e-05,-499.84,4.9677,-0.000877497,1.7483,0.00646894,-0.405426,-0.000765
0.232039,1.1408,-1.83927e-05,-499.833,4.96258,-0.000985488,1.79955,0.00676028,-0.415799,-0.000831478
0.236039,1.16063,-2.27915e-05,-499.825,4.95723,-0.00109971,1.85105,0.00705585,-0.426135,-0.00090103
0.24004,1.18044,-2.76741e-05,-499.818,4.95164,-0.00122034,1.90281,0.00735574,-0.436441,-0.000973733
0.24404,1.20022,-3.30639e-05,-499.81,4.9458,-0.00134745,1.95478,0.00765977,-0.446711,-0.0010496
0.248041,1.21999,-3.89904e-05,-499.802,4.93972,-0.00148125,2.00699,0.00796807,-0.45695,-0.0011287
0.252041,1.23972,-4.54776e-05,-499.794,4.9334,-0.0016218,2.05939,0.00828045,-0.467153,-0.00121105
0.256042,1.25943,-5.25565e-05,-499.785,4.92683,-0.00176929,2.112,0.00859705,-0.477324,-0.00129673
0.260042,1.27911,-6.02517e-05,-499.777,4.92001,-0.00192378,2.16478,0.00891768,-0.487458,-0.00138574
0.264043,1.29877,-6.85957e-05,-499.768,4.91294,-0.00208548,2.21776,0.0092425,-0.497561,-0.00147817
0.268043,1.31839,-7.76135e-05,-499.759,4.90562,-0.00225445,2.2709,0.00957131,-0.507627,-0.00157402
0.272044,1.33799,-8.73394e-05,-499.749,4.89805,-0.00243088,2.32421,0.00990426,-0.517661,-0.00167337
0.276044,1.35755,-9.77987e-05,-499.74,4.89023,-0.00261481,2.37765,0.0102412,-0.527658,-0.00177623
0.280045,1.37709,-0.000109027,-499.73,4.88215,-0.00280646,2.43126,0.0105823,-0.537622,-0.00188268
0.284045,1.39658,-0.000121051,-499.72,4.87381,-0.00300587,2.485,0.0109273,-0.54755,-0.00199273
0.288046,1.41605,-0.000133907,-499.71,4.86522,-0.00321326,2.53888,0.0112765,-0.557444,-0.00210646
0.292046,1.43547,-0.000147622,-499.7,4.85636,-0.00342867,2.59288,0.0116296,-0.5673,-0.00222386
0.296047,1.45487,-0.000162235,-499.689,4.84724,-0.00365231,2.64701,0.0119868,-0.577124,-0.00234505
0.300047,1.47422,-0.000177771,-499.678,4.83787,-0.00388419,2.70124,0.012348,-0.586909,-0.00247
0.304048,1.49353,-0.000194274,-499.667,4.82822,-0.00412458,2.75561,0.0127134,-0.596661,-0.00259883
0.308052,1.51283,-0.000211786,-499.656,4.8183,-0.00437371,2.81011,0.013083,-0.606384,-0.00273165
0.312052,1.53206,-0.000230311,-499.645,4.80812,-0.00463129,2.86467,0.0134564,-0.61606,-0.00286827
0.316053,1.55125,-0.000249907,-499.633,4.79766,-0.00489774,2.91934,0.013834,-0.625703,-0.00300892
0.320053,1.5704,-0.000270599,-499.621,4.78694,-0.00517306,2.97409,0.0142156,-0.635307,-0.00315356
0.324054,1.58951,-0.000292435,-499.609,4.77594,-0.00545751,3.02894,0.0146014,-0.644876,-0.00330233
0.328054,1.60857,-0.000315439,-499.596,4.76466,-0.00575108,3.08387,0.0149912,-0.654405,-0.00345519
0.332055,1.62759,-0.000339661,-499.584,4.7531,-0.00605404,3.13889,0.0153853,-0.6639,-0.00361227
0.336055,1.64655,-0.000365127,-499.571,4.74127,-0.00636634,3.19398,0.0157834,-0.673354,-0.00377355
0.340056,1.66547,-0.000391887,-499.558,4.72914,-0.00668826,3.24916,0.0161859,-0.682773,-0.00393916
0.344056,1.68434,-0.000419966,-499.545,4.71674,-0.00701977,3.30439,0.0165924,-0.692152,-0.00410908
0.348057,1.70316,-0.000449418,-499.531,4.70404,-0.00736116,3.35971,0.0170034,-0.701494,-0.00428343
0.352057,1.72193,-0.000480267,-499.518,4.69106,-0.00771236,3.41508,0.0174185,-0.710796,-0.00446219
0.356058,1.74064,-0.00051257,-499.504,4.67778,-0.00807365,3.47053,0.017838,-0.720061,-0.00464551
0.360058,1.7593,-0.000546349,-499.49,4.66422,-0.00844493,3.52602,0.0182617,-0.729285,-0.00483335
0.364059,1.7779,-0.000581664,-499.475,4.65036,-0.00882647,3.58157,0.0186899,-0.738473,-0.00502588
0.368059,1.79645,-0.000618537,-499.461,4.6362,-0.00921819,3.63716,0.0191223,-0.74762,-0.00522307
0.372059,1.81494,-0.000657018,-499.446,4.62175,-0.00962032,3.6928,0.0195591,-0.756729,-0.00542505
0.37606,1.83337,-0.00069716,-499.431,4.607,-0.0100331,3.7485,0.0200006,-0.765802,-0.00563193
0.38006,1.85174,-0.000738986,-499.416,4.59194,-0.0104563,3.80422,0.0204465,-0.774834,-0.00584369
0.384061,1.87005,-0.000782558,-499.4,4.57658,-0.0108904,3.86001,0.0208971,-0.78383,-0.00606053
0.388061,1.88829,-0.000827899,-499.385,4.56092,-0.0113353,3.91581,0.0213523,-0.792785,-0.00628241
0.392062,1.90648,-0.000875076,-499.369,4.54494,-0.0117912,3.97166,0.0218124,-0.801705,-0.00650954
0.396062,1.92459,-0.000924109,-499.353,4.52865,-0.0122581,4.02753,0.0222772,-0.810584,-0.00674189
0.400063,1.94264,-0.000975067,-499.336,4.51205,-0.0127363,4.08345,0.0227471,-0.819427,-0.00697967
0.404063,1.96062,-0.00102797,-499.32,4.49513,-0.0132257,4.13938,0.0232218,-0.82823,-0.00722285
0.408064,1.97854,-0.00108289,-499.303,4.47789,-0.0137265,4.19535,0.0237017,-0.836996,-0.00747166
0.412064,1.99638,-0.00113984,-499.286,4.46033,-0.0142387,4.25132,0.0241867,-0.845723,-0.00772608
0.416065,2.01415,-0.00119891,-499.269,4.44245,-0.0147626,4.30733,0.024677,-0.854413,-0.00798634
0.420065,2.03185,-0.0012601,-499.251,4.42424,-0.0152981,4.36334,0.0251726,-0.863063,-0.00825243
0.424066,2.04948,-0.0013235,-499.234,4.4057,-0.0158455,4.41938,0.0256738,-0.871677,-0.00852459
0.428066,2.06703,-0.00138912,-499.216,4.38684,-0.0164045,4.47542,0.0261805,-0.88025,-0.00880281
0.432067,2.0845,-0.00145704,-499.198,4.36764,-0.0169757,4.53148,0.0266929,-0.888787,-0.00908735
0.436067,2.10189,-0.00152727,-499.179,4.34811,-0.0175587,4.58753,0.027211,-0.897283,-0.00937819
0.440068,2.11921,-0.00159991,-499.161,4.32824,-0.0181539,4.64359,0.0277353,-0.905742,-0.00967564
0.444068,2.13644,-0.00167495,-499.142,4.30804,-0.0187612,4.69964,0.0282654,-0.914161,-0.00997966
0.448069,2.1536,-0.00175249,-499.123,4.2875,-0.0193808,4.7557,0.0288019,-0.922543,-0.0102906
0.452069,2.17066,-0.00183254,-499.104,4.26662,-0.0200126,4.81174,0.0293446,-0.930884,-0.0106083
0.45607,2.18765,-0.00191519,-499.084,4.2454,-0.0206568,4.86778,0.029894,-0.939187,-0.0109333
0.46007,2.20455,-0.00200044,-499.065,4.22384,-0.0213132,4.92379,0.0304498,-0.947449,-0.0112655
0.464071,2.22136,-0.00208839,-499.045,4.20193,-0.0219822,4.9798,0.0310126,-0.955673,-0.0116052
0.468071,2.23808,-0.00217905,-499.025,4.17969,-0.0226636,5.03577,0.0315822,-0.963856,-0.0119524
0.472072,2.25471,-0.0022725,-499.004,4.15709,-0.0233575,5.09173,0.0321592,-0.972,-0.0123075
0.476072,2.27125,-0.00236876,-498.984,4.13416,-0.0240639,5.14765,0.0327433,-0.980103,-0.0126706
0.480073,2.28769,-0.00246791,-498.963,4.11088,-0.0247829,5.20355,0.0333351,-0.988166,-0.0130419
0.484073,2.30404,-0.00256997,-498.942,4.08725,-0.0255142,5.2594,0.0339345,-0.996187,-0.0134215
0.488074,2.3203,-0.00267503,-498.92,4.06328,-0.0262583,5.31522,0.0345419,-1.00417,-0.0138099
0.492074,2.33645,-0.00278309,-498.899,4.03897,-0.0270148,5.37098,0.0351574,-1.01211,-0.0142069
0.496075,2.35252,-0.00289425,-498.877,4.01431,-0.0277839,5.42671,0.0357813,-1.02001,-0.0146132
0.500075,2.36847,-0.00300851,-498.855,3.98931,-0.0285654,5.48236,0.0364137,-1.02786,-0.0150286
0.504076,2.38433,-0.00312598,-498.833,3.96396,-0.0293594,5.53798,0.0370552,-1.03567,-0.0154537
0.508077,2.40009,-0.00324668,-498.811,3.93828,-0.030166,5.59353,0.0377056,-1.04344,-0.0158886
0.512077,2.41574,-0.00337061,-498.788,3.91226,-0.0309847,5.649,0.0383653,-1.05117,-0.0163335
0.516077,2.43128,-0.00349788,-498.765,3.8859,-0.0318156,5.70439,0.0390346,-1.05885,-0.0167887
0.520078,2.44672,-0.00362855,-498.742,3.85921,-0.0326591,5.75973,0.0397139,-1.06649,-0.0172546
0.524079,2.46206,-0.00376264,-498.719,3.83218,-0.0335147,5.81498,0.0404034,-1.07408,-0.0177315
0.528079,2.47728,-0.00390017,-498.696,3.80483,-0.0343821,5.87014,0.0411032,-1.08162,-0.0182195
0.532079,2.49238,-0.00404121,-498.672,3.77715,-0.0352615,5.9252,0.0418138,-1.08912,-0.0187189
0.53608,2.50738,-0.00418586,-498.648,3.74914,-0.036153,5.98018,0.0425356,-1.09658,-0.0192304
0.540081,2.52227,-0.00433412,-498.624,3.72082,-0.0370561,6.03506,0.0432688,-1.10398,-0.0197539
0.544081,2.53704,-0.004486,-498.599,3.69219,-0.0379706,6.08983,0.0440135,-1.11134,-0.0202899
0.548081,2.55169,-0.00464159,-498.575,3.66324,-0.0388965,6.14448,0.0447703,-1.11864,-0.0208387
0.552082,2.56623,-0.00480097,-498.55,3.63399,-0.0398338,6.19903,0.0455397,-1.1259,-0.0214008
0.556083,2.58065,-0.00496413,-498.525,3.60444,-0.0407822,6.25345,0.0463218,-1.13311,-0.0219765
0.560083,2.59495,-0.0051311,-498.5,3.5746,-0.0417412,6.30774,0.0471168,-1.14026,-0.0225659
0.564083,2.60913,-0.00530194,-498.474,3.54448,-0.0427109,6.3619,0.0479253,-1.14736,-0.0231696
0.568084,2.62319,-0.00547675,-498.449,3.51407,-0.0436912,6.41593,0.0487478,-1.15441,-0.023788
0.572085,2.63713,-0.00565552,-498.423,3.48338,-0.0446817,6.46982,0.0495845,-1.1614,-0.0244215
0.576085,2.65094,-0.00583825,-498.397,3.45244,-0.0456818,6.52355,0.0504355,-1.16833,-0.0250702
0.580085,2.66462,-0.00602502,-498.37,3.42125,-0.0466914,6.57713,0.0513015,-1.17521,-0.0257347
0.584085,2.67818,-0.00621586,-498.344,3.38981,-0.0477103,6.63055,0.0521827,-1.18203,-0.0264152
0.588086,2.69162,-0.00641086,-498.317,3.35812,-0.0487385,6.68382,0.0530797,-1.18878,-0.0271124
0.592087,2.70493,-0.00661001,-498.29,3.32621,-0.0497751,6.73692,0.0539929,-1.19548,-0.0278265
0.596087,2.7181,-0.00681329,-498.263,3.29411,-0.0508193,6.78983,0.0549223,-1.20212,-0.0285579
0.600087,2.73115,-0.00702077,-498.236,3.26182,-0.051871,6.84255,0.0558689,-1.20869,-0.0293072
0.60409,2.74408,-0.00723265,-498.208,3.22931,-0.0529308,6.89513,0.0568336,-1.2152,-0.0300756
0.60809,2.75686,-0.00744864,-498.18,3.19665,-0.0539965,6.94747,0.0578158,-1.22165,-0.0308624
0.612091,2.76952,-0.00766897,-498.152,3.16383,-0.055069,6.99964,0.0588169,-1.22803,-0.0316691
0.616092,2.78205,-0.00789362,-498.124,3.13085,-0.0561475,7.0516,0.0598372,-1.23435,-0.032496
0.620092,2.79444,-0.00812254,-498.096,3.09774,-0.0572314,7.10335,0.0608771,-1.24061,-0.0333435
0.624092,2.8067,-0.00835582,-498.067,3.06451,-0.0583206,7.15489,0.0619375,-1.24679,-0.0342125
0.628093,2.81882,-0.00859354,-498.038,3.03115,-0.0594149,7.20624,0.0630192,-1.25292,-0.0351038
0.632094,2.83082,-0.00883566,-498.009,2.99768,-0.0605137,7.25737,0.0641227,-1.25898,-0.0360178
0.636094,2.84267,-0.00908212,-497.98,2.96413,-0.0616162,7.30828,0.0652483,-1.26497,-0.0369552
0.640094,2.8544,-0.00933301,-497.951,2.93049,-0.0627224,7.35897,0.0663969,-1.27089,-0.0379167
0.644095,2.86599,-0.00958841,-497.921,2.89678,-0.063832,7.40945,0.0675698,-1.27674,-0.0389033
0.648096,2.87744,-0.00984825,-497.891,2.86301,-0.0649444,7.45971,0.0687671,-1.28253,-0.0399156
0.652096,2.88876,-0.0101125,-497.861,2.82921,-0.0660588,7.50974,0.0699893,-1.28825,-0.040954
0.656096,2.89994,-0.0103812,-497.831,2.79537,-0.0671751,7.55954,0.0712376,-1.29389,-0.0420196
0.660097,2.91099,-0.0106544,-497.8,2.76151,-0.0682931,7.60913,0.072513,-1.29947,-0.0431134
0.664098,2.9219,-0.0109321,-497.77,2.72764,-0.0694121,7.65848,0.073816,-1.30498,-0.0442359
0.668098,2.93268,-0.0112143,-497.739,2.69378,-0.0705314,7.7076,0.075147,-1.31041,-0.0453878
0.672098,2.94332,-0.0115009,-497.708,2.65995,-0.0716506,7.75649,0.0765072,-1.31577,-0.04657
0.676099,2.95382,-0.011792,-497.677,2.62614,-0.0727697,7.80516,0.0778978,-1.32106,-0.0477838
0.6801,2.9642,-0.0120876,-497.645,2.59237,-0.0738879,7.85359,0.0793191,-1.32628,-0.0490296
0.6841,2.97443,-0.0123877,-497.614,2.55868,-0.0750043,7.90179,0.0807717,-1.33142,-0.050308
0.6881,2.98453,-0.0126921,-497.582,2.52506,-0.076119,7.94975,0.0822566,-1.33649,-0.05162
0.692101,2.9945,-0.0130011,-497.55,2.49153,-0.0772314,7.99749,0.0837753,-1.34149,-0.0529669
0.696102,3.00433,-0.0133146,-497.518,2.45809,-0.078341,8.045,0.085328,-1.34641,-0.0543492
0.700102,3.01403,-0.0136324,-497.485,2.42479,-0.0794468,8.09227,0.0869151,-1.35125,-0.0557673
0.704102,3.0236,-0.0139546,-497.453,2.39161,-0.0805488,8.13931,0.0885376,-1.35601,-0.0572222
0.708102,3.03303,-0.0142812,-497.42,2.35858,-0.0816463,8.18612,0.0901965,-1.3607,-0.0587148
0.712103,3.04234,-0.0146122,-497.387,2.32571,-0.082739,8.23271,0.0918928,-1.36531,-0.0602462
0.716104,3.05151,-0.0149476,-497.354,2.29301,-0.0838262,8.27907,0.0936266,-1.36984,-0.0618164
0.720104,3.06056,-0.0152872,-497.32,2.26051,-0.0849071,8.3252,0.095398,-1.37429,-0.0634258
0.724104,3.06947,-0.0156311,-497.287,2.22822,-0.0859814,8.37109,0.097208,-1.37866,-0.0650752
0.728105,3.07826,-0.0159794,-497.253,2.19614,-0.0870487,8.41678,0.0990578,-1.38295,-0.0667658
0.732106,3.08692,-0.0163319,-497.22,2.16434,-0.0881072,8.46223,0.100947,-1.38717,-0.0684978
0.736106,3.09545,-0.0166885,-497.185,2.13296,-0.089151,8.5074,0.102881,-1.3913,-0.0702767
0.740106,3.10385,-0.0170493,-497.151,2.10198,-0.090181,8.55231,0.104866,-1.39538,-0.0721088
0.744107,3.11214,-0.0174141,-497.117,2.07138,-0.091198,8.597,0.10691,-1.3994,-0.0740016
0.748108,3.12031,-0.017783,-497.082,2.04113,-0.0922028,8.64144,0.109019,-1.40338,-0.075962
0.752108,3.12835,-0.0181558,-497.048,2.01121,-0.0931962,8.68565,0.111202,-1.40731,-0.077998
0.756108,3.13628,-0.0185325,-497.013,1.98158,-0.0941797,8.72966,0.113467,-1.41121,-0.0801187
0.760109,3.14409,-0.0189133,-496.978,1.9522,-0.095155,8.77348,0.115825,-1.41508,-0.0823347
0.76411,3.15179,-0.0192979,-496.942,1.92302,-0.0961231,8.81712,0.118287,-1.41893,-0.0846559
0.76811,3.15936,-0.0196862,-496.907,1.89403,-0.0970855,8.86057,0.120862,-1.42276,-0.0870933
0.77211,3.16682,-0.0200784,-496.871,1.86516,-0.0980438,8.90387,0.123565,-1.42657,-0.0896601
0.776111,3.17417,-0.0204745,-496.835,1.83637,-0.0989999,8.94703,0.12641,-1.43038,-0.0923707
0.780112,3.1814,-0.0208744,-496.799,1.80762,-0.0999552,8.99005,0.129412,-1.43418,-0.0952394
0.784112,3.18852,-0.021278,-496.763,1.77888,-0.100911,9.03292,0.132585,-1.43798,-0.098282
0.788112,3.19552,-0.0216855,-496.727,1.7501,-0.101869,9.07568,0.13595,-1.44178,-0.101517
0.792205,3.20256,-0.0221065,-496.69,1.72058,-0.102853,9.1193,0.139611,-1.44567,-0.105049
0.796205,3.20933,-0.0225218,-496.653,1.69163,-0.103819,9.16183,0.143427,-1.44948,-0.108738
0.800206,3.21598,-0.022941,-496.616,1.66252,-0.104792,9.20426,0.147502,-1.45329,-0.112689
0.804207,3.22251,-0.0233642,-496.579,1.63324,-0.105773,9.24659,0.151865,-1.45711,-0.116928
0.808207,3.22893,-0.0237913,-496.542,1.60377,-0.106762,9.28882,0.156547,-1.46093,-0.121488
0.812207,3.23522,-0.0242223,-496.505,1.57407,-0.107761,9.33095,0.161585,-1.46475,-0.126404
0.816208,3.2414,-0.0246575,-496.467,1.54412,-0.108771,9.373,0.16702,-1.46859,-0.131719
0.820209,3.24746,-0.0250968,-496.43,1.51391,-0.109792,9.41496,0.172899,-1.47242,-0.137478
0.824209,3.25339,-0.0255401,-496.392,1.48342,-0.110825,9.45681,0.179274,-1.47626,-0.143735
0.828209,3.2592,-0.0259876,-496.354,1.45263,-0.111871,9.49857,0.186211,-1.4801,-0.150554
0.83221,3.26489,-0.0264394,-496.316,1.42153,-0.112931,9.54025,0.193785,-1.48395,-0.158011
0.836211,3.27045,-0.0268955,-496.277,1.39012,-0.114005,9.58185,0.202082,-1.4878,-0.166192
0.840211,3.27589,-0.0273559,-496.239,1.35839,-0.115092,9.62333,0.211202,-1.49164,-0.175196
0.844211,3.28119,-0.0278207,-496.2,1.32633,-0.116195,9.66473,0.221271,-1.49548,-0.18515
0.848212,3.28637,-0.0282901,-496.161,1.29393,-0.117312,9.70603,0.23244,-1.49932,-0.196204
0.852213,3.29142,-0.028764,-496.122,1.26121,-0.118445,9.74723,0.244887,-1.50314,-0.208537
0.856213,3.29633,-0.0292423,-496.083,1.22816,-0.119592,9.78831,0.258832,-1.50696,-0.222367
0.860213,3.30111,-0.0297253,-496.044,1.19479,-0.120755,9.8293,0.274552,-1.51076,-0.237975
0.864214,3.30575,-0.0302132,-496.004,1.16108,-0.121933,9.87017,0.292397,-1.51454,-0.255706
0.868215,3.31026,-0.0307058,-495.965,1.12705,-0.123126,9.91094,0.312802,-1.51831,-0.275997
0.872215,3.31463,-0.0312032,-495.925,1.09271,-0.124334,9.95158,0.336323,-1.52205,-0.299405
0.876215,3.31886,-0.0317054,-495.885,1.05806,-0.125558,9.9921,0.363695,-1.52576,-0.326665
0.880216,3.32296,-0.0322127,-495.845,1.02309,-0.126796,10.0325,0.395895,-1.52942,-0.358753
0.884217,3.32691,-0.032725,-495.804,0.987827,-0.12805,10.0728,0.434212,-1.53304,-0.396958
0.888217,3.33072,-0.0332423,-495.764,0.952275,-0.129318,10.1129,0.480393,-1.53658,-0.443027
0.892217,3.33439,-0.0337647,-495.723,0.916436,-0.130601,10.153,0.536863,-1.54003,-0.499385
0.896218,3.33791,-0.0342924,-495.683,0.880306,-0.131898,10.1929,0.606979,-1.54337,-0.569389
0.900219,3.34128,-0.0348254,-495.642,0.843899,-0.133211,10.2326,0.695311,-1.54652,-0.65761
0.904219,3.34451,-0.0353635,-495.601,0.807227,-0.134537,10.2722,0.807883,-1.54944,-0.770071
0.908219,3.34759,-0.0359071,-495.559,0.77029,-0.135878,10.3117,0.951926,-1.55201,-0.914005
0.91222,3.35053,-0.0364561,-495.518,0.733082,-0.137233,10.351,1.13376,-1.55405,-1.09573
0.916221,3.35331,-0.0370107,-495.476,0.695615,-0.138603,10.3902,1.35337,-1.55541,-1.31523
0.920221,3.35594,-0.0375706,-495.435,0.657902,-0.139986,10.4293,1.59718,-1.55583,-1.55894
0.924221,3.35842,-0.0381362,-495.393,0.619938,-0.141383,10.4682,1.83902,-1.55529,-1.80068
0.928221,3.36075,-0.0387073,-495.351,0.581726,-0.142795,10.5069,2.05383,-1.55389,-2.01539
0.932222,3.36292,-0.0392844,-495.308,0.543258,-0.14422,10.5455,2.23028,-1.55178,-2.19172
0.936223,3.36494,-0.0398672,-495.266,0.504545,-0.14566,10.584,2.36962,-1.5492,-2.33096
0.940223,3.3668,-0.0404556,-495.224,0.465599,-0.147114,10.6223,2.47849,-1.5463,-2.43971
0.944223,3.36851,-0.0410499,-495.181,0.426409,-0.148582,10.6604,2.56402,-1.54318,-2.52514
0.948231,3.37006,-0.0416514,-495.138,0.3869,-0.150067,10.6984,2.6322,-1.53989,-2.59321
0.952232,3.37145,-0.0422578,-495.095,0.347218,-0.151564,10.7362,2.68716,-1.5365,-2.64806
0.956233,3.37268,-0.0428703,-495.052,0.307293,-0.153075,10.7739,2.73221,-1.53304,-2.69301
0.960233,3.37375,-0.0434887,-495.009,0.267138,-0.1546,10.8114,2.76968,-1.52952,-2.73036
0.964233,3.37465,-0.0441132,-494.965,0.226739,-0.156139,10.8487,2.80124,-1.52595,-2.76182
0.968234,3.3754,-0.0447441,-494.922,0.186088,-0.157693,10.8858,2.82816,-1.52235,-2.78863
0.972235,3.37598,-0.0453814,-494.878,0.145191,-0.159262,10.9228,2.85135,-1.51873,-2.81171
0.976235,3.3764,-0.0460247,-494.834,0.104059,-0.160845,10.9596,2.87151,-1.51508,-2.83177
0.980235,3.37665,-0.0466745,-494.79,0.0626831,-0.162443,10.9962,2.88919,-1.51142,-2.84934
0.984236,3.37673,-0.0473309,-494.746,0.0210485,-0.164056,11.0327,2.90482,-1.50774,-2.86486
0.988237,3.37665,-0.0479938,-494.702,-0.020834,-0.165684,11.069,2.91872,-1.50406,-2.87866
0.992237,3.3764,-0.0486631,-494.658,-0.0629568,-0.167326,11.1051,2.93116,-1.50036,-2.891
0.996237,3.37597,-0.049339,-494.613,-0.10533,-0.168983,11.141,2.94236,-1.49666,-2.90209
1.00024,3.37538,-0.0500218,-494.568,-0.147963,-0.170656,11.1768,2.9525,-1.49295,-2.91213
1.00424,3.37462,-0.0507114,-494.523,-0.190848,-0.172344,11.2123,2.96172,-1.48923,-2.92124
1.00824,3.37368,-0.0514078,-494.478,-0.233988,-0.174048,11.2477,2.97013,-1.48551,-2.92954
1.01224,3.37257,-0.0521108,-494.433,-0.27737,-0.175765,11.2829,2.97784,-1.48178,-2.93715
1.01624,3.37129,-0.052821,-494.388,-0.32102,-0.177499,11.3178,2.98493,-1.47805,-2.94414
1.02024,3.36983,-0.0535382,-494.343,-0.364925,-0.179248,11.3526,2.99148,-1.47432,-2.95058
1.02424,3.36819,-0.0542624,-494.297,-0.409084,-0.181012,11.3872,2.99754,-1.47059,-2.95654
1.02824,3.36638,-0.0549936,-494.251,-0.45349,-0.182791,11.4216,3.00316,-1.46685,-2.96206
1.03224,3.36438,-0.0557321,-494.205,-0.498162,-0.184585,11.4558,3.0084,-1.46311,-2.9672
1.03624,3.36221,-0.0564778,-494.159,-0.543093,-0.186395,11.4899,3.0133,-1.45937,-2.97198
1.04025,3.35986,-0.0572307,-494.113,-0.588269,-0.18822,11.5236,3.01787,-1.45562,-2.97646
1.04425,3.35732,-0.0579912,-494.067,-0.633713,-0.19006,11.5572,3.02216,-1.45188,-2.98064
1.04825,3.3546,-0.058759,-494.021,-0.679415,-0.191916,11.5906,3.02619,-1.44813,-2.98457
1.05225,3.3517,-0.0595344,-493.974,-0.725375,-0.193787,11.6238,3.02999,-1.44438,-2.98827
1.05625,3.34862,-0.060317,-493.928,-0.771583,-0.195672,11.6568,3.03357,-1.44063,-2.99174
1.06025,3.34534,-0.0611075,-493.881,-0.818058,-0.197573,11.6895,3.03696,-1.43688,-2.99503
1.06425,3.34188,-0.0619057,-493.834,-0.864791,-0.19949,11.7221,3.04016,-1.43312,-2.99813
1.06825,3.33824,-0.0627114,-493.787,-0.911765,-0.201421,11.7544,3.0432,-1.42937,-3.00106
1.07225,3.3344,-0.0635251,-493.74,-0.95901,-0.203367,11.7865,3.04608,-1.42561,-3.00384
1.07625,3.33037,-0.0643466,-493.693,-1.00651,-0.205328,11.8184,3.04882,-1.42186,-3.00648
1.08025,3.32615,-0.0651758,-493.645,-1.05425,-0.207304,11.85,3.05143,-1.4181,-3.00899
1.08425,3.32174,-0.0660132,-493.598,-1.10226,-0.209295,11.8814,3.05392,-1.41434,-3.01138
1.08825,3.31714,-0.0668586,-493.55,-1.15052,-0.211301,11.9126,3.0563,-1.41057,-3.01365
1.09225,3.31234,-0.0677121,-493.502,-1.19904,-0.213322,11.9436,3.05857,-1.40681,-3.01582
1.09626,3.30735,-0.0685735,-493.454,-1.2478,-0.215357,11.9743,3.06074,-1.40305,-3.01789
1.10026,3.30216,-0.0694434,-493.406,-1.29682,-0.217407,12.0048,3.06282,-1.39928,-3.01987
1.10426,3.29678,-0.0703215,-493.358,-1.3461,-0.219472,12.0351,3.06482,-1.39552,-3.02176
1.10826,3.2912,-0.0712077,-493.31,-1.39561,-0.22155,12.0651,3.06673,-1.39175,-3.02357
1.11226,3.28541,-0.0721025,-493.261,-1.44539,-0.223644,12.0949,3.06857,-1.38798,-3.02531
1.11626,3.27943,-0.0730057,-493.213,-1.49542,-0.225753,12.1244,3.07034,-1.38421,-3.02698
1.12026,3.27325,-0.0739174,-493.164,-1.5457,-0.227876,12.1537,3.07204,-1.38044,-3.02858
1.12426,3.26686,-0.0748375,-493.116,-1.59622,-0.230012,12.1827,3.07368,-1.37666,-3.03012
1.12826,3.26027,-0.0757664,-493.067,-1.647,-0.232164,12.2115,3.07526,-1.37289,-3.03159
1.13226,3.25348,-0.0767039,-493.018,-1.69802,-0.23433,12.24,3.07678,-1.36911,-3.03302
1.13626,3.24648,-0.07765,-492.969,-1.74928,-0.236509,12.2683,3.07825,-1.36534,-3.03438
1.14026,3.23927,-0.078605,-492.919,-1.8008,-0.238704,12.2963,3.07967,-1.36156,-3.0357
1.14426,3.23186,-0.0795689,-492.87,-1.85257,-0.240913,12.3241,3.08105,-1.35777,-3.03697
1.14826,3.22424,-0.0805414,-492.821,-1.90457,-0.243135,12.3516,3.08237,-1.35399,-3.0382
1.15227,3.21642,-0.0815232,-492.771,-1.95683,-0.245372,12.3788,3.08366,-1.35021,-3.03938
1.15627,3.20838,-0.0825139,-492.722,-2.00933,-0.247623,12.4058,3.0849,-1.34642,-3.04053
1.16027,3.20013,-0.0835137,-492.672,-2.06207,-0.249888,12.4325,3.08611,-1.34264,-3.04163
1.16427,3.19167,-0.0845224,-492.622,-2.11505,-0.252167,12.4589,3.08728,-1.33885,-3.0427
1.16827,3.18299,-0.0855405,-492.572,-2.16827,-0.25446,12.4851,3.08841,-1.33505,-3.04373
1.17227,3.1741,-0.0865678,-492.522,-2.22175,-0.256768,12.511,3.08951,-1.33126,-3.04473
1.17627,3.165,-0.0876042,-492.472,-2.27544,-0.259088,12.5366,3.09058,-1.32747,-3.04569
1.18027,3.15568,-0.0886501,-492.422,-2.32939,-0.261424,12.5619,3.09162,-1.32367,-3.04663
1.18427,3.14614,-0.0897055,-492.371,-2.38358,-0.263773,12.587,3.09263,-1.31987,-3.04753
1.18827,3.13639,-0.0907703,-492.321,-2.438,-0.266137,12.6117,3.09361,-1.31607,-3.04841
1.19227,3.12642,-0.0918443,-492.27,-2.49265,-0.268514,12.6362,3.09456,-1.31227,-3.04926
1.19627,3.11623,-0.0929282,-492.22,-2.54755,-0.270905,12.6604,3.09549,-1.30846,-3.05008
1.20027,3.10581,-0.0940217,-492.169,-2.60268,-0.273311,12.6843,3.09639,-1.30465,-3.05088
1.20427,3.09518,-0.0951247,-492.118,-2.65803,-0.27573,12.7079,3.09727,-1.30084,-3.05166
1.20828,3.08432,-0.0962376,-492.067,-2.71362,-0.278163,12.7312,3.09812,-1.29703,-3.05241
1.21228,3.07324,-0.0973603,-492.016,-2.76945,-0.280611,12.7542,3.09895,-1.29322,-3.05314
1.21628,3.06194,-0.0984926,-491.965,-2.82549,-0.283072,12.7769,3.09977,-1.2894,-3.05385
1.22028,3.05041,-0.0996351,-491.914,-2.88177,-0.285547,12.7993,3.10056,-1.28559,-3.05453
1.22428,3.03865,-0.100788,-491.862,-2.93829,-0.288037,12.8214,3.10133,-1.28176,-3.0552
1.22828,3.02667,-0.10195,-491.811,-2.99503,-0.290541,12.8432,3.10208,-1.27794,-3.05585
1.23228,3.01446,-0.103122,-491.76,-3.05198,-0.293059,12.8647,3.10282,-1.27412,-3.05648
1.23628,3.00202,-0.104305,-491.708,-3.10917,-0.295591,12.8859,3.10353,-1.27029,-3.05709
1.24028,2.98935,-0.105498,-491.656,-3.16658,-0.298137,12.9067,3.10423,-1.26646,-3.05769
1.24428,2.97646,-0.1067,-491.605,-3.2242,-0.300698,12.9273,3.10491,-1.26262,-3.05826
1.24828,2.96333,-0.107914,-491.553,-3.28205,-0.303272,12.9475,3.10558,-1.25879,-3.05882
1.25228,2.94996,-0.109138,-491.501,-3.34013,-0.305862,12.9674,3.10623,-1.25495,-3.05937
1.25628,2.93636,-0.110372,-491.449,-3.39841,-0.308465,12.987,3.10687,-1.25111,-3.0599
1.26028,2.92254,-0.111616,-491.397,-3.45691,-0.311083,13.0063,3.10749,-1.24727,-3.06042
1.26429,2.90847,-0.112871,-491.345,-3.51563,-0.313715,13.0252,3.1081,-1.24342,-3.06092
1.26829,2.89417,-0.114137,-491.293,-3.57457,-0.316362,13.0438,3.10869,-1.23958,-3.06141
1.27229,2.87963,-0.115413,-491.24,-3.6337,-0.319023,13.0621,3.10927,-1.23572,-3.06188
1.27629,2.86486,-0.1167,-491.188,-3.69305,-0.321699,13.0801,3.10984,-1.23187,-3.06234
1.28029,2.84984,-0.117998,-491.136,-3.75262,-0.32439,13.0977,3.1104,-1.22802,-3.06279
1.28429,2.83459,-0.119307,-491.083,-3.81238,-0.327094,13.115,3.11094,-1.22416,-3.06323
1.28829,2.8191,-0.120626,-491.031,-3.87236,-0.329814,13.1319,3.11147,-1.2203,-3.06365
1.29229,2.80337,-0.121957,-490.978,-3.93254,-0.332549,13.1485,3.112,-1.21643,-3.06407
1.29629,2.78739,-0.123298,-490.925,-3.99292,-0.335298,13.1648,3.11251,-1.21256,-3.06447
1.30029,2.77118,-0.12465,-490.873,-4.05348,-0.338062,13.1807,3.11301,-1.20869,-3.06486
1.30429,2.75472,-0.126014,-490.82,-4.11427,-0.340841,13.1962,3.1135,-1.20482,-3.06524
1.30829,2.73801,-0.127389,-490.767,-4.17525,-0.343635,13.2114,3.11398,-1.20095,-3.06561
1.31229,2.72107,-0.128775,-490.714,-4.23641,-0.346443,13.2263,3.11444,-1.19707,-3.06597
1.31629,2.70387,-0.130172,-490.661,-4.29778,-0.349266,13.2408,3.11491,-1.19319,-3.06633
1.3203,2.68643,-0.131581,-490.608,-4.35934,-0.352105,13.255,3.11536,-1.1893,-3.06667
1.3243,2.66874,-0.133001,-490.555,-4.42109,-0.354959,13.2688,3.1158,-1.18541,-3.067
1.3283,2.65081,-0.134432,-490.502,-4.48301,-0.357827,13.2822,3.11623,-1.18152,-3.06732
1.3323,2.63262,-0.135876,-490.449,-4.54514,-0.360711,13.2953,3.11666,-1.17763,-3.06764
1.3363,2.61419,-0.13733,-490.395,-4.60745,-0.36361,13.308,3.11708,-1.17374,-3.06795
1.3403,2.59551,-0.138797,-490.342,-4.66993,-0.366523,13.3203,3.11749,-1.16984,-3.06825
1.3443,2.57657,-0.140275,-490.289,-4.73261,-0.369452,13.3323,3.11789,-1.16594,-3.06854
1.3483,2.55739,-0.141765,-490.235,-4.79547,-0.372397,13.3439,3.11829,-1.16203,-3.06882
1.3523,2.53795,-0.143266,-490.182,-4.85848,-0.375356,13.3551,3.11867,-1.15812,-3.0691
1.3563,2.51826,-0.14478,-490.129,-4.92169,-0.37833,13.366,3.11905,-1.15421,-3.06937
1.3603,2.49832,-0.146306,-490.075,-4.98507,-0.38132,13.3765,3.11943,-1.1503,-3.06963
1.3643,2.47812,-0.147843,-490.021,-5.04862,-0.384325,13.3866,3.1198,-1.14638,-3.06988
1.3683,2.45767,-0.149393,-489.968,-5.11232,-0.387345,13.3963,3.12016,-1.14246,-3.07013
1.3723,2.43696,-0.150954,-489.914,-5.1762,-0.39038,13.4056,3.12051,-1.13854,-3.07038
1.3763,2.41599,-0.152529,-489.861,-5.24025,-0.393431,13.4146,3.12086,-1.13461,-3.07061
1.38031,2.39477,-0.154115,-489.807,-5.30444,-0.396496,13.4232,3.12121,-1.13068,-3.07084
1.38431,2.37329,-0.155713,-489.753,-5.36881,-0.399577,13.4313,3.12154,-1.12675,-3.07107
1.38831,2.35155,-0.157324,-489.699,-5.43334,-0.402673,13.4391,3.12188,-1.12281,-3.07128
1.39231,2.32956,-0.158948,-489.646,-5.49802,-0.405784,13.4465,3.1222,-1.11887,-3.0715
1.39631,2.3073,-0.160584,-489.592,-5.56285,-0.408909,13.4535,3.12253,-1.11493,-3.0717
1.40031,2.28479,-0.162232,-489.538,-5.62784,-0.41205,13.4601,3.12284,-1.11099,-3.07191
1.40431,2.26201,-0.163893,-489.484,-5.69297,-0.415207,13.4664,3.12316,-1.10704,-3.0721
1.40831,2.23898,-0.165567,-489.43,-5.75824,-0.418377,13.4722,3.12346,-1.10309,-3.0723
1.41231,2.21568,-0.167254,-489.376,-5.82367,-0.421563,13.4776,3.12377,-1.09913,-3.07248
1.41631,2.19211,-0.168953,-489.322,-5.88924,-0.424764,13.4826,3.12407,-1.09517,-3.07267
1.42031,2.16829,-0.170665,-489.268,-5.95495,-0.42798,13.4872,3.12436,-1.09121,-3.07285
1.42431,2.1442,-0.17239,-489.214,-6.02078,-0.43121,13.4914,3.12465,-1.08725,-3.07302
1.42831,2.11985,-0.174129,-489.16,-6.08675,-0.434456,13.4952,3.12494,-1.08328,-3.07319
1.43231,2.09523,-0.17588,-489.106,-6.15286,-0.437716,13.4986,3.12522,-1.07931,-3.07336
1.43632,2.07036,-0.177644,-489.052,-6.21909,-0.44099,13.5015,3.1255,-1.07534,-3.07352
1.44032,2.04521,-0.179421,-488.998,-6.28545,-0.444279,13.5041,3.12578,-1.07136,-3.07368
1.44432,2.0198,-0.181212,-488.944,-6.35194,-0.447582,13.5062,3.12605,-1.06738,-3.07383
1.44832,1.99412,-0.183016,-488.89,-6.41854,-0.4509,13.5079,3.12631,-1.06339,-3.07398
1.45232,1.96817,-0.184833,-488.836,-6.48527,-0.454232,13.5092,3.12658,-1.05941,-3.07413
1.45632,1.94196,-0.186664,-488.782,-6.55212,-0.457578,13.5101,3.12684,-1.05542,-3.07427
1.46032,1.91548,-0.188508,-488.728,-6.61908,-0.460939,13.5106,3.1271,-1.05142,-3.07441
1.46432,1.88873,-0.190365,-488.674,-6.68614,-0.464313,13.5106,3.12735,-1.04743,-3.07454
1.46832,1.86171,-0.192237,-488.62,-6.75332,-0.467702,13.5102,3.12761,-1.04343,-3.07468
1.47232,1.83442,-0.194121,-488.566,-6.82061,-0.471104,13.5094,3.12786,-1.03942,-3.07481
1.47632,1.80687,-0.19602,-488.512,-6.88798,-0.47452,13.5082,3.1281,-1.03542,-3.07493
1.48032,1.77904,-0.197932,-488.458,-6.95547,-0.47795,13.5065,3.12835,-1.03141,-3.07506
1.48432,1.75094,-0.199858,-488.404,-7.02306,-0.481393,13.5044,3.12859,-1.02739,-3.07518
1.48832,1.72257,-0.201798,-488.35,-7.09074,-0.484851,13.5018,3.12883,-1.02338,-3.0753
1.49233,1.69394,-0.203751,-488.296,-7.1585,-0.48832,13.4989,3.12906,-1.01936,-3.07541
1.49633,1.66503,-0.205719,-488.242,-7.22636,-0.491804,13.4955,3.12929,-1.01533,-3.07552
1.50033,1.63584,-0.2077,-488.188,-7.29431,-0.495301,13.4916,3.12952,-1.01131,-3.07563
1.50433,1.60639,-0.209696,-488.134,-7.36232,-0.49881,13.4874,3.12975,-1.00728,-3.07574
1.50833,1.57666,-0.211706,-488.08,-7.43043,-0.502333,13.4826,3.12998,-1.00325,-3.07584
1.51233,1.54665,-0.213731,-488.026,-7.49865,-0.505871,13.4775,3.1302,-0.999207,-3.07595
1.51633,1.51638,-0.215768,-487.972,-7.5669,-0.509419,13.4719,3.13042,-0.995169,-3.07604
1.52033,1.48583,-0.217821,-487.918,-7.63523,-0.51298,13.4658,3.13064,-0.991126,-3.07614
1.52433,1.45501,-0.219887,-487.864,-7.70363,-0.516554,13.4593,3.13086,-0.98708,-3.07624
1.52833,1.42392,-0.221968,-487.81,-7.77208,-0.520139,13.4524,3.13108,-0.983032,-3.07633
1.53233,1.39255,-0.224063,-487.757,-7.84061,-0.523738,13.445,3.13129,-0.978979,-3.07642
1.53633,1.3609,-0.226173,-487.703,-7.9092,-0.527349,13.4372,3.1315,-0.974924,-3.0765
1.54034,1.32899,-0.228297,-487.649,-7.97783,-0.530971,13.4289,3.13171,-0.970866,-3.07659
1.54434,1.2968,-0.230436,-487.596,-8.04652,-0.534606,13.4201,3.13192,-0.966804,-3.07667
1.54834,1.26433,-0.23259,-487.542,-8.11528,-0.538253,13.411,3.13212,-0.962739,-3.07675
1.55234,1.23159,-0.234757,-487.488,-8.18406,-0.541911,13.4013,3.13233,-0.958671,-3.07683
1.55634,1.19857,-0.23694,-487.435,-8.25289,-0.545581,13.3912,3.13253,-0.954599,-3.07691
1.56034,1.16528,-0.239138,-487.381,-8.32177,-0.549263,13.3807,3.13273,-0.950524,-3.07698
1.56434,1.13171,-0.24135,-487.328,-8.39068,-0.552957,13.3697,3.13293,-0.946446,-3.07705
1.56834,1.09787,-0.243577,-487.274,-8.45961,-0.55666,13.3582,3.13312,-0.942365,-3.07713
1.57234,1.06375,-0.245819,-487.221,-8.52859,-0.560376,13.3463,3.13332,-0.938281,-3.07719
1.57634,1.02935,-0.248076,-487.167,-8.5976,-0.564104,13.3339,3.13351,-0.934193,-3.07726
1.58034,0.99468,-0.250347,-487.114,-8.66662,-0.567841,13.3211,3.1337,-0.930103,-3.07732
1.58434,0.959728,-0.252634,-487.061,-8.73567,-0.57159,13.3078,3.13389,-0.926009,-3.07739
1.58834,0.9245,-0.254936,-487.008,-8.80474,-0.57535,13.294,3.13408,-0.921912,-3.07745
1.59234,0.888996,-0.257253,-486.955,-8.87382,-0.579121,13.2798,3.13427,-0.917812,-3.07751
1.59635,0.853225,-0.259585,-486.902,-8.94289,-0.582901,13.2651,3.13445,-0.913709,-3.07756
1.60035,0.817168,-0.261932,-486.849,-9.012,-0.586693,13.2499,3.13464,-0.909603,-3.07762
1.60435,0.780834,-0.264295,-486.796,-9.08111,-0.590495,13.2343,3.13482,-0.905493,-3.07767
1.60835,0.744233,-0.266672,-486.743,-9.1502,-0.594306,13.2183,3.135,-0.901381,-3.07772
1.61235,0.707347,-0.269065,-486.69,-9.21931,-0.598129,13.2017,3.13518,-0.897265,-3.07777
1.61635,0.670184,-0.271474,-486.637,-9.28841,-0.601961,13.1847,3.13536,-0.893147,-3.07782
1.62035,0.632754,-0.273897,-486.584,-9.35748,-0.605803,13.1672,3.13554,-0.889026,-3.07786
1.62435,0.595038,-0.276336,-486.532,-9.42656,-0.609656,13.1493,3.13571,-0.884901,-3.07791
1.62835,0.557046,-0.278791,-486.479,-9.49562,-0.613518,13.1309,3.13589,-0.880772,-3.07795
1.63235,0.518778,-0.281261,-486.427,-9.56466,-0.617389,13.112,3.13606,-0.876641,-3.07799
1.63635,0.480244,-0.283746,-486.374,-9.63365,-0.62127,13.0926,3.13623,-0.872508,-3.07803
1.64035,0.441423,-0.286247,-486.322,-9.70263,-0.62516,13.0728,3.1364,-0.868371,-3.07807
1.64435,0.402327,-0.288764,-486.27,-9.77159,-0.62906,13.0525,3.13657,-0.864231,-3.0781
1.64835,0.362965,-0.291296,-486.218,-9.8405,-0.632968,13.0317,3.13674,-0.860089,-3.07814
1.65236,0.323318,-0.293844,-486.166,-9.90939,-0.636886,13.0105,3.1369,-0.855943,-3.07817
1.65636,0.283395,-0.296408,-486.114,-9.97823,-0.640813,12.9888,3.13707,-0.851794,-3.0782
1.66036,0.243197,-0.298988,-486.062,-10.047,-0.644749,12.9666,3.13723,-0.847642,-3.07823
1.66436,0.202733,-0.301582,-486.01,-10.1158,-0.648693,12.944,3.1374,-0.843488,-3.07826
1.66836,0.161985,-0.304194,-485.958,-10.1845,-0.652647,12.9208,3.13756,-0.83933,-3.07829
1.67236,0.120963,-0.306821,-485.907,-10.2531,-0.656609,12.8972,3.13772,-0.835169,-3.07831
1.67636,0.0796759,-0.309463,-485.855,-10.3217,-0.660578,12.8732,3.13788,-0.831007,-3.07833
1.68036,0.0381047,-0.312122,-485.804,-10.3902,-0.664556,12.8486,3.13804,-0.82684,-3.07836
1.68436,-0.00374051,-0.314797,-485.753,-10.4587,-0.668543,12.8236,3.1382,-0.822671,-3.07838
1.68836,-0.0458487,-0.317487,-485.701,-10.527,-0.672537,12.7981,3.13835,-0.818499,-3.0784
1.69236,-0.0882407,-0.320194,-485.65,-10.5954,-0.676539,12.7722,3.13851,-0.814324,-3.07841
1.69636,-0.130906,-0.322917,-485.599,-10.6636,-0.68055,12.7457,3.13866,-0.810147,-3.07843
1.70036,-0.173844,-0.325656,-485.548,-10.7318,-0.684568,12.7188,3.13882,-0.805966,-3.07844
1.70436,-0.217043,-0.32841,-485.498,-10.7998,-0.688593,12.6914,3.13897,-0.801784,-3.07846
1.70837,-0.260525,-0.331181,-485.447,-10.8678,-0.692626,12.6636,3.13912,-0.797597,-3.07847
1.71237,-0.304279,-0.333969,-485.396,-10.9357,-0.696666,12.6353,3.13927,-0.793409,-3.07848
1.71637,-0.348292,-0.336771,-485.346,-11.0035,-0.700712,12.6065,3.13942,-0.789218,-3.07849
1.72037,-0.392588,-0.339591,-485.296,-11.0712,-0.704767,12.5772,3.13957,-0.785024,-3.0785
1.72437,-0.437154,-0.342427,-485.246,-11.1388,-0.708828,12.5474,3.13972,-0.780826,-3.0785
1.72837,-0.481991,-0.34528,-485.195,-11.2062,-0.712896,12.5172,3.13987,-0.776626,-3.07851
1.73237,-0.527085,-0.348147,-485.145,-11.2736,-0.71697,12.4865,3.14002,-0.772425,-3.07851
1.73637,-0.57246,-0.351032,-485.096,-11.3409,-0.721051,12.4554,3.14016,-0.76822,-3.07851
1.74037,-0.618103,-0.353934,-485.046,-11.408,-0.725138,12.4237,3.14031,-0.764012,-3.07852
1.74437,-0.664003,-0.356851,-484.996,-11.475,-0.729231,12.3916,3.14045,-0.759803,-3.07852
1.74837,-0.710183,-0.359785,-484.947,-11.5419,-0.73333,12.3591,3.1406,-0.75559,-3.07852
1.75237,-0.756629,-0.362735,-484.898,-11.6087,-0.737436,12.326,3.14074,-0.751375,-3.07851
1.75637,-0.80333,-0.365701,-484.848,-11.6753,-0.741546,12.2925,3.14088,-0.747158,-3.07851
1.76037,-0.850309,-0.368685,-484.799,-11.7418,-0.745662,12.2585,3.14102,-0.742937,-3.07851
1.76438,-0.897553,-0.371685,-484.75,-11.8081,-0.749784,12.2241,3.14117,-0.738715,-3.0785
1.76838,-0.945062,-0.374701,-484.702,-11.8743,-0.753911,12.1891,3.14131,-0.734489,-3.07849
1.77238,-0.992824,-0.377733,-484.653,-11.9404,-0.758042,12.1538,3.14145,-0.730262,-3.07849
1.77638,-1.04086,-0.380783,-484.605,-12.0063,-0.76218,12.1179,3.14158,-0.726032,-3.07848
1.78038,-1.08916,-0.383849,-484.556,-12.072,-0.766322,12.0816,-3.14146,-0.721799,-3.07847
1.78438,-1.13771,-0.386931,-484.508,-12.1376,-0.770467,12.0448,-3.14132,-0.717565,-3.07846
1.78838,-1.18654,-0.39003,-484.46,-12.203,-0.774618,12.0076,-3.14119,-0.713328,-3.07844
1.79238,-1.23562,-0.393146,-484.412,-12.2683,-0.778773,11.9699,-3.14105,-0.709088,-3.07843
1.79638,-1.28497,-0.396278,-484.364,-12.3334,-0.782933,11.9317,-3.14091,-0.704845,-3.07842
1.80038,-1.33456,-0.399427,-484.317,-12.3983,-0.787095,11.8931,-3.14078,-0.700602,-3.0784
1.80438,-1.38443,-0.402592,-484.269,-12.463,-0.791262,11.854,-3.14064,-0.696355,-3.07838
1.80838,-1.43455,-0.405775,-484.222,-12.5276,-0.795433,11.8144,-3.14051,-0.692106,-3.07837
1.81238,-1.48492,-0.408973,-484.175,-12.592,-0.799606,11.7744,-3.14038,-0.687856,-3.07835
1.81638,-1.53555,-0.412189,-484.128,-12.6561,-0.803783,11.7339,-3.14024,-0.683602,-3.07833
1.82039,-1.58645,-0.415422,-484.081,-12.7201,-0.807964,11.693,-3.14011,-0.679347,-3.07831
1.82439,-1.6376,-0.418671,-484.035,-12.7839,-0.812147,11.6516,-3.13998,-0.675089,-3.07829
1.82839,-1.68899,-0.421937,-483.988,-12.8475,-0.816332,11.6098,-3.13984,-0.670829,-3.07827
1.83239,-1.74064,-0.42522,-483.942,-12.9109,-0.820521,11.5675,-3.13971,-0.666567,-3.07824
1.83639,-1.79255,-0.428519,-483.896,-12.9741,-0.824712,11.5248,-3.13958,-0.662303,-3.07822
1.84039,-1.8447,-0.431835,-483.85,-13.037,-0.828904,11.4816,-3.13945,-0.658038,-3.07819
1.84439,-1.89711,-0.435168,-483.804,-13.0998,-0.833099,11.438,-3.13932,-0.65377,-3.07817
1.84839,-1.94977,-0.438518,-483.759,-13.1623,-0.837295,11.3939,-3.13919,-0.649499,-3.07814
1.85239,-2.00267,-0.441884,-483.713,-13.2246,-0.841493,11.3494,-3.13906,-0.645228,-3.07811
1.85639,-2.05583,-0.445268,-483.668,-13.2866,-0.845692,11.3044,-3.13893,-0.640953,-3.07808
1.86039,-2.10924,-0.448668,-483.623,-13.3485,-0.849894,11.259,-3.1388,-0.636677,-3.07806
1.86439,-2.16289,-0.452085,-483.578,-13.4101,-0.854096,11.2131,-3.13867,-0.632398,-3.07803
1.86839,-2.21678,-0.455519,-483.533,-13.4715,-0.858298,11.1668,-3.13854,-0.62812,-3.07799
1.87239,-2.27092,-0.458969,-483.489,-13.5326,-0.862502,11.1201,-3.13842,-0.623837,-3.07796
1.87639,-2.32531,-0.462437,-483.445,-13.5935,-0.866706,11.0729,-3.13829,-0.619554,-3.07793
1.8804,-2.37993,-0.465921,-483.4,-13.6541,-0.87091,11.0253,-3.13816,-0.615269,-3.07789
1.8844,-2.4348,-0.469422,-483.357,-13.7145,-0.875115,10.9773,-3.13803,-0.610981,-3.07786
1.8884,-2.48991,-0.47294,-483.313,-13.7747,-0.87932,10.9288,-3.13791,-0.606692,-3.07782
1.8924,-2.54526,-0.476475,-483.269,-13.8345,-0.883524,10.8799,-3.13778,-0.602401,-3.07779
1.8964,-2.60084,-0.480026,-483.226,-13.8941,-0.887727,10.8306,-3.13765,-0.598109,-3.07775
1.9004,-2.65667,-0.483595,-483.183,-13.9535,-0.891931,10.7808,-3.13753,-0.593815,-3.07771
1.9044,-2.71273,-0.48718,-483.14,-14.0125,-0.896134,10.7306,-3.1374,-0.589519,-3.07767
1.9084,-2.76902,-0.490782,-483.097,-14.0713,-0.900335,10.68,-3.13728,-0.585222,-3.07763
1.9124,-2.82555,-0.494401,-483.055,-14.1298,-0.904536,10.629,-3.13715,-0.580922,-3.07759
1.9164,-2.88232,-0.498036,-483.012,-14.1881,-0.908735,10.5776,-3.13703,-0.576622,-3.07755
1.9204,-2.9393,-0.501688,-482.97,-14.246,-0.912932,10.5257,-3.1369,-0.57232,-3.07751
1.9244,-2.99653,-0.505358,-482.928,-14.3037,-0.917128,10.4734,-3.13678,-0.568016,-3.07747
1.9284,-3.05399,-0.509044,-482.887,-14.3611,-0.921322,10.4208,-3.13665,-0.563711,-3.07742
1.9324,-3.11168,-0.512747,-482.845,-14.4182,-0.925514,10.3677,-3.13653,-0.559403,-3.07738
1.93641,-3.16958,-0.516466,-482.804,-14.4749,-0.929703,10.3142,-3.13641,-0.555096,-3.07733
1.94041,-3.22772,-0.520202,-482.763,-14.5314,-0.933891,10.2603,-3.13628,-0.550786,-3.07729
1.94441,-3.28608,-0.523955,-482.722,-14.5876,-0.938075,10.206,-3.13616,-0.546475,-3.07724
1.94841,-3.34465,-0.527724,-482.681,-14.6434,-0.942256,10.1513,-3.13604,-0.542163,-3.07719
1.95241,-3.40347,-0.531511,-482.641,-14.699,-0.946435,10.0961,-3.13591,-0.537849,-3.07714
1.95641,-3.4625,-0.535314,-482.601,-14.7542,-0.950611,10.0406,-3.13579,-0.533534,-3.07709
1.96041,-3.52175,-0.539135,-482.561,-14.8091,-0.954782,9.98471,-3.13567,-0.529217,-3.07704
1.96441,-3.5812,-0.54297,-482.521,-14.8637,-0.95895,9.92843,-3.13555,-0.5249,-3.07699
1.96841,-3.64089,-0.546824,-482.482,-14.918,-0.963115,9.87173,-3.13542,-0.520581,-3.07694
1.97241,-3.70079,-0.550694,-482.442,-14.9719,-0.967276,9.81466,-3.1353,-0.516261,-3.07689
1.97641,-3.76089,-0.55458,-482.403,-15.0255,-0.971431,9.75721,-3.13518,-0.51194,-3.07684
1.98041,-3.82122,-0.558483,-482.365,-15.0788,-0.975583,9.69938,-3.13506,-0.507618,-3.07678
1.98441,-3.88177,-0.562403,-482.326,-15.1317,-0.979731,9.64116,-3.13493,-0.503294,-3.07673
1.98841,-3.9425,-0.566338,-482.288,-15.1843,-0.983873,9.58257,-3.13481,-0.49897,-3.07667
1.99242,-4.00347,-0.570291,-482.25,-15.2365,-0.988011,9.52361,-3.13469,-0.494644,-3.07661
1.99642,-4.06463,-0.574261,-482.212,-15.2884,-0.992144,9.46426,-3.13457,-0.490318,-3.07656
2.00042,-4.12601,-0.578247,-482.174,-15.34,-0.996272,9.40455,-3.13445,-0.48599,-3.0765
2.00442,-4.18757,-0.582249,-482.137,-15.3911,-1.00039,9.34449,-3.13433,-0.481662,-3.07644
2.00842,-4.24934,-0.586267,-482.099,-15.442,-1.00451,9.28407,-3.13421,-0.477334,-3.07638
2.01242,-4.31133,-0.590302,-482.063,-15.4924,-1.00862,9.22327,-3.13409,-0.473003,-3.07632
2.01642,-4.3735,-0.594353,-482.026,-15.5425,-1.01272,9.16213,-3.13396,-0.468673,-3.07626
2.02042,-4.43587,-0.59842,-481.99,-15.5923,-1.01682,9.10064,-3.13384,-0.464342,-3.0762
2.02442,-4.49843,-0.602504,-481.953,-15.6416,-1.02091,9.03879,-3.13372,-0.46001,-3.07614
2.02842,-4.56121,-0.606605,-481.917,-15.6906,-1.025,8.97659,-3.1336,-0.455676,-3.07607
2.03242,-4.62417,-0.610721,-481.882,-15.7392,-1.02908,8.91405,-3.13348,-0.451343,-3.07601
2.03642,-4.68732,-0.614854,-481.846,-15.7875,-1.03315,8.85118,-3.13336,-0.447009,-3.07594
2.04042,-4.75067,-0.619004,-481.811,-15.8353,-1.03721,8.78793,-3.13324,-0.442673,-3.07588
2.04442,-4.81422,-0.62317,-481.776,-15.8828,-1.04127,8.72436,-3.13312,-0.438337,-3.07581
2.04842,-4.87794,-0.627351,-481.742,-15.9299,-1.04532,8.66047,-3.133,-0.434,-3.07575
2.05242,-4.94186,-0.631549,-481.707,-15.9766,-1.04936,8.59624,-3.13288,-0.429663,-3.07568
2.05642,-5.00597,-0.635764,-481.673,-16.0229,-1.05339,8.53167,-3.13276,-0.425325,-3.07561
2.06042,-5.07025,-0.639994,-481.639,-16.0688,-1.05742,8.4668,-3.13264,-0.420987,-3.07554
2.06442,-5.13472,-0.644241,-481.606,-16.1143,-1.06144,8.40159,-3.13252,-0.416648,-3.07547
2.06842,-5.19936,-0.648502,-481.572,-16.1594,-1.06544,8.33609,-3.1324,-0.41231,-3.0754
2.07242,-5.26417,-0.65278,-481.539,-16.2041,-1.06944,8.27026,-3.13227,-0.407971,-3.07533
2.07642,-5.32917,-0.657074,-481.506,-16.2484,-1.07343,8.20414,-3.13215,-0.403632,-3.07526
2.08043,-5.39435,-0.661385,-481.474,-16.2922,-1.07742,8.13768,-3.13203,-0.399291,-3.07518
2.08442,-5.45969,-0.66571,-481.442,-16.3357,-1.08139,8.07093,-3.13191,-0.394951,-3.07511
2.08842,-5.52521,-0.670052,-481.41,-16.3788,-1.08535,8.00389,-3.13179,-0.390611,-3.07504
2.09243,-5.5909,-0.674409,-481.378,-16.4214,-1.08931,7.93655,-3.13167,-0.38627,-3.07496
2.09643,-5.65677,-0.678783,-481.346,-16.4636,-1.09325,7.8689,-3.13155,-0.381928,-3.07488
2.10043,-5.72279,-0.683172,-481.315,-16.5054,-1.09719,7.80097,-3.13143,-0.377587,-3.07481
2.10443,-5.78897,-0.687576,-481.284,-16.5468,-1.10111,7.73276,-3.13131,-0.373246,-3.07473
2.10843,-5.85534,-0.691997,-481.254,-16.5877,-1.10502,7.66425,-3.13119,-0.368904,-3.07465
2.11243,-5.92187,-0.696434,-481.223,-16.6283,-1.10893,7.59546,-3.13107,-0.364562,-3.07457
2.11643,-5.98855,-0.700885,-481.193,-16.6684,-1.11282,7.5264,-3.13095,-0.36022,-3.0745
2.12043,-6.05539,-0.705353,-481.163,-16.708,-1.1167,7.45707,-3.13082,-0.355878,-3.07442
2.12443,-6.12238,-0.709836,-481.134,-16.7472,-1.12057,7.38747,-3.1307,-0.351536,-3.07433
2.12843,-6.18953,-0.714333,-481.104,-16.786,-1.12443,7.31761,-3.13058,-0.347195,-3.07425
2.13243,-6.25682,-0.718846,-481.075,-16.8243,-1.12828,7.24748,-3.13046,-0.342854,-3.07417
2.13643,-6.32429,-0.723376,-481.047,-16.8622,-1.13212,7.17709,-3.13034,-0.338512,-3.07409
2.14043,-6.39189,-0.72792,-481.018,-16.8996,-1.13594,7.10645,-3.13022,-0.334171,-3.074
2.14443,-6.45964,-0.732479,-480.99,-16.9367,-1.13975,7.03557,-3.1301,-0.32983,-3.07392
2.14843,-6.52753,-0.737053,-480.962,-16.9732,-1.14355,6.96444,-3.12997,-0.32549,-3.07384
2.15243,-6.59558,-0.741644,-480.935,-17.0093,-1.14734,6.89304,-3.12985,-0.321148,-3.07375
2.15643,-6.66376,-0.746248,-480.907,-17.0449,-1.15112,6.82143,-3.12973,-0.316808,-3.07366
2.16043,-6.73208,-0.750868,-480.88,-17.0801,-1.15488,6.74958,-3.12961,-0.312468,-3.07358
2.16443,-6.80056,-0.755503,-480.854,-17.1149,-1.15863,6.67748,-3.12949,-0.308128,-3.07349
2.16843,-6.86917,-0.760154,-480.827,-17.1491,-1.16237,6.60515,-3.12936,-0.303788,-3.0734
2.17243,-6.9379,-0.764818,-480.801,-17.1829,-1.16609,6.53261,-3.12924,-0.29945,-3.07331
2.17643,-7.00679,-0.769499,-480.775,-17.2163,-1.1698,6.45984,-3.12912,-0.29511,-3.07322
2.18043,-7.0758,-0.774194,-480.75,-17.2492,-1.1735,6.38685,-3.12899,-0.290772,-3.07313
2.18444,-7.14493,-0.778903,-480.724,-17.2816,-1.17718,6.31366,-3.12887,-0.286435,-3.07304
2.18844,-7.2142,-0.783627,-480.699,-17.3136,-1.18085,6.24025,-3.12875,-0.282097,-3.07295
2.19244,-7.28358,-0.788365,-480.675,-17.345,-1.18451,6.16666,-3.12862,-0.277762,-3.07285
2.19644,-7.35308,-0.793118,-480.65,-17.376,-1.18815,6.09286,-3.1285,-0.273426,-3.07276
2.20044,-7.42271,-0.797885,-480.626,-17.4066,-1.19178,6.01888,-3.12838,-0.269092,-3.07267
2.20444,-7.49247,-0.802668,-480.603,-17.4366,-1.19539,5.94467,-3.12825,-0.264757,-3.07257
2.20844,-7.56234,-0.807464,-480.579,-17.4662,-1.19899,5.8703,-3.12813,-0.260424,-3.07248
2.21244,-7.63232,-0.812274,-480.556,-17.4953,-1.20257,5.79574,-3.128,-0.256091,-3.07238
2.21644,-7.70243,-0.8171,-480.533,-17.524,-1.20614,5.72099,-3.12788,-0.251759,-3.07228
2.22044,-7.77266,-0.82194,-480.51,-17.5521,-1.20969,5.64605,-3.12776,-0.247427,-3.07218
2.22444,-7.84298,-0.826793,-480.488,-17.5798,-1.21323,5.57096,-3.12763,-0.243097,-3.07209
2.22844,-7.91342,-0.831661,-480.466,-17.607,-1.21675,5.49569,-3.12751,-0.238767,-3.07199
2.23244,-7.98398,-0.836543,-480.444,-17.6337,-1.22025,5.42025,-3.12738,-0.234438,-3.07189
2.23644,-8.05462,-0.841438,-480.423,-17.6599,-1.22374,5.34467,-3.12725,-0.230111,-3.07179
2.24044,-8.12537,-0.846348,-480.402,-17.6856,-1.22722,5.26891,-3.12713,-0.225784,-3.07168
2.24444,-8.19622,-0.851271,-480.381,-17.7108,-1.23068,5.19303,-3.127,-0.22146,-3.07158
2.24844,-8.26716,-0.856207,-480.361,-17.7356,-1.23412,5.117,-3.12688,-0.217136,-3.07148
2.25244,-8.3382,-0.861157,-480.341,-17.7598,-1.23754,5.04081,-3.12675,-0.212813,-3.07138
2.25644,-8.40935,-0.866122,-480.321,-17.7836,-1.24095,4.96448,-3.12662,-0.208491,-3.07127
2.26044,-8.48058,-0.8711,-480.301,-17.8069,-1.24434,4.88803,-3.1265,-0.20417,-3.07117
2.26444,-8.5519,-0.876091,-480.282,-17.8296,-1.24772,4.81144,-3.12637,-0.199851,-3.07106
2.26844,-8.6233,-0.881095,-480.263,-17.8519,-1.25107,4.73473,-3.12624,-0.195533,-3.07095
2.27244,-8.69482,-0.886114,-480.244,-17.8737,-1.25441,4.65788,-3.12611,-0.191216,-3.07085
2.27644,-8.7664,-0.891145,-480.226,-17.895,-1.25774,4.58093,-3.12598,-0.186901,-3.07074
2.28044,-8.83806,-0.896189,-480.208,-17.9158,-1.26104,4.50386,-3.12586,-0.182587,-3.07063
2.28445,-8.90982,-0.901248,-480.19,-17.9361,-1.26433,4.42666,-3.12573,-0.178273,-3.07052
2.28845,-8.98166,-0.906319,-480.173,-17.9559,-1.2676,4.34936,-3.1256,-0.173961,-3.07041
2.29245,-9.05356,-0.911403,-480.156,-17.9752,-1.27085,4.27198,-3.12547,-0.169652,-3.0703
2.29645,-9.12556,-0.9165,-480.139,-17.994,-1.27409,4.19448,-3.12534,-0.165343,-3.07019
2.30045,-9.19761,-0.921609,-480.123,-18.0123,-1.2773,4.11691,-3.12521,-0.161037,-3.07007
2.30445,-9.26973,-0.926731,-480.106,-18.0301,-1.2805,4.03925,-3.12508,-0.156732,-3.06996
2.30845,-9.34192,-0.931866,-480.091,-18.0474,-1.28368,3.96151,-3.12495,-0.152429,-3.06985
2.31245,-9.41419,-0.937015,-480.075,-18.0641,-1.28684,3.88366,-3.12482,-0.148126,-3.06973
2.31645,-9.48651,-0.942175,-480.06,-18.0804,-1.28998,3.80576,-3.12469,-0.143827,-3.06962
2.32045,-9.5589,-0.947347,-480.045,-18.0962,-1.2931,3.72779,-3.12455,-0.139529,-3.0695
2.32445,-9.63134,-0.952532,-480.03,-18.1115,-1.29621,3.64975,-3.12442,-0.135232,-3.06938
2.32845,-9.70387,-0.95773,-480.016,-18.1263,-1.29929,3.57163,-3.12429,-0.130937,-3.06927
2.33245,-9.77643,-0.96294,-480.002,-18.1405,-1.30236,3.49347,-3.12416,-0.126644,-3.06915
2.33645,-9.84905,-0.968161,-479.988,-18.1543,-1.3054,3.41526,-3.12402,-0.122353,-3.06903
2.34045,-9.92173,-0.973396,-479.975,-18.1676,-1.30843,3.33697,-3.12389,-0.118064,-3.06891
2.34445,-9.99447,-0.978643,-479.962,-18.1803,-1.31144,3.25864,-3.12376,-0.113776,-3.06879
2.34845,-10.0672,-0.983901,-479.949,-18.1926,-1.31442,3.18029,-3.12362,-0.109491,-3.06866
2.35245,-10.1401,-0.989172,-479.937,-18.2044,-1.31739,3.10188,-3.12349,-0.105207,-3.06854
2.35645,-10.213,-0.994455,-479.925,-18.2156,-1.32034,3.02344,-3.12335,-0.100925,-3.06842
2.36045,-10.2859,-0.999748,-479.913,-18.2263,-1.32327,2.94499,-3.12322,-0.0966465,-3.06829
2.36445,-10.3588,-1.00505,-479.901,-18.2366,-1.32617,2.86649,-3.12308,-0.0923688,-3.06817
2.36845,-10.4318,-1.01037,-479.89,-18.2463,-1.32906,2.78799,-3.12295,-0.0880945,-3.06804
2.37245,-10.5048,-1.0157,-479.88,-18.2555,-1.33193,2.70948,-3.12281,-0.0838224,-3.06792
2.37645,-10.5779,-1.02104,-479.869,-18.2642,-1.33477,2.63096,-3.12268,-0.0795525,-3.06779
2.38046,-10.651,-1.02639,-479.859,-18.2725,-1.3376,2.5524,-3.12254,-0.0752838,-3.06766
2.38445,-10.7241,-1.03175,-479.849,-18.2802,-1.3404,2.47387,-3.1224,-0.0710185,-3.06753
2.38846,-10.7973,-1.03712,-479.839,-18.2874,-1.34319,2.39534,-3.12226,-0.0667556,-3.0674
2.39246,-10.8705,-1.04251,-479.83,-18.2941,-1.34595,2.31679,-3.12212,-0.0624939,-3.06727
2.39646,-10.9438,-1.04791,-479.821,-18.3003,-1.3487,2.23812,-3.12199,-0.0582273,-3.06714
2.40046,-11.017,-1.05332,-479.812,-18.306,-1.35142,2.15962,-3.12185,-0.0539716,-3.06701
2.40446,-11.0903,-1.05874,-479.804,-18.3113,-1.35412,2.08111,-3.12171,-0.0497174,-3.06688
2.40847,-11.1636,-1.06416,-479.796,-18.3159,-1.3568,2.00265,-3.12157,-0.0454667,-3.06674
2.41247,-11.2369,-1.0696,-479.788,-18.3202,-1.35945,1.92419,-3.12143,-0.0412176,-3.06661
2.41647,-11.3102,-1.07505,-479.781,-18.3238,-1.36209,1.84576,-3.12128,-0.036971,-3.06647
2.42047,-11.3835,-1.08051,-479.774,-18.327,-1.3647,1.76739,-3.12114,-0.0327281,-3.06634
2.42447,-11.4568,-1.08598,-479.767,-18.3297,-1.3673,1.68904,-3.121,-0.0284869,-3.0662
2.42847,-11.5302,-1.09146,-479.761,-18.3319,-1.36987,1.61073,-3.12086,-0.0242484,-3.06606
2.43247,-11.6035,-1.09695,-479.755,-18.3336,-1.37242,1.53248,-3.12072,-0.0200137,-3.06592
2.43647,-11.6769,-1.10245,-479.749,-18.3348,-1.37494,1.45427,-3.12057,-0.0157807,-3.06578
2.44047,-11.7502,-1.10796,-479.743,-18.3355,-1.37745,1.37614,-3.12043,-0.0115516,-3.06564
2.44447,-11.8235,-1.11348,-479.738,-18.3358,-1.37993,1.29806,-3.12028,-0.00732531,-3.0655
2.44847,-11.8969,-1.11901,-479.733,-18.3355,-1.38239,1.22005,-3.12014,-0.00310195,-3.06536
2.45247,-11.9702,-1.12455,-479.729,-18.3347,-1.38483,1.14209,-3.11999,0.00111954,-3.06522
2.45647,-12.0436,-1.1301,-479.724,-18.3334,-1.38724,1.06421,-3.11985,0.005337,-3.06507
2.46047,-12.1169,-1.13566,-479.72,-18.3317,-1.38964,0.986416,-3.1197,0.00955147,-3.06493
2.46447,-12.1902,-1.14123,-479.717,-18.3294,-1.39201,0.90868,-3.11955,0.013764,-3.06478
2.46847,-12.2636,-1.14681,-479.714,-18.3267,-1.39436,0.831028,-3.11941,0.0179734,-3.06464
2.47247,-12.3369,-1.1524,-479.71,-18.3234,-1.39668,0.753485,-3.11926,0.0221786,-3.06449
2.47647,-12.4102,-1.15799,-479.708,-18.3197,-1.39899,0.676013,-3.11911,0.0263818,-3.06434
2.48047,-12.4834,-1.1636,-479.705,-18.3155,-1.40127,0.598638,-3.11896,0.0305817,-3.06419
2.48448,-12.5567,-1.16921,-479.703,-18.3108,-1.40353,0.521384,-3.11881,0.0347775,-3.06404
2.48848,-12.6299,-1.17484,-479.702,-18.3056,-1.40576,0.444213,-3.11866,0.038971,-3.06389
2.49248,-12.7031,-1.18047,-479.7,-18.3,-1.40797,0.36717,-3.11851,0.0431601,-3.06374
2.49648,-12.7763,-1.18611,-479.699,-18.2938,-1.41016,0.29024,-3.11836,0.047346,-3.06359
2.50048,-12.8495,-1.19176,-479.698,-18.2872,-1.41233,0.213425,-3.11821,0.0515285,-3.06343
2.50448,-12.9226,-1.19742,-479.698,-18.2801,-1.41447,0.136711,-3.11806,0.0557086,-3.06328
2.50848,-12.9957,-1.20309,-479.697,-18.2725,-1.41659,0.0601401,-3.1179,0.0598843,-3.06313
2.51248,-13.0687,-1.20876,-479.697,-18.2645,-1.41869,-0.0163026,-3.11775,0.0640565,-3.06297
2.51648,-13.1418,-1.21445,-479.698,-18.2559,-1.42076,-0.0926523,-3.11759,0.0682273,-3.06281
2.52048,-13.2148,-1.22014,-479.698,-18.2469,-1.42281,-0.168828,-3.11744,0.0723924,-3.06265
2.52448,-13.2877,-1.22584,-479.699,-18.2375,-1.42484,-0.244865,-3.11728,0.076554,-3.06249
2.52848,-13.3607,-1.23155,-479.701,-18.2275,-1.42684,-0.320777,-3.11713,0.080713,-3.06233
2.53248,-13.4335,-1.23726,-479.702,-18.2171,-1.42882,-0.396542,-3.11697,0.0848684,-3.06217
2.53648,-13.5064,-1.24299,-479.704,-18.2062,-1.43078,-0.472138,-3.11681,0.089019,-3.06201
2.54048,-13.5792,-1.24872,-479.706,-18.1949,-1.43271,-0.547598,-3.11666,0.093167,-3.06185
2.54448,-13.6519,-1.25446,-479.709,-18.183,-1.43462,-0.6229,-3.1165,0.0973112,-3.06169
2.54848,-13.7246,-1.26021,-479.712,-18.1708,-1.43651,-0.698022,-3.11634,0.101451,-3.06152
2.55248,-13.7973,-1.26596,-479.715,-18.158,-1.43837,-0.772997,-3.11618,0.105587,-3.06136
2.55648,-13.8698,-1.27172,-479.718,-18.1448,-1.44021,-0.847783,-3.11602,0.109719,-3.06119
2.56048,-13.9424,-1.27749,-479.722,-18.1312,-1.44202,-0.922397,-3.11586,0.113847,-3.06102
2.56448,-14.0148,-1.28326,-479.726,-18.1171,-1.44381,-0.996834,-3.11569,0.117971,-3.06085
2.56849,-14.0873,-1.28905,-479.73,-18.1025,-1.44558,-1.07111,-3.11553,0.122091,-3.06068
2.57248,-14.1596,-1.29484,-479.735,-18.0875,-1.44733,-1.14518,-3.11537,0.126207,-3.06051
2.57649,-14.2319,-1.30063,-479.739,-18.0721,-1.44905,-1.21907,-3.11521,0.130319,-3.06034
2.58049,-14.3041,-1.30644,-479.745,-18.0562,-1.45074,-1.29278,-3.11504,0.134428,-3.06017
2.58449,-14.3763,-1.31225,-479.75,-18.0398,-1.45242,-1.3663,-3.11488,0.138533,-3.05999
2.58849,-14.4484,-1.31807,-479.756,-18.023,-1.45407,-1.43961,-3.11471,0.142632,-3.05982
2.59249,-14.5204,-1.32389,-479.762,-18.0058,-1.45569,-1.51273,-3.11454,0.146729,-3.05964
2.59649,-14.5924,-1.32972,-479.768,-17.9881,-1.45729,-1.58564,-3.11437,0.150821,-3.05947
2.60049,-14.6643,-1.33556,-479.775,-17.97,-1.45887,-1.65833,-3.11421,0.154908,-3.05929
2.60449,-14.7361,-1.3414,-479.782,-17.9515,-1.46043,-1.73083,-3.11404,0.158992,-3.05911
2.60849,-14.8079,-1.34725,-479.789,-17.9325,-1.46196,-1.80311,-3.11387,0.163071,-3.05893
2.61249,-14.8795,-1.3531,-479.797,-17.9131,-1.46346,-1.87515,-3.1137,0.167145,-3.05875
2.61649,-14.9511,-1.35896,-479.804,-17.8933,-1.46495,-1.947,-3.11353,0.171215,-3.05857
2.62049,-15.0226,-1.36483,-479.812,-17.873,-1.46641,-2.0186,-3.11335,0.175281,-3.05839
2.62449,-15.094,-1.3707,-479.821,-17.8524,-1.46784,-2.08997,-3.11318,0.179341,-3.0582
2.62849,-15.1653,-1.37658,-479.829,-17.8313,-1.46925,-2.16111,-3.11301,0.183397,-3.05802
2.63249,-15.2366,-1.38246,-479.838,-17.8097,-1.47064,-2.23203,-3.11283,0.18745,-3.05783
